Time,Lap,DistFromStart,Speed,RPM,Gear,SteerCmd,AccelCmd,BrakeCmd,ClutchCmd,X,Y,Z,Roll,Pitch,Yaw,AccelX,AccelY,AccelZ,WheelSpinVel_FL,WheelSpinVel_FR,WheelSpinVel_RL,WheelSpinVel_RR,ToMiddle,ToLeft,ToRight,AngleToTrack,TrackSegType,SegmentLength,Radius,DistToSegEnd,NextCornerDist,NextCornerRadius,NextCornerDir,LapBestTime,CurrentLapTime,LastLapTime,DamageLevel,FuelLevel,RacePos,TrackSensor1,TrackSensor2,TrackSensor3,TrackSensor4,TrackSensor5,TrackSensor6,TrackSensor7,TrackSensor8,TrackSensor9,TrackSensor10,TrackSensor11,TrackSensor12,TrackSensor13,TrackSensor14,TrackSensor15,TrackSensor16,TrackSensor17,TrackSensor18,TrackSensor19
-0.980,0,0.00,-0.10,115.19,0,0.0000,0.0000,1.0000,0.0000,600.9699,529.3522,35.0584,-0.0000,-0.0011,0.0018,-22.1790,5.7806,0.0134,0.0000,0.0000,1.0014,1.0064,-2.0000,8.0000,4.0000,-0.0018,straight,5.45,0.00,0.46,0.00,0.00,0,0.000,-0.982,0.000,0.00,26.73,4,200.0000,46.0701,23.3904,16.0000,12.4458,10.4433,9.2376,8.5134,8.1234,4.0000,4.0617,4.2567,4.6188,5.2216,6.2229,8.0000,11.6952,23.0351,200.0000
-0.960,0,4153.36,-0.10,115.19,0,0.0000,0.0000,0.0000,0.5932,600.9699,529.3522,35.0584,-0.0000,-0.0011,0.0018,-22.1790,5.7806,0.0134,0.0000,0.0000,1.0014,1.0064,-2.0000,8.0000,4.0000,-0.0018,straight,5.45,0.00,0.46,0.00,0.00,0,0.000,-0.962,0.000,0.00,26.73,4,200.0000,46.0701,23.3904,16.0000,12.4458,10.4433,9.2376,8.5134,8.1234,4.0000,4.0617,4.2567,4.6188,5.2216,6.2229,8.0000,11.6952,23.0351,200.0000
-0.940,0,4153.36,-0.10,115.19,0,0.0000,0.0000,0.0000,0.5932,600.9699,529.3522,35.0584,-0.0000,-0.0011,0.0018,-22.1790,5.7806,0.0134,0.0000,0.0000,1.0014,1.0064,-2.0000,8.0000,4.0000,-0.0018,straight,5.45,0.00,0.46,0.00,0.00,0,0.000,-0.942,0.000,0.00,26.73,4,200.0000,46.0701,23.3904,16.0000,12.4458,10.4433,9.2376,8.5134,8.1234,4.0000,4.0617,4.2567,4.6188,5.2216,6.2229,8.0000,11.6952,23.0351,200.0000
-0.920,0,4153.36,-0.10,115.19,0,0.0000,0.0000,0.0000,0.5932,600.9699,529.3522,35.0584,-0.0000,-0.0011,0.0018,-22.1790,5.7806,0.0134,0.0000,0.0000,1.0014,1.0064,-2.0000,8.0000,4.0000,-0.0018,straight,5.45,0.00,0.46,0.00,0.00,0,0.000,-0.922,0.000,0.00,26.73,4,200.0000,46.0701,23.3904,16.0000,12.4458,10.4433,9.2376,8.5134,8.1234,4.0000,4.0617,4.2567,4.6188,5.2216,6.2229,8.0000,11.6952,23.0351,200.0000
-0.900,0,4153.36,-0.10,115.19,0,0.0000,0.0000,0.0000,0.5932,600.9699,529.3522,35.0584,-0.0000,-0.0011,0.0018,-22.1790,5.7806,0.0134,0.0000,0.0000,1.0014,1.0064,-2.0000,8.0000,4.0000,-0.0018,straight,5.45,0.00,0.46,0.00,0.00,0,0.000,-0.902,0.000,0.00,26.73,4,200.0000,46.0701,23.3904,16.0000,12.4458,10.4433,9.2376,8.5134,8.1234,4.0000,4.0617,4.2567,4.6188,5.2216,6.2229,8.0000,11.6952,23.0351,200.0000
-0.880,0,4153.36,-0.10,115.19,0,0.0000,0.0000,0.0000,0.5932,600.9699,529.3522,35.0584,-0.0000,-0.0011,0.0018,-22.1790,5.7806,0.0134,0.0000,0.0000,1.0014,1.0064,-2.0000,8.0000,4.0000,-0.0018,straight,5.45,0.00,0.46,0.00,0.00,0,0.000,-0.882,0.000,0.00,26.73,4,200.0000,46.0701,23.3904,16.0000,12.4458,10.4433,9.2376,8.5134,8.1234,4.0000,4.0617,4.2567,4.6188,5.2216,6.2229,8.0000,11.6952,23.0351,200.0000
-0.860,0,4153.36,-0.10,115.19,0,0.0000,0.0000,0.0000,0.5932,600.9699,529.3522,35.0584,-0.0000,-0.0011,0.0018,-22.1790,5.7806,0.0134,0.0000,0.0000,1.0014,1.0064,-2.0000,8.0000,4.0000,-0.0018,straight,5.45,0.00,0.46,0.00,0.00,0,0.000,-0.862,0.000,0.00,26.73,4,200.0000,46.0701,23.3904,16.0000,12.4458,10.4433,9.2376,8.5134,8.1234,4.0000,4.0617,4.2567,4.6188,5.2216,6.2229,8.0000,11.6952,23.0351,200.0000
-0.840,0,4153.36,-0.10,115.19,0,0.0000,0.0000,0.0000,0.5932,600.9699,529.3522,35.0584,-0.0000,-0.0011,0.0018,-22.1790,5.7806,0.0134,0.0000,0.0000,1.0014,1.0064,-2.0000,8.0000,4.0000,-0.0018,straight,5.45,0.00,0.46,0.00,0.00,0,0.000,-0.842,0.000,0.00,26.73,4,200.0000,46.0701,23.3904,16.0000,12.4458,10.4433,9.2376,8.5134,8.1234,4.0000,4.0617,4.2567,4.6188,5.2216,6.2229,8.0000,11.6952,23.0351,200.0000
-0.820,0,4153.36,-0.10,115.19,0,0.0000,0.0000,0.0000,0.5932,600.9699,529.3522,35.0584,-0.0000,-0.0011,0.0018,-22.1790,5.7806,0.0134,0.0000,0.0000,1.0014,1.0064,-2.0000,8.0000,4.0000,-0.0018,straight,5.45,0.00,0.46,0.00,0.00,0,0.000,-0.822,0.000,0.00,26.73,4,200.0000,46.0701,23.3904,16.0000,12.4458,10.4433,9.2376,8.5134,8.1234,4.0000,4.0617,4.2567,4.6188,5.2216,6.2229,8.0000,11.6952,23.0351,200.0000
-0.800,0,4153.36,-0.10,115.19,0,0.0000,0.0000,0.0000,0.5932,600.9699,529.3522,35.0584,-0.0000,-0.0011,0.0018,-22.1790,5.7806,0.0134,0.0000,0.0000,1.0014,1.0064,-2.0000,8.0000,4.0000,-0.0018,straight,5.45,0.00,0.46,0.00,0.00,0,0.000,-0.802,0.000,0.00,26.73,4,200.0000,46.0701,23.3904,16.0000,12.4458,10.4433,9.2376,8.5134,8.1234,4.0000,4.0617,4.2567,4.6188,5.2216,6.2229,8.0000,11.6952,23.0351,200.0000
-0.780,0,4153.36,-0.10,115.19,0,0.0000,0.0000,0.0000,0.5932,600.9699,529.3522,35.0584,-0.0000,-0.0011,0.0018,-22.1790,5.7806,0.0134,0.0000,0.0000,1.0014,1.0064,-2.0000,8.0000,4.0000,-0.0018,straight,5.45,0.00,0.46,0.00,0.00,0,0.000,-0.782,0.000,0.00,26.73,4,200.0000,46.0701,23.3904,16.0000,12.4458,10.4433,9.2376,8.5134,8.1234,4.0000,4.0617,4.2567,4.6188,5.2216,6.2229,8.0000,11.6952,23.0351,200.0000
-0.760,0,4153.36,-0.10,115.19,0,0.0000,0.0000,0.0000,0.5932,600.9699,529.3522,35.0584,-0.0000,-0.0011,0.0018,-22.1790,5.7806,0.0134,0.0000,0.0000,1.0014,1.0064,-2.0000,8.0000,4.0000,-0.0018,straight,5.45,0.00,0.46,0.00,0.00,0,0.000,-0.762,0.000,0.00,26.73,4,200.0000,46.0701,23.3904,16.0000,12.4458,10.4433,9.2376,8.5134,8.1234,4.0000,4.0617,4.2567,4.6188,5.2216,6.2229,8.0000,11.6952,23.0351,200.0000
-0.740,0,4153.36,-0.10,115.19,0,0.0000,0.0000,0.0000,0.5932,600.9699,529.3522,35.0584,-0.0000,-0.0011,0.0018,-22.1790,5.7806,0.0134,0.0000,0.0000,1.0014,1.0064,-2.0000,8.0000,4.0000,-0.0018,straight,5.45,0.00,0.46,0.00,0.00,0,0.000,-0.742,0.000,0.00,26.73,4,200.0000,46.0701,23.3904,16.0000,12.4458,10.4433,9.2376,8.5134,8.1234,4.0000,4.0617,4.2567,4.6188,5.2216,6.2229,8.0000,11.6952,23.0351,200.0000
-0.720,0,4153.36,-0.10,115.19,0,0.0000,0.0000,0.0000,0.5932,600.9699,529.3522,35.0584,-0.0000,-0.0011,0.0018,-22.1790,5.7806,0.0134,0.0000,0.0000,1.0014,1.0064,-2.0000,8.0000,4.0000,-0.0018,straight,5.45,0.00,0.46,0.00,0.00,0,0.000,-0.722,0.000,0.00,26.73,4,200.0000,46.0701,23.3904,16.0000,12.4458,10.4433,9.2376,8.5134,8.1234,4.0000,4.0617,4.2567,4.6188,5.2216,6.2229,8.0000,11.6952,23.0351,200.0000
-0.700,0,4153.36,-0.10,115.19,0,0.0000,0.0000,0.0000,0.5932,600.9699,529.3522,35.0584,-0.0000,-0.0011,0.0018,-22.1790,5.7806,0.0134,0.0000,0.0000,1.0014,1.0064,-2.0000,8.0000,4.0000,-0.0018,straight,5.45,0.00,0.46,0.00,0.00,0,0.000,-0.702,0.000,0.00,26.73,4,200.0000,46.0701,23.3904,16.0000,12.4458,10.4433,9.2376,8.5134,8.1234,4.0000,4.0617,4.2567,4.6188,5.2216,6.2229,8.0000,11.6952,23.0351,200.0000
-0.680,0,4153.36,-0.10,115.19,0,0.0000,0.0000,0.0000,0.5932,600.9699,529.3522,35.0584,-0.0000,-0.0011,0.0018,-22.1790,5.7806,0.0134,0.0000,0.0000,1.0014,1.0064,-2.0000,8.0000,4.0000,-0.0018,straight,5.45,0.00,0.46,0.00,0.00,0,0.000,-0.682,0.000,0.00,26.73,4,200.0000,46.0701,23.3904,16.0000,12.4458,10.4433,9.2376,8.5134,8.1234,4.0000,4.0617,4.2567,4.6188,5.2216,6.2229,8.0000,11.6952,23.0351,200.0000
-0.660,0,4153.36,-0.10,115.19,0,0.0000,0.0000,0.0000,0.5932,600.9699,529.3522,35.0584,-0.0000,-0.0011,0.0018,-22.1790,5.7806,0.0134,0.0000,0.0000,1.0014,1.0064,-2.0000,8.0000,4.0000,-0.0018,straight,5.45,0.00,0.46,0.00,0.00,0,0.000,-0.662,0.000,0.00,26.73,4,200.0000,46.0701,23.3904,16.0000,12.4458,10.4433,9.2376,8.5134,8.1234,4.0000,4.0617,4.2567,4.6188,5.2216,6.2229,8.0000,11.6952,23.0351,200.0000
-0.640,0,4153.36,-0.10,115.19,0,0.0000,0.0000,0.0000,0.5932,600.9699,529.3522,35.0584,-0.0000,-0.0011,0.0018,-22.1790,5.7806,0.0134,0.0000,0.0000,1.0014,1.0064,-2.0000,8.0000,4.0000,-0.0018,straight,5.45,0.00,0.46,0.00,0.00,0,0.000,-0.642,0.000,0.00,26.73,4,200.0000,46.0701,23.3904,16.0000,12.4458,10.4433,9.2376,8.5134,8.1234,4.0000,4.0617,4.2567,4.6188,5.2216,6.2229,8.0000,11.6952,23.0351,200.0000
-0.620,0,4153.36,-0.10,115.19,0,0.0000,0.0000,0.0000,0.5932,600.9699,529.3522,35.0584,-0.0000,-0.0011,0.0018,-22.1790,5.7806,0.0134,0.0000,0.0000,1.0014,1.0064,-2.0000,8.0000,4.0000,-0.0018,straight,5.45,0.00,0.46,0.00,0.00,0,0.000,-0.622,0.000,0.00,26.73,4,200.0000,46.0701,23.3904,16.0000,12.4458,10.4433,9.2376,8.5134,8.1234,4.0000,4.0617,4.2567,4.6188,5.2216,6.2229,8.0000,11.6952,23.0351,200.0000
-0.600,0,4153.36,-0.10,115.19,0,0.0000,0.0000,0.0000,0.5932,600.9699,529.3522,35.0584,-0.0000,-0.0011,0.0018,-22.1790,5.7806,0.0134,0.0000,0.0000,1.0014,1.0064,-2.0000,8.0000,4.0000,-0.0018,straight,5.45,0.00,0.46,0.00,0.00,0,0.000,-0.602,0.000,0.00,26.73,4,200.0000,46.0701,23.3904,16.0000,12.4458,10.4433,9.2376,8.5134,8.1234,4.0000,4.0617,4.2567,4.6188,5.2216,6.2229,8.0000,11.6952,23.0351,200.0000
-0.580,0,4153.36,-0.10,115.19,0,0.0000,0.0000,0.0000,0.5932,600.9699,529.3522,35.0584,-0.0000,-0.0011,0.0018,-22.1790,5.7806,0.0134,0.0000,0.0000,1.0014,1.0064,-2.0000,8.0000,4.0000,-0.0018,straight,5.45,0.00,0.46,0.00,0.00,0,0.000,-0.582,0.000,0.00,26.73,4,200.0000,46.0701,23.3904,16.0000,12.4458,10.4433,9.2376,8.5134,8.1234,4.0000,4.0617,4.2567,4.6188,5.2216,6.2229,8.0000,11.6952,23.0351,200.0000
-0.560,0,4153.36,-0.10,115.19,0,0.0000,0.0000,0.0000,0.5932,600.9699,529.3522,35.0584,-0.0000,-0.0011,0.0018,-22.1790,5.7806,0.0134,0.0000,0.0000,1.0014,1.0064,-2.0000,8.0000,4.0000,-0.0018,straight,5.45,0.00,0.46,0.00,0.00,0,0.000,-0.562,0.000,0.00,26.73,4,200.0000,46.0701,23.3904,16.0000,12.4458,10.4433,9.2376,8.5134,8.1234,4.0000,4.0617,4.2567,4.6188,5.2216,6.2229,8.0000,11.6952,23.0351,200.0000
-0.540,0,4153.36,-0.10,115.19,0,0.0000,0.0000,0.0000,0.5932,600.9699,529.3522,35.0584,-0.0000,-0.0011,0.0018,-22.1790,5.7806,0.0134,0.0000,0.0000,1.0014,1.0064,-2.0000,8.0000,4.0000,-0.0018,straight,5.45,0.00,0.46,0.00,0.00,0,0.000,-0.542,0.000,0.00,26.73,4,200.0000,46.0701,23.3904,16.0000,12.4458,10.4433,9.2376,8.5134,8.1234,4.0000,4.0617,4.2567,4.6188,5.2216,6.2229,8.0000,11.6952,23.0351,200.0000
-0.520,0,4153.36,-0.10,115.19,0,0.0000,0.0000,0.0000,0.5932,600.9699,529.3522,35.0584,-0.0000,-0.0011,0.0018,-22.1790,5.7806,0.0134,0.0000,0.0000,1.0014,1.0064,-2.0000,8.0000,4.0000,-0.0018,straight,5.45,0.00,0.46,0.00,0.00,0,0.000,-0.522,0.000,0.00,26.73,4,200.0000,46.0701,23.3904,16.0000,12.4458,10.4433,9.2376,8.5134,8.1234,4.0000,4.0617,4.2567,4.6188,5.2216,6.2229,8.0000,11.6952,23.0351,200.0000
-0.500,0,4153.36,-0.10,134.94,0,0.0000,1.0000,0.0000,0.5932,600.9699,529.3522,35.0584,-0.0000,-0.0011,0.0018,-22.1790,5.7806,0.0134,0.0000,0.0000,1.0014,1.0064,-2.0000,8.0000,4.0000,-0.0018,straight,5.45,0.00,0.46,0.00,0.00,0,0.000,-0.502,0.000,0.00,26.73,4,200.0000,46.0701,23.3904,16.0000,12.4458,10.4433,9.2376,8.5134,8.1234,4.0000,4.0617,4.2567,4.6188,5.2216,6.2229,8.0000,11.6952,23.0351,200.0000
-0.480,0,4153.36,-0.10,155.99,0,0.0000,1.0000,0.0000,0.5932,600.9699,529.3522,35.0584,-0.0000,-0.0011,0.0018,-22.1790,5.7806,0.0134,0.0000,0.0000,1.0014,1.0064,-2.0000,8.0000,4.0000,-0.0018,straight,5.45,0.00,0.46,0.00,0.00,0,0.000,-0.482,0.000,0.00,26.73,4,200.0000,46.0701,23.3904,16.0000,12.4458,10.4433,9.2376,8.5134,8.1234,4.0000,4.0617,4.2567,4.6188,5.2216,6.2229,8.0000,11.6952,23.0351,200.0000
-0.460,0,4153.36,-0.10,178.41,0,0.0000,1.0000,0.0000,0.5932,600.9699,529.3522,35.0584,-0.0000,-0.0011,0.0018,-22.1790,5.7806,0.0134,0.0000,0.0000,1.0014,1.0064,-2.0000,8.0000,4.0000,-0.0018,straight,5.45,0.00,0.46,0.00,0.00,0,0.000,-0.462,0.000,0.00,26.73,4,200.0000,46.0701,23.3904,16.0000,12.4458,10.4433,9.2376,8.5134,8.1234,4.0000,4.0617,4.2567,4.6188,5.2216,6.2229,8.0000,11.6952,23.0351,200.0000
-0.440,0,4153.36,-0.10,202.30,0,0.0000,1.0000,0.0000,0.5932,600.9699,529.3522,35.0584,-0.0000,-0.0011,0.0018,-22.1790,5.7806,0.0134,0.0000,0.0000,1.0014,1.0064,-2.0000,8.0000,4.0000,-0.0018,straight,5.45,0.00,0.46,0.00,0.00,0,0.000,-0.442,0.000,0.00,26.73,4,200.0000,46.0701,23.3904,16.0000,12.4458,10.4433,9.2376,8.5134,8.1234,4.0000,4.0617,4.2567,4.6188,5.2216,6.2229,8.0000,11.6952,23.0351,200.0000
-0.420,0,4153.36,-0.10,227.73,0,0.0000,1.0000,0.0000,0.5932,600.9699,529.3522,35.0584,-0.0000,-0.0011,0.0018,-22.1790,5.7806,0.0134,0.0000,0.0000,1.0014,1.0064,-2.0000,8.0000,4.0000,-0.0018,straight,5.45,0.00,0.46,0.00,0.00,0,0.000,-0.422,0.000,0.00,26.73,4,200.0000,46.0701,23.3904,16.0000,12.4458,10.4433,9.2376,8.5134,8.1234,4.0000,4.0617,4.2567,4.6188,5.2216,6.2229,8.0000,11.6952,23.0351,200.0000
-0.400,0,4153.36,-0.10,254.50,0,0.0000,1.0000,0.0000,0.5932,600.9699,529.3522,35.0584,-0.0000,-0.0011,0.0018,-22.1790,5.7806,0.0134,0.0000,0.0000,1.0014,1.0064,-2.0000,8.0000,4.0000,-0.0018,straight,5.45,0.00,0.46,0.00,0.00,0,0.000,-0.402,0.000,0.00,26.73,4,200.0000,46.0701,23.3904,16.0000,12.4458,10.4433,9.2376,8.5134,8.1234,4.0000,4.0617,4.2567,4.6188,5.2216,6.2229,8.0000,11.6952,23.0351,200.0000
-0.380,0,4153.36,-0.10,282.64,0,0.0000,1.0000,0.0000,0.5932,600.9699,529.3522,35.0584,-0.0000,-0.0011,0.0018,-22.1790,5.7806,0.0134,0.0000,0.0000,1.0014,1.0064,-2.0000,8.0000,4.0000,-0.0018,straight,5.45,0.00,0.46,0.00,0.00,0,0.000,-0.382,0.000,0.00,26.73,4,200.0000,46.0701,23.3904,16.0000,12.4458,10.4433,9.2376,8.5134,8.1234,4.0000,4.0617,4.2567,4.6188,5.2216,6.2229,8.0000,11.6952,23.0351,200.0000
-0.360,0,4153.36,-0.10,312.21,0,0.0000,1.0000,0.0000,0.5932,600.9699,529.3522,35.0584,-0.0000,-0.0011,0.0018,-22.1790,5.7806,0.0134,0.0000,0.0000,1.0014,1.0064,-2.0000,8.0000,4.0000,-0.0018,straight,5.45,0.00,0.46,0.00,0.00,0,0.000,-0.362,0.000,0.00,26.73,4,200.0000,46.0701,23.3904,16.0000,12.4458,10.4433,9.2376,8.5134,8.1234,4.0000,4.0617,4.2567,4.6188,5.2216,6.2229,8.0000,11.6952,23.0351,200.0000
-0.340,0,4153.36,-0.10,343.44,0,0.0000,1.0000,0.0000,0.5932,600.9699,529.3522,35.0584,-0.0000,-0.0011,0.0018,-22.1790,5.7806,0.0134,0.0000,0.0000,1.0014,1.0064,-2.0000,8.0000,4.0000,-0.0018,straight,5.45,0.00,0.46,0.00,0.00,0,0.000,-0.342,0.000,0.00,26.73,4,200.0000,46.0701,23.3904,16.0000,12.4458,10.4433,9.2376,8.5134,8.1234,4.0000,4.0617,4.2567,4.6188,5.2216,6.2229,8.0000,11.6952,23.0351,200.0000
-0.320,0,4153.36,-0.10,377.01,0,0.0000,1.0000,0.0000,0.5932,600.9699,529.3522,35.0584,-0.0000,-0.0011,0.0018,-22.1790,5.7806,0.0134,0.0000,0.0000,1.0014,1.0064,-2.0000,8.0000,4.0000,-0.0018,straight,5.45,0.00,0.46,0.00,0.00,0,0.000,-0.322,0.000,0.00,26.73,4,200.0000,46.0701,23.3904,16.0000,12.4458,10.4433,9.2376,8.5134,8.1234,4.0000,4.0617,4.2567,4.6188,5.2216,6.2229,8.0000,11.6952,23.0351,200.0000
-0.300,0,4153.36,-0.10,413.13,0,0.0000,1.0000,0.0000,0.5932,600.9699,529.3522,35.0584,-0.0000,-0.0011,0.0018,-22.1790,5.7806,0.0134,0.0000,0.0000,1.0014,1.0064,-2.0000,8.0000,4.0000,-0.0018,straight,5.45,0.00,0.46,0.00,0.00,0,0.000,-0.302,0.000,0.00,26.73,4,200.0000,46.0701,23.3904,16.0000,12.4458,10.4433,9.2376,8.5134,8.1234,4.0000,4.0617,4.2567,4.6188,5.2216,6.2229,8.0000,11.6952,23.0351,200.0000
-0.280,0,4153.36,-0.10,451.60,0,0.0000,1.0000,0.0000,0.5932,600.9699,529.3522,35.0584,-0.0000,-0.0011,0.0018,-22.1790,5.7806,0.0134,0.0000,0.0000,1.0014,1.0064,-2.0000,8.0000,4.0000,-0.0018,straight,5.45,0.00,0.46,0.00,0.00,0,0.000,-0.282,0.000,0.00,26.73,4,200.0000,46.0701,23.3904,16.0000,12.4458,10.4433,9.2376,8.5134,8.1234,4.0000,4.0617,4.2567,4.6188,5.2216,6.2229,8.0000,11.6952,23.0351,200.0000
-0.260,0,4153.36,-0.10,490.39,0,0.0000,1.0000,0.0000,0.5932,600.9699,529.3522,35.0584,-0.0000,-0.0011,0.0018,-22.1790,5.7806,0.0134,0.0000,0.0000,1.0014,1.0064,-2.0000,8.0000,4.0000,-0.0018,straight,5.45,0.00,0.46,0.00,0.00,0,0.000,-0.262,0.000,0.00,26.73,4,200.0000,46.0701,23.3904,16.0000,12.4458,10.4433,9.2376,8.5134,8.1234,4.0000,4.0617,4.2567,4.6188,5.2216,6.2229,8.0000,11.6952,23.0351,200.0000
-0.240,0,4153.36,-0.10,529.22,0,0.0000,1.0000,0.0000,0.5932,600.9699,529.3522,35.0584,-0.0000,-0.0011,0.0018,-22.1790,5.7806,0.0134,0.0000,0.0000,1.0014,1.0064,-2.0000,8.0000,4.0000,-0.0018,straight,5.45,0.00,0.46,0.00,0.00,0,0.000,-0.242,0.000,0.00,26.73,4,200.0000,46.0701,23.3904,16.0000,12.4458,10.4433,9.2376,8.5134,8.1234,4.0000,4.0617,4.2567,4.6188,5.2216,6.2229,8.0000,11.6952,23.0351,200.0000
-0.220,0,4153.36,-0.10,567.95,0,0.0000,1.0000,0.0000,0.5932,600.9699,529.3522,35.0584,-0.0000,-0.0011,0.0018,-22.1790,5.7806,0.0134,0.0000,0.0000,1.0014,1.0064,-2.0000,8.0000,4.0000,-0.0018,straight,5.45,0.00,0.46,0.00,0.00,0,0.000,-0.222,0.000,0.00,26.73,4,200.0000,46.0701,23.3904,16.0000,12.4458,10.4433,9.2376,8.5134,8.1234,4.0000,4.0617,4.2567,4.6188,5.2216,6.2229,8.0000,11.6952,23.0351,200.0000
-0.200,0,4153.36,-0.10,606.29,0,0.0250,1.0000,0.0000,0.5932,600.9699,529.3522,35.0584,-0.0000,-0.0011,0.0018,-22.1790,5.7806,0.0134,0.0000,0.0000,1.0014,1.0064,-2.0000,8.0000,4.0000,-0.0018,straight,5.45,0.00,0.46,0.00,0.00,0,0.000,-0.202,0.000,0.00,26.73,4,200.0000,46.0701,23.3904,16.0000,12.4458,10.4433,9.2376,8.5134,8.1234,4.0000,4.0617,4.2567,4.6188,5.2216,6.2229,8.0000,11.6952,23.0351,200.0000
-0.180,0,4153.36,-0.10,644.21,0,0.0500,1.0000,0.0000,0.5932,600.9699,529.3522,35.0584,-0.0000,-0.0011,0.0018,-22.1790,5.7806,0.0134,0.0000,0.0000,1.0014,1.0064,-2.0000,8.0000,4.0000,-0.0018,straight,5.45,0.00,0.46,0.00,0.00,0,0.000,-0.182,0.000,0.00,26.73,4,200.0000,46.0701,23.3904,16.0000,12.4458,10.4433,9.2376,8.5134,8.1234,4.0000,4.0617,4.2567,4.6188,5.2216,6.2229,8.0000,11.6952,23.0351,200.0000
-0.160,0,4153.36,-0.10,681.58,0,0.0750,1.0000,0.0000,0.5932,600.9699,529.3522,35.0584,-0.0000,-0.0011,0.0018,-22.1790,5.7806,0.0134,0.0000,0.0000,1.0014,1.0064,-2.0000,8.0000,4.0000,-0.0018,straight,5.45,0.00,0.46,0.00,0.00,0,0.000,-0.162,0.000,0.00,26.73,4,200.0000,46.0701,23.3904,16.0000,12.4458,10.4433,9.2376,8.5134,8.1234,4.0000,4.0617,4.2567,4.6188,5.2216,6.2229,8.0000,11.6952,23.0351,200.0000
-0.140,0,4153.36,-0.10,718.40,0,0.1000,1.0000,0.0000,0.5932,600.9699,529.3522,35.0584,-0.0000,-0.0011,0.0018,-22.1790,5.7806,0.0134,0.0000,0.0000,1.0014,1.0064,-2.0000,8.0000,4.0000,-0.0018,straight,5.45,0.00,0.46,0.00,0.00,0,0.000,-0.142,0.000,0.00,26.73,4,200.0000,46.0701,23.3904,16.0000,12.4458,10.4433,9.2376,8.5134,8.1234,4.0000,4.0617,4.2567,4.6188,5.2216,6.2229,8.0000,11.6952,23.0351,200.0000
-0.120,0,4153.36,-0.10,753.70,0,0.1250,0.9775,0.0000,0.5932,600.9699,529.3522,35.0584,-0.0000,-0.0011,0.0018,-22.1790,5.7806,0.0134,0.0000,0.0000,1.0014,1.0064,-2.0000,8.0000,4.0000,-0.0018,straight,5.45,0.00,0.46,0.00,0.00,0,0.000,-0.122,0.000,0.00,26.73,4,200.0000,46.0701,23.3904,16.0000,12.4458,10.4433,9.2376,8.5134,8.1234,4.0000,4.0617,4.2567,4.6188,5.2216,6.2229,8.0000,11.6952,23.0351,200.0000
-0.100,0,4153.36,-0.10,788.67,0,0.0000,1.0000,0.0000,0.5932,600.9699,529.3522,35.0584,-0.0000,-0.0011,0.0018,-22.1790,5.7806,0.0134,0.0000,0.0000,1.0014,1.0064,-2.0000,8.0000,4.0000,-0.0018,straight,5.45,0.00,0.46,0.00,0.00,0,0.000,-0.102,0.000,0.00,26.73,4,200.0000,46.0701,23.3904,16.0000,12.4458,10.4433,9.2376,8.5134,8.1234,4.0000,4.0617,4.2567,4.6188,5.2216,6.2229,8.0000,11.6952,23.0351,200.0000
-0.080,0,4153.36,-0.10,821.70,0,0.0000,1.0000,0.0000,0.5932,600.9699,529.3522,35.0584,-0.0000,-0.0011,0.0018,-22.1790,5.7806,0.0134,0.0000,0.0000,1.0014,1.0064,-2.0000,8.0000,4.0000,-0.0018,straight,5.45,0.00,0.46,0.00,0.00,0,0.000,-0.082,0.000,0.00,26.72,4,200.0000,46.0701,23.3904,16.0000,12.4458,10.4433,9.2376,8.5134,8.1234,4.0000,4.0617,4.2567,4.6188,5.2216,6.2229,8.0000,11.6952,23.0351,200.0000
-0.060,0,4153.36,-0.10,852.91,0,0.0000,1.0000,0.0000,0.5932,600.9699,529.3522,35.0584,-0.0000,-0.0011,0.0018,-22.1790,5.7806,0.0134,0.0000,0.0000,1.0014,1.0064,-2.0000,8.0000,4.0000,-0.0018,straight,5.45,0.00,0.46,0.00,0.00,0,0.000,-0.062,0.000,0.00,26.72,4,200.0000,46.0701,23.3904,16.0000,12.4458,10.4433,9.2376,8.5134,8.1234,4.0000,4.0617,4.2567,4.6188,5.2216,6.2229,8.0000,11.6952,23.0351,200.0000
-0.040,0,4153.36,-0.10,881.84,0,0.0000,1.0000,0.0000,0.5932,600.9699,529.3522,35.0584,-0.0000,-0.0011,0.0018,-22.1790,5.7806,0.0134,0.0000,0.0000,1.0014,1.0064,-2.0000,8.0000,4.0000,-0.0018,straight,5.45,0.00,0.46,0.00,0.00,0,0.000,-0.042,0.000,0.00,26.72,4,200.0000,46.0701,23.3904,16.0000,12.4458,10.4433,9.2376,8.5134,8.1234,4.0000,4.0617,4.2567,4.6188,5.2216,6.2229,8.0000,11.6952,23.0351,200.0000
-0.020,0,4153.36,-0.10,892.73,0,0.0000,1.0000,0.0000,0.5932,600.9699,529.3522,35.0584,-0.0000,-0.0011,0.0018,-22.1790,5.7806,0.0134,0.0000,0.0000,1.0014,1.0064,-2.0000,8.0000,4.0000,-0.0018,straight,5.45,0.00,0.46,0.00,0.00,0,0.000,-0.022,0.000,0.00,26.72,4,200.0000,46.0701,23.3904,16.0000,12.4458,10.4433,9.2376,8.5134,8.1234,4.0000,4.0617,4.2567,4.6188,5.2216,6.2229,8.0000,11.6952,23.0351,200.0000
0.020,0,4153.36,0.04,892.73,0,0.0000,1.0000,0.0000,0.5932,600.9697,529.3522,35.0584,-0.0001,-0.0010,0.0016,24.4766,0.7154,-0.0107,-1.5921,-1.6879,-0.7964,-0.8663,-2.0000,8.0000,4.0000,-0.0016,straight,5.45,0.00,0.46,0.00,0.00,0,0.000,0.018,0.000,0.00,26.72,4,200.0000,46.0701,23.3904,16.0000,12.4458,10.4433,9.2376,8.5134,8.1234,4.0000,4.0617,4.2567,4.6188,5.2216,6.2229,8.0000,11.6952,23.0351,200.0000
0.040,0,4153.36,0.70,710.67,1,0.0250,1.0000,0.0000,0.5932,600.9709,529.3522,35.0584,-0.0001,-0.0014,0.0015,24.5480,0.2537,0.0146,0.4373,0.3890,1.0510,1.0817,-2.0000,8.0000,4.0000,-0.0015,straight,5.45,0.00,0.46,0.00,0.00,0,0.000,0.038,0.000,0.00,26.72,4,200.0000,46.0701,23.3904,16.0000,12.4458,10.4433,9.2376,8.5134,8.1234,4.0000,4.0617,4.2567,4.6188,5.2216,6.2229,8.0000,11.6952,23.0351,200.0000
0.060,0,4153.36,1.58,523.80,1,0.0500,1.0000,0.0000,0.5532,600.9773,529.3522,35.0585,-0.0000,-0.0027,0.0016,12.4988,0.1382,0.0394,6.1818,2.5894,1.7157,1.7680,-2.0000,8.0000,4.0000,-0.0016,straight,5.45,0.00,0.45,0.00,0.00,0,0.000,0.058,0.000,0.00,26.72,4,200.0000,46.0701,23.3904,16.0000,12.4458,10.4433,9.2376,8.5134,8.1234,4.0000,4.0617,4.2567,4.6188,5.2216,6.2229,8.0000,11.6952,23.0351,200.0000
0.080,0,4153.37,2.60,356.86,1,0.0750,1.0000,0.0000,0.5132,600.9893,529.3522,35.0585,0.0000,-0.0048,0.0017,18.2721,0.1639,0.0727,7.5216,1.1060,2.5560,2.5241,-2.0000,8.0000,4.0000,-0.0017,straight,5.45,0.00,0.44,0.00,0.00,0,0.000,0.078,0.000,0.00,26.72,4,200.0000,46.0701,23.3904,16.0000,12.4458,10.4433,9.2376,8.5134,8.1234,4.0000,4.0617,4.2567,4.6188,5.2216,6.2229,8.0000,11.6952,23.0351,200.0000
0.100,0,4153.38,3.36,224.28,1,0.1000,1.0000,0.0000,0.4732,601.0060,529.3525,35.0586,0.0001,-0.0072,0.0020,4.4496,0.0412,0.0691,1.1240,7.1417,3.0043,3.0596,-1.9996,7.9996,4.0004,-0.0020,straight,5.45,0.00,0.42,0.00,0.00,0,0.000,0.098,0.000,0.00,26.72,4,200.0000,46.0680,23.3893,15.9993,12.4452,10.4428,9.2372,8.5130,8.1230,4.0004,4.0621,4.2571,4.6192,5.2221,6.2235,8.0007,11.6963,23.0372,200.0000
0.120,0,4153.40,3.97,146.35,1,0.0000,1.0000,0.0000,0.4332,601.0264,529.3529,35.0587,0.0002,-0.0093,0.0021,5.5071,-0.5844,0.0478,7.3328,1.7197,3.4673,2.9699,-1.9993,7.9993,4.0007,-0.0021,straight,5.45,0.00,0.40,0.00,0.00,0,0.000,0.118,0.000,0.00,26.72,4,200.0000,46.0659,23.3883,15.9985,12.4446,10.4423,9.2368,8.5126,8.1227,4.0007,4.0625,4.2575,4.6197,5.2226,6.2240,8.0015,11.6974,23.0393,200.0000
0.140,0,4153.42,4.48,115.19,1,0.0000,1.0000,0.0000,0.3932,601.0497,529.3529,35.0588,0.0002,-0.0110,0.0022,4.0852,-0.0771,0.0349,2.2300,7.4266,3.6438,3.6030,-1.9993,7.9993,4.0007,-0.0022,straight,5.45,0.00,0.38,0.00,0.00,0,0.000,0.138,0.000,0.00,26.72,4,200.0000,46.0659,23.3883,15.9985,12.4446,10.4423,9.2368,8.5126,8.1227,4.0007,4.0625,4.2575,4.6197,5.2226,6.2240,8.0015,11.6974,23.0393,200.0000
0.160,0,4153.44,4.96,115.19,1,0.0000,1.0000,0.0000,0.3532,601.0758,529.3529,35.0589,0.0001,-0.0120,0.0022,4.2789,-0.0902,0.0263,7.7270,2.5396,4.0702,4.0865,-1.9993,7.9993,4.0007,-0.0022,straight,5.45,0.00,0.35,0.00,0.00,0,0.000,0.158,0.000,0.00,26.72,4,200.0000,46.0659,23.3883,15.9985,12.4446,10.4423,9.2368,8.5126,8.1227,4.0007,4.0625,4.2575,4.6197,5.2226,6.2240,8.0015,11.6974,23.0393,200.0000
0.180,0,4153.47,5.44,115.19,1,0.0000,1.0000,0.0000,0.3132,601.1046,529.3529,35.0590,0.0000,-0.0125,0.0022,4.4097,0.0500,-0.0169,3.0399,8.2789,4.5490,4.5444,-1.9993,7.9993,4.0007,-0.0022,straight,5.45,0.00,0.32,0.00,0.00,0,0.000,0.178,0.000,0.00,26.72,4,200.0000,46.0659,23.3883,15.9985,12.4446,10.4423,9.2368,8.5126,8.1227,4.0007,4.0625,4.2575,4.6197,5.2226,6.2240,8.0015,11.6974,23.0393,200.0000
0.200,0,4153.50,5.93,115.57,1,0.0000,1.0000,0.0000,0.2732,601.1360,529.3529,35.0592,-0.0000,-0.0125,0.0022,4.5025,-0.0682,-0.0795,8.7241,3.4425,5.0603,4.9876,-1.9993,7.9993,4.0007,-0.0022,straight,5.45,0.00,0.29,0.00,0.00,0,0.000,0.198,0.000,0.00,26.72,4,200.0000,46.0659,23.3883,15.9985,12.4446,10.4423,9.2368,8.5126,8.1227,4.0007,4.0625,4.2575,4.6197,5.2226,6.2240,8.0015,11.6974,23.0393,200.0000
0.220,0,4153.53,6.41,119.36,1,0.0000,1.0000,0.0000,0.2332,601.1702,529.3529,35.0592,-0.0000,-0.0121,0.0022,4.1927,0.0591,-0.0446,4.0036,9.3640,5.4550,5.5500,-1.9993,7.9993,4.0007,-0.0022,straight,5.45,0.00,0.26,0.00,0.00,0,0.000,0.218,0.000,0.00,26.72,4,200.0000,46.0659,23.3883,15.9985,12.4446,10.4423,9.2368,8.5126,8.1227,4.0007,4.0625,4.2575,4.6197,5.2226,6.2240,8.0015,11.6974,23.0393,200.0000
0.240,0,4153.56,6.92,122.07,1,0.0000,1.0000,0.0000,0.1932,601.2071,529.3529,35.0593,-0.0000,-0.0116,0.0022,3.5549,-0.0258,-0.0445,9.4834,4.1537,5.8136,6.1025,-1.9993,7.9993,4.0007,-0.0022,straight,5.45,0.00,0.22,0.00,0.00,0,0.000,0.238,0.000,0.00,26.72,4,200.0000,46.0659,23.3883,15.9985,12.4446,10.4423,9.2368,8.5126,8.1227,4.0007,4.0625,4.2575,4.6197,5.2226,6.2240,8.0015,11.6974,23.0393,200.0000
0.262,0,4153.60,7.43,129.28,1,0.0000,1.0000,0.0000,0.1532,601.2510,529.3529,35.0594,-0.0000,-0.0110,0.0021,1.5437,0.3030,-0.0608,7.2841,7.1930,9.4823,6.2886,-1.9993,7.9993,4.0007,-0.0021,straight,5.45,0.00,0.18,0.00,0.00,0,0.000,0.260,0.000,0.00,26.72,4,200.0000,46.0659,23.3883,15.9985,12.4446,10.4423,9.2368,8.5126,8.1227,4.0007,4.0625,4.2575,4.6197,5.2226,6.2240,8.0015,11.6974,23.0393,200.0000
0.282,0,4153.64,7.93,139.56,1,0.0000,1.0000,0.0000,0.1132,601.2939,529.3529,35.0594,-0.0000,-0.0105,0.0022,3.6044,0.1659,0.0392,6.6189,10.5742,5.3662,11.3112,-1.9993,7.9993,4.0007,-0.0022,straight,5.45,0.00,0.13,0.00,0.00,0,0.000,0.280,0.000,0.00,26.72,4,200.0000,46.0659,23.3883,15.9985,12.4446,10.4423,9.2368,8.5126,8.1227,4.0007,4.0625,4.2575,4.6197,5.2226,6.2240,8.0015,11.6974,23.0393,200.0000
0.302,0,4153.69,7.97,116.91,1,0.0000,0.0000,0.0000,0.0732,601.3382,529.3529,35.0594,-0.0000,-0.0097,0.0021,0.2313,-0.0042,0.0204,10.3528,5.2021,10.5486,4.3292,-1.9993,7.9993,4.0007,-0.0021,straight,5.45,0.00,0.09,0.00,0.00,0,0.000,0.300,0.000,0.00,26.72,4,200.0000,46.0659,23.3883,15.9985,12.4446,10.4423,9.2368,8.5126,8.1227,4.0007,4.0625,4.2575,4.6197,5.2226,6.2240,8.0015,11.6974,23.0393,200.0000
0.322,0,4153.73,7.97,115.19,1,0.0000,0.0000,0.0000,0.0332,601.3828,529.3529,35.0594,-0.0000,-0.0086,0.0022,0.1812,0.0091,-0.0237,4.7109,10.2160,4.3467,10.2553,-1.9993,7.9993,4.0007,-0.0022,straight,5.45,0.00,0.04,0.00,0.00,0,0.000,0.320,0.000,0.00,26.72,4,200.0000,46.0659,23.3883,15.9985,12.4446,10.4423,9.2368,8.5126,8.1227,4.0007,4.0625,4.2575,4.6197,5.2226,6.2240,8.0015,11.6974,23.0393,200.0000
0.342,0,4153.78,7.96,115.19,1,0.0000,0.0000,0.0000,0.0000,601.4271,529.3529,35.0594,-0.0000,-0.0074,0.0022,0.0174,0.0037,-0.0473,10.1542,4.4543,10.0863,4.3983,-1.9993,7.9993,4.0007,-0.0022,straight,5.45,0.00,0.00,0.00,0.00,0,0.000,0.340,0.000,0.00,26.72,4,200.0000,46.0659,23.3883,15.9985,12.4446,10.4423,9.2368,8.5126,8.1227,4.0007,4.0625,4.2575,4.6197,5.2226,6.2240,8.0015,11.6974,23.0393,200.0000
0.362,0,4153.82,7.95,115.19,1,0.0000,0.0000,0.0000,0.0000,601.4710,529.3529,35.0594,0.0000,-0.0062,0.0022,0.0786,0.0002,-0.0153,4.2935,10.1443,4.4173,9.9271,-1.9993,7.9993,4.0007,-0.0022,straight,5.45,0.00,5.41,0.00,0.00,0,0.000,0.360,0.000,0.00,26.72,4,200.0000,46.0659,23.3883,15.9985,12.4447,10.4423,9.2368,8.5126,8.1227,4.0007,4.0624,4.2575,4.6196,5.2226,6.2240,8.0015,11.6974,23.0393,200.0000
0.382,0,4153.86,7.94,115.19,1,0.0000,0.0000,0.0000,0.0000,601.5150,529.3529,35.0594,0.0000,-0.0051,0.0022,-0.0063,0.0039,-0.0669,10.1309,4.1910,9.8821,4.3958,-1.9993,7.9993,4.0007,-0.0022,straight,5.45,0.00,5.37,0.00,0.00,0,0.000,0.380,0.000,0.00,26.72,4,200.0000,46.0659,23.3883,15.9985,12.4447,10.4423,9.2368,8.5126,8.1227,4.0007,4.0624,4.2575,4.6196,5.2226,6.2240,8.0015,11.6974,23.0393,200.0000
0.402,0,4153.91,7.93,115.19,1,0.0000,0.0000,0.0000,0.0000,601.5589,529.3529,35.0593,0.0000,-0.0041,0.0022,0.0184,-0.0024,-0.0291,4.1435,10.1333,4.3796,9.8277,-1.9993,7.9993,4.0007,-0.0022,straight,5.45,0.00,5.32,0.00,0.00,0,0.000,0.400,0.000,0.00,26.72,4,200.0000,46.0659,23.3883,15.9985,12.4447,10.4423,9.2368,8.5126,8.1227,4.0007,4.0624,4.2575,4.6196,5.2226,6.2240,8.0015,11.6974,23.0393,200.0000
0.422,0,4153.95,7.91,115.19,1,0.0000,0.0000,0.0000,0.0000,601.6028,529.3529,35.0593,0.0000,-0.0033,0.0022,-0.0395,0.0043,0.0195,10.0948,4.1235,9.7851,4.3696,-1.9993,7.9993,4.0007,-0.0022,straight,5.45,0.00,5.28,0.00,0.00,0,0.000,0.420,0.000,0.00,26.72,4,200.0000,46.0659,23.3883,15.9985,12.4447,10.4423,9.2368,8.5126,8.1227,4.0007,4.0624,4.2575,4.6196,5.2226,6.2240,8.0015,11.6974,23.0393,200.0000
0.442,0,4154.00,7.90,115.19,1,0.0000,0.0000,0.0000,0.0000,601.6468,529.3529,35.0593,0.0000,-0.0026,0.0022,0.0044,-0.0031,0.0360,4.1176,10.0894,4.3718,9.8083,-1.9993,7.9993,4.0007,-0.0022,straight,5.45,0.00,5.24,0.00,0.00,0,0.000,0.440,0.000,0.00,26.72,4,200.0000,46.0659,23.3883,15.9985,12.4447,10.4423,9.2368,8.5126,8.1227,4.0007,4.0625,4.2575,4.6196,5.2226,6.2240,8.0015,11.6974,23.0393,200.0000
0.462,0,4154.04,7.88,115.19,1,0.0000,0.0000,0.0000,0.0000,601.6907,529.3529,35.0593,0.0000,-0.0021,0.0022,-0.0259,0.0032,0.0429,10.0835,4.1147,9.8235,4.3592,-1.9993,7.9993,4.0007,-0.0022,straight,5.45,0.00,5.19,0.00,0.00,0,0.000,0.460,0.000,0.00,26.72,4,200.0000,46.0659,23.3883,15.9985,12.4447,10.4423,9.2368,8.5126,8.1227,4.0007,4.0625,4.2575,4.6196,5.2226,6.2240,8.0015,11.6974,23.0393,200.0000
0.482,0,4154.08,7.87,115.19,1,0.0000,0.0000,0.0000,0.0000,601.7347,529.3529,35.0593,0.0000,-0.0018,0.0022,0.0394,-0.0022,0.0509,4.0862,10.0467,4.3395,9.8479,-1.9993,7.9993,4.0007,-0.0022,straight,5.45,0.00,5.15,0.00,0.00,0,0.000,0.480,0.000,0.00,26.72,4,200.0000,46.0659,23.3883,15.9985,12.4447,10.4423,9.2368,8.5126,8.1227,4.0007,4.0625,4.2575,4.6196,5.2226,6.2240,8.0015,11.6974,23.0393,200.0000
0.504,0,4154.13,7.85,115.19,1,0.0000,0.0000,0.0000,0.0000,601.7828,529.3529,35.0594,0.0000,-0.0015,0.0022,-0.0259,0.0013,0.0189,10.2227,3.8707,4.5426,9.6046,-1.9993,7.9993,4.0007,-0.0022,straight,5.45,0.00,5.10,0.00,0.00,0,0.000,0.502,0.000,0.00,26.72,4,200.0000,46.0659,23.3883,15.9985,12.4447,10.4423,9.2368,8.5126,8.1227,4.0007,4.0625,4.2575,4.6196,5.2226,6.2240,8.0015,11.6974,23.0393,200.0000
0.524,0,4154.18,7.84,115.19,1,0.0000,0.0000,0.0000,0.0000,601.8262,529.3529,35.0594,-0.0000,-0.0014,0.0022,0.0211,-0.0003,0.0316,3.8733,10.1995,9.5891,4.4863,-1.9993,7.9993,4.0007,-0.0022,straight,5.45,0.00,5.06,0.00,0.00,0,0.000,0.522,0.000,0.00,26.72,4,200.0000,46.0659,23.3883,15.9985,12.4447,10.4423,9.2368,8.5126,8.1227,4.0007,4.0625,4.2575,4.6196,5.2226,6.2240,8.0015,11.6974,23.0393,200.0000
0.544,0,4154.22,7.82,115.19,1,0.0000,0.0000,0.0000,0.0000,601.8695,529.3529,35.0595,-0.0000,-0.0013,0.0022,-0.0320,0.0007,0.0340,10.1787,3.8683,4.4382,9.5920,-1.9993,7.9993,4.0007,-0.0022,straight,5.45,0.00,5.01,0.00,0.00,0,0.000,0.542,0.000,0.00,26.72,4,200.0000,46.0659,23.3883,15.9985,12.4447,10.4423,9.2368,8.5126,8.1227,4.0007,4.0625,4.2575,4.6196,5.2226,6.2240,8.0015,11.6974,23.0393,200.0000
0.564,0,4154.26,7.81,115.19,1,0.0000,0.0000,0.0000,0.0000,601.9128,529.3529,35.0595,-0.0000,-0.0012,0.0022,-0.0018,-0.0002,0.0256,3.8638,10.1518,9.6105,4.4364,-1.9993,7.9993,4.0007,-0.0022,straight,5.45,0.00,4.97,0.00,0.00,0,0.000,0.562,0.000,0.00,26.72,4,200.0000,46.0659,23.3883,15.9985,12.4447,10.4423,9.2368,8.5126,8.1227,4.0007,4.0625,4.2575,4.6196,5.2226,6.2240,8.0015,11.6974,23.0393,200.0000
0.584,0,4154.31,7.79,115.19,1,0.0000,0.0000,0.0000,0.0000,601.9562,529.3529,35.0596,-0.0000,-0.0012,0.0022,-0.0224,0.0016,-0.0185,10.1195,3.8586,4.4435,9.6060,-1.9993,7.9993,4.0007,-0.0022,straight,5.45,0.00,4.93,0.00,0.00,0,0.000,0.582,0.000,0.00,26.72,4,200.0000,46.0659,23.3883,15.9985,12.4447,10.4423,9.2368,8.5126,8.1227,4.0007,4.0625,4.2575,4.6196,5.2226,6.2240,8.0015,11.6974,23.0393,200.0000
0.604,0,4154.35,7.78,115.19,1,0.0000,0.0000,0.0000,0.0000,601.9995,529.3529,35.0596,-0.0000,-0.0013,0.0022,0.0121,-0.0004,-0.0160,3.8469,10.0971,9.5901,4.4179,-1.9993,7.9993,4.0007,-0.0022,straight,5.45,0.00,4.88,0.00,0.00,0,0.000,0.602,0.000,0.00,26.72,4,200.0000,46.0659,23.3883,15.9985,12.4447,10.4423,9.2368,8.5126,8.1227,4.0007,4.0625,4.2575,4.6196,5.2226,6.2240,8.0015,11.6974,23.0393,200.0000
0.624,0,4154.39,7.76,115.19,1,0.0000,0.0000,0.0000,0.0000,602.0428,529.3529,35.0597,-0.0000,-0.0013,0.0022,-0.0111,0.0014,-0.0024,10.0777,3.8482,4.3854,9.5659,-1.9993,7.9993,4.0007,-0.0022,straight,5.45,0.00,4.84,0.00,0.00,0,0.000,0.622,0.000,0.00,26.72,4,200.0000,46.0659,23.3883,15.9985,12.4447,10.4423,9.2368,8.5126,8.1227,4.0007,4.0625,4.2575,4.6196,5.2226,6.2240,8.0015,11.6974,23.0393,200.0000
0.644,0,4154.44,7.75,115.19,1,0.0000,0.0000,0.0000,0.0000,602.0862,529.3529,35.0597,-0.0000,-0.0013,0.0022,-0.0141,-0.0004,-0.0213,3.8311,10.0684,9.5511,4.3502,-1.9993,7.9993,4.0007,-0.0022,straight,5.45,0.00,4.80,0.00,0.00,0,0.000,0.642,0.000,0.00,26.72,4,200.0000,46.0659,23.3883,15.9985,12.4446,10.4423,9.2368,8.5126,8.1227,4.0007,4.0625,4.2575,4.6196,5.2226,6.2240,8.0015,11.6974,23.0393,200.0000
0.664,0,4154.48,8.21,156.58,1,0.0000,1.0000,0.0000,0.0000,602.1302,529.3529,35.0598,-0.0000,-0.0016,0.0022,10.9301,-0.1349,-0.0058,11.9087,5.4183,8.7973,9.2202,-1.9993,7.9993,4.0007,-0.0022,straight,5.45,0.00,4.75,0.00,0.00,0,0.000,0.662,0.000,0.00,26.72,4,200.0000,46.0659,23.3883,15.9985,12.4446,10.4423,9.2368,8.5126,8.1227,4.0007,4.0625,4.2575,4.6196,5.2226,6.2240,8.0015,11.6974,23.0393,200.0000
0.684,0,4154.52,8.73,157.81,1,0.0000,1.0000,0.0000,0.0000,602.1776,529.3529,35.0599,-0.0000,-0.0026,0.0022,4.9123,-0.2445,0.0439,7.3582,12.6387,9.4985,8.3238,-1.9993,7.9993,4.0007,-0.0022,straight,5.45,0.00,4.70,0.00,0.00,0,0.000,0.682,0.000,0.00,26.72,4,200.0000,46.0659,23.3883,15.9985,12.4446,10.4423,9.2368,8.5126,8.1227,4.0007,4.0625,4.2575,4.6196,5.2226,6.2240,8.0015,11.6974,23.0393,200.0000
0.704,0,4154.57,9.35,156.44,1,0.0000,1.0000,0.0000,0.0000,602.2278,529.3529,35.0600,-0.0000,-0.0039,0.0022,8.4963,0.2414,0.0476,11.6880,6.1513,8.9647,9.3497,-1.9993,7.9993,4.0007,-0.0022,straight,5.45,0.00,4.65,0.00,0.00,0,0.000,0.702,0.000,0.00,26.72,4,200.0000,46.0659,23.3883,15.9985,12.4446,10.4423,9.2368,8.5126,8.1227,4.0007,4.0625,4.2575,4.6196,5.2226,6.2240,8.0015,11.6974,23.0393,200.0000
0.724,0,4154.62,9.86,173.33,1,0.0000,1.0000,0.0000,0.0000,602.2814,529.3529,35.0601,-0.0000,-0.0055,0.0022,7.9126,-0.2706,0.0347,7.3531,13.0204,10.9713,9.4946,-1.9993,7.9993,4.0007,-0.0022,straight,5.45,0.00,4.60,0.00,0.00,0,0.000,0.722,0.000,0.00,26.72,4,200.0000,46.0659,23.3883,15.9985,12.4446,10.4423,9.2368,8.5126,8.1227,4.0007,4.0625,4.2575,4.6196,5.2226,6.2240,8.0015,11.6974,23.0393,200.0000
0.744,0,4154.67,10.48,173.16,1,0.0000,1.0000,0.0000,0.0000,602.3381,529.3529,35.0602,-0.0000,-0.0070,0.0022,8.1384,0.2524,0.0681,12.5817,7.5859,9.8637,10.6179,-1.9993,7.9993,4.0007,-0.0022,straight,5.45,0.00,4.54,0.00,0.00,0,0.000,0.742,0.000,0.00,26.72,4,200.0000,46.0659,23.3883,15.9985,12.4446,10.4423,9.2368,8.5126,8.1227,4.0007,4.0625,4.2575,4.6196,5.2226,6.2240,8.0015,11.6974,23.0393,200.0000
0.764,0,4154.73,11.04,186.06,1,0.0000,1.0000,0.0000,0.0000,602.3979,529.3529,35.0603,-0.0000,-0.0085,0.0022,8.3258,-0.1711,0.0245,8.4776,13.2681,11.7247,10.4312,-1.9993,7.9993,4.0007,-0.0022,straight,5.45,0.00,4.48,0.00,0.00,0,0.000,0.762,0.000,0.00,26.72,4,200.0000,46.0659,23.3883,15.9985,12.4446,10.4423,9.2368,8.5126,8.1227,4.0007,4.0625,4.2575,4.6196,5.2226,6.2240,8.0015,11.6974,23.0393,200.0000
0.784,0,4154.79,11.65,194.39,1,0.0000,1.0000,0.0000,0.0000,602.4612,529.3529,35.0605,-0.0000,-0.0099,0.0022,8.6751,0.1520,0.0200,13.6785,9.1739,11.1668,11.8929,-1.9993,7.9993,4.0007,-0.0022,straight,5.45,0.00,4.42,0.00,0.00,0,0.000,0.782,0.000,0.00,26.72,4,200.0000,46.0659,23.3883,15.9985,12.4446,10.4423,9.2368,8.5126,8.1227,4.0007,4.0625,4.2575,4.6196,5.2226,6.2240,8.0015,11.6974,23.0393,200.0000
0.804,0,4154.85,12.27,204.58,1,0.0000,1.0000,0.0000,0.0000,602.5278,529.3529,35.0606,-0.0000,-0.0110,0.0022,8.7843,-0.1247,0.0083,9.9412,14.2300,12.4122,11.9105,-1.9993,7.9993,4.0007,-0.0022,straight,5.45,0.00,4.35,0.00,0.00,0,0.000,0.802,0.000,0.00,26.72,4,200.0000,46.0659,23.3883,15.9985,12.4446,10.4423,9.2368,8.5126,8.1227,4.0007,4.0625,4.2575,4.6196,5.2226,6.2240,8.0015,11.6974,23.0393,200.0000
0.824,0,4154.92,12.90,215.32,1,0.0000,1.0000,0.0000,0.0000,602.5978,529.3529,35.0608,-0.0000,-0.0118,0.0022,9.0855,0.0955,-0.0055,14.7781,10.6916,12.6772,12.9964,-1.9993,7.9993,4.0007,-0.0022,straight,5.45,0.00,4.28,0.00,0.00,0,0.000,0.822,0.000,0.00,26.72,4,200.0000,46.0659,23.3883,15.9985,12.4446,10.4423,9.2368,8.5126,8.1227,4.0007,4.0625,4.2575,4.6196,5.2226,6.2240,8.0015,11.6974,23.0393,200.0000
0.844,0,4154.99,13.54,226.05,1,0.0000,1.0000,0.0000,0.0000,602.6714,529.3529,35.0609,-0.0000,-0.0124,0.0022,9.1897,-0.0650,0.0086,11.4717,15.3304,13.8405,13.2393,-1.9993,7.9993,4.0007,-0.0022,straight,5.45,0.00,4.21,0.00,0.00,0,0.000,0.842,0.000,0.00,26.72,4,200.0000,46.0659,23.3883,15.9985,12.4446,10.4423,9.2368,8.5126,8.1227,4.0007,4.0625,4.2575,4.6196,5.2226,6.2240,8.0015,11.6974,23.0393,200.0000
0.864,0,4155.06,14.21,236.05,1,0.0000,1.0000,0.0000,0.0000,602.7487,529.3529,35.0611,0.0000,-0.0127,0.0022,9.5010,0.0519,0.0183,15.7830,12.1968,14.0749,14.2847,-1.9993,7.9993,4.0007,-0.0022,straight,5.45,0.00,4.13,0.00,0.00,0,0.000,0.862,0.000,0.00,26.72,4,200.0000,46.0659,23.3883,15.9985,12.4446,10.4423,9.2368,8.5126,8.1227,4.0007,4.0625,4.2575,4.6196,5.2226,6.2240,8.0015,11.6974,23.0393,200.0000
0.884,0,4155.14,14.88,246.21,1,0.0000,1.0000,0.0000,0.0000,602.8297,529.3529,35.0612,0.0001,-0.0129,0.0022,9.7000,-0.0422,0.0164,12.9449,16.2398,14.9308,14.7696,-1.9993,7.9993,4.0007,-0.0022,straight,5.45,0.00,4.05,0.00,0.00,0,0.000,0.882,0.000,0.00,26.72,4,200.0000,46.0659,23.3883,15.9985,12.4446,10.4423,9.2368,8.5126,8.1227,4.0007,4.0625,4.2575,4.6196,5.2226,6.2240,8.0015,11.6974,23.0393,200.0000
0.904,0,4155.22,15.57,256.00,1,0.0000,1.0000,0.0000,0.0000,602.9144,529.3529,35.0614,0.0001,-0.0129,0.0022,9.8449,0.0352,0.0023,16.6937,13.6751,15.4306,15.5648,-1.9993,7.9993,4.0007,-0.0022,straight,5.45,0.00,3.97,0.00,0.00,0,0.000,0.902,0.000,0.00,26.72,4,200.0000,46.0659,23.3883,15.9985,12.4446,10.4423,9.2368,8.5126,8.1227,4.0007,4.0625,4.2575,4.6197,5.2226,6.2240,8.0015,11.6974,23.0393,200.0000
0.924,0,4155.31,16.28,266.14,1,0.0000,1.0000,0.0000,0.0000,603.0031,529.3529,35.0615,0.0002,-0.0128,0.0022,10.0671,-0.0306,0.0230,14.3803,17.1419,16.2418,16.1247,-1.9993,7.9993,4.0007,-0.0022,straight,5.45,0.00,3.88,0.00,0.00,0,0.000,0.922,0.000,0.00,26.72,4,200.0000,46.0659,23.3883,15.9985,12.4446,10.4423,9.2368,8.5126,8.1227,4.0007,4.0625,4.2575,4.6197,5.2226,6.2240,8.0015,11.6974,23.0393,200.0000
0.944,0,4155.40,17.00,275.71,1,0.0000,1.0000,0.0000,0.0000,603.0957,529.3529,35.0617,0.0002,-0.0127,0.0022,10.2651,0.0283,0.0216,17.3888,15.2479,16.7864,16.8621,-1.9993,7.9993,4.0007,-0.0022,straight,5.45,0.00,3.79,0.00,0.00,0,0.000,0.942,0.000,0.00,26.72,4,200.0000,46.0659,23.3883,15.9985,12.4446,10.4423,9.2368,8.5126,8.1227,4.0007,4.0625,4.2575,4.6197,5.2226,6.2240,8.0015,11.6974,23.0393,200.0000
0.964,0,4155.49,17.73,285.08,1,0.0000,1.0000,0.0000,0.0000,603.1923,529.3529,35.0618,0.0002,-0.0126,0.0022,10.4685,-0.0327,0.0220,16.0898,17.5808,17.5076,17.4418,-1.9993,7.9993,4.0007,-0.0022,straight,5.45,0.00,3.69,0.00,0.00,0,0.000,0.962,0.000,0.00,26.72,4,200.0000,46.0659,23.3883,15.9985,12.4446,10.4423,9.2368,8.5126,8.1227,4.0007,4.0625,4.2575,4.6197,5.2226,6.2240,8.0015,11.6974,23.0393,200.0000
0.984,0,4155.58,18.47,294.40,1,0.0000,1.0000,0.0000,0.0000,603.2930,529.3529,35.0620,0.0001,-0.0125,0.0022,10.4678,0.0370,0.0005,17.4777,17.3146,18.0974,18.1311,-1.9993,7.9993,4.0007,-0.0022,straight,5.45,0.00,3.59,0.00,0.00,0,0.000,0.982,0.000,0.00,26.72,4,200.0000,46.0659,23.3883,15.9985,12.4446,10.4423,9.2368,8.5126,8.1227,4.0007,4.0625,4.2575,4.6197,5.2226,6.2240,8.0015,11.6974,23.0393,200.0000
1.006,0,4155.69,19.30,307.21,1,0.0000,1.0000,0.0000,0.0000,603.4088,529.3529,35.0622,0.0001,-0.0125,0.0022,10.7328,-0.0311,-0.0020,18.3744,18.0306,22.0335,15.8155,-1.9993,7.9993,4.0007,-0.0022,straight,5.45,0.00,3.47,0.00,0.00,0,0.000,1.004,0.000,0.00,26.72,4,200.0000,46.0659,23.3883,15.9985,12.4446,10.4423,9.2368,8.5126,8.1227,4.0007,4.0625,4.2575,4.6197,5.2226,6.2240,8.0015,11.6974,23.0393,200.0000
1.026,0,4155.80,19.44,279.23,1,0.0000,0.2000,0.0000,0.0000,603.5166,529.3529,35.0624,0.0001,-0.0121,0.0022,2.6544,0.2133,-0.0032,17.6951,18.1980,15.3518,20.8432,-1.9993,7.9993,4.0007,-0.0022,straight,5.45,0.00,3.37,0.00,0.00,0,0.000,1.024,0.000,0.00,26.72,4,200.0000,46.0659,23.3883,15.9985,12.4446,10.4423,9.2368,8.5126,8.1227,4.0007,4.0625,4.2575,4.6197,5.2226,6.2240,8.0015,11.6974,23.0393,200.0000
1.046,0,4155.91,19.68,294.05,1,0.0000,0.4000,0.0000,0.0000,603.6252,529.3529,35.0625,0.0000,-0.0113,0.0022,4.3492,0.0222,-0.0042,20.4247,17.0513,19.3162,17.7028,-1.9993,7.9993,4.0007,-0.0022,straight,5.45,0.00,3.26,0.00,0.00,0,0.000,1.044,0.000,0.00,26.72,4,200.0000,46.0659,23.3883,15.9985,12.4446,10.4423,9.2368,8.5126,8.1227,4.0007,4.0625,4.2575,4.6197,5.2226,6.2240,8.0015,11.6974,23.0393,200.0000
1.066,0,4156.02,20.12,300.25,1,0.0000,0.6000,0.0000,0.0000,603.7357,529.3529,35.0627,-0.0001,-0.0104,0.0022,6.5306,-0.0150,-0.0058,18.6199,18.6561,18.9446,18.7067,-1.9993,7.9993,4.0007,-0.0022,straight,5.45,0.00,3.15,0.00,0.00,0,0.000,1.064,0.000,0.00,26.72,4,200.0000,46.0659,23.3883,15.9985,12.4446,10.4423,9.2368,8.5126,8.1227,4.0007,4.0625,4.2575,4.6197,5.2226,6.2240,8.0015,11.6974,23.0393,200.0000
1.086,0,4156.13,20.69,321.49,1,0.0000,0.8000,0.0000,0.0000,603.8492,529.3529,35.0628,-0.0001,-0.0098,0.0022,8.6904,0.0089,0.0066,19.4609,19.8304,19.9006,19.9703,-1.9993,7.9993,4.0007,-0.0022,straight,5.45,0.00,3.03,0.00,0.00,0,0.000,1.084,0.000,0.00,26.72,4,200.0000,46.0659,23.3883,15.9985,12.4446,10.4423,9.2368,8.5126,8.1227,4.0007,4.0625,4.2575,4.6197,5.2226,6.2240,8.0015,11.6974,23.0393,200.0000
1.106,0,4156.24,21.52,335.35,1,0.0000,1.0000,0.0000,0.0000,603.9664,529.3529,35.0630,-0.0002,-0.0096,0.0022,12.1340,-0.0141,0.0227,20.4146,19.7564,20.3294,20.4335,-1.9993,7.9993,4.0007,-0.0022,straight,5.45,0.00,2.92,0.00,0.00,0,0.000,1.104,0.000,0.00,26.72,4,200.0000,46.0659,23.3883,15.9985,12.4446,10.4423,9.2368,8.5126,8.1227,4.0007,4.0625,4.2575,4.6197,5.2226,6.2240,8.0015,11.6974,23.0393,200.0000
1.126,0,4156.36,22.31,355.31,1,0.0000,1.0000,0.0000,0.0000,604.0884,529.3529,35.0632,-0.0002,-0.0098,0.0022,11.9859,0.0065,0.0214,21.0141,21.3294,21.8368,21.9582,-1.9993,7.9993,4.0007,-0.0022,straight,5.45,0.00,2.79,0.00,0.00,0,0.000,1.124,0.000,0.00,26.72,4,200.0000,46.0659,23.3883,15.9985,12.4446,10.4423,9.2368,8.5126,8.1227,4.0007,4.0625,4.2575,4.6197,5.2226,6.2240,8.0015,11.6974,23.0393,200.0000
1.146,0,4156.48,23.16,366.93,1,0.0000,1.0000,0.0000,0.0000,604.2150,529.3529,35.0634,-0.0002,-0.0103,0.0022,11.9915,-0.0172,0.0409,22.0201,21.9328,22.5693,22.5882,-1.9993,7.9993,4.0007,-0.0022,straight,5.45,0.00,2.67,0.00,0.00,0,0.000,1.144,0.000,0.00,26.72,4,200.0000,46.0659,23.3883,15.9985,12.4446,10.4423,9.2368,8.5126,8.1227,4.0007,4.0625,4.2575,4.6197,5.2226,6.2240,8.0015,11.6974,23.0393,200.0000
1.166,0,4156.61,24.04,381.18,1,0.0000,1.0000,0.0000,0.0000,604.3463,529.3529,35.0636,-0.0002,-0.0110,0.0022,12.5629,0.0248,0.0409,22.9181,22.8944,23.3663,23.3885,-1.9993,7.9993,4.0007,-0.0022,straight,5.45,0.00,2.54,0.00,0.00,0,0.000,1.164,0.000,0.00,26.72,4,200.0000,46.0659,23.3883,15.9985,12.4446,10.4423,9.2368,8.5126,8.1227,4.0007,4.0625,4.2575,4.6197,5.2226,6.2240,8.0015,11.6974,23.0393,200.0000
1.186,0,4156.74,24.94,395.31,1,0.0000,1.0000,0.0000,0.0000,604.4826,529.3529,35.0638,-0.0001,-0.0119,0.0022,12.9375,-0.0319,0.0542,23.8672,23.8167,24.1957,24.1713,-1.9993,7.9993,4.0007,-0.0022,straight,5.45,0.00,2.40,0.00,0.00,0,0.000,1.184,0.000,0.00,26.71,4,200.0000,46.0659,23.3883,15.9985,12.4446,10.4423,9.2368,8.5126,8.1227,4.0007,4.0625,4.2575,4.6197,5.2226,6.2240,8.0015,11.6974,23.0393,200.0000
1.206,0,4156.88,25.88,408.85,1,0.0249,1.0000,0.0000,0.0000,604.6241,529.3535,35.0641,-0.0000,-0.0128,0.0024,13.3319,0.7501,0.0617,24.7820,24.7170,24.9571,24.9175,-1.9987,7.9987,4.0013,-0.0024,straight,5.45,0.00,2.26,0.00,0.00,0,0.000,1.204,0.000,0.00,26.71,4,200.0000,46.0624,23.3865,15.9973,12.4437,10.4415,9.2360,8.5120,8.1220,4.0013,4.0631,4.2581,4.6204,5.2234,6.2250,8.0027,11.6992,23.0428,200.0000
1.226,0,4157.02,26.84,422.46,1,0.0498,1.0000,0.0000,0.0000,604.7708,529.3545,35.0643,0.0003,-0.0137,0.0030,13.8857,1.2209,0.0649,25.7196,25.6363,25.7789,25.5500,-1.9977,7.9977,4.0023,-0.0030,straight,5.45,0.00,2.11,0.00,0.00,0,0.000,1.224,0.000,0.00,26.71,4,200.0000,46.0568,23.3836,15.9954,12.4422,10.4402,9.2349,8.5110,8.1211,4.0023,4.0641,4.2592,4.6215,5.2247,6.2265,8.0046,11.7020,23.0485,200.0000
1.246,0,4157.16,27.82,436.15,1,0.0746,1.0000,0.0000,0.0000,604.9228,529.3561,35.0646,0.0007,-0.0146,0.0042,13.7116,1.6471,0.0301,26.7018,26.6728,26.4835,26.3538,-1.9960,7.9960,4.0040,-0.0042,straight,5.45,0.00,1.96,0.00,0.00,0,0.000,1.244,0.000,0.00,26.71,4,200.0000,46.0473,23.3788,15.9921,12.4396,10.4381,9.2330,8.5092,8.1194,4.0040,4.0657,4.2609,4.6234,5.2268,6.2291,8.0079,11.7068,23.0579,200.0000
1.266,0,4157.32,28.79,451.26,1,0.0995,1.0000,0.0000,0.0000,605.0803,529.3586,35.0649,0.0012,-0.0154,0.0059,13.9739,1.9503,0.0447,27.7313,27.8246,27.4676,27.1107,-1.9935,7.9935,4.0065,-0.0059,straight,5.45,0.00,1.80,0.00,0.00,0,0.000,1.264,0.000,0.00,26.71,4,200.0000,46.0329,23.3715,15.9871,12.4357,10.4348,9.2301,8.5065,8.1168,4.0065,4.0683,4.2636,4.6263,5.2301,6.2330,8.0129,11.7141,23.0724,200.0000
1.286,0,4157.47,29.74,463.45,1,0.1244,0.9781,0.0000,0.0000,605.2432,529.3621,35.0653,0.0018,-0.0161,0.0082,13.1892,2.3581,0.0345,28.6323,28.8114,28.2049,27.9213,-1.9901,7.9901,4.0099,-0.0082,straight,5.45,0.00,1.64,0.00,0.00,0,0.000,1.284,0.000,0.00,26.71,4,200.0000,46.0132,23.3615,15.9802,12.4304,10.4303,9.2262,8.5029,8.1134,4.0099,4.0718,4.2672,4.6302,5.2345,6.2383,8.0198,11.7241,23.0920,200.0000
1.306,0,4157.64,30.67,476.33,1,0.1492,0.9548,0.0000,0.0000,605.4112,529.3666,35.0656,0.0024,-0.0165,0.0110,13.2869,2.7310,-0.0152,29.4739,29.6642,29.3248,28.6205,-1.9855,7.9855,4.0145,-0.0110,straight,5.45,0.00,1.47,0.00,0.00,0,0.000,1.304,0.000,0.00,26.71,4,200.0000,45.9868,23.3481,15.9711,12.4233,10.4244,9.2209,8.4980,8.1087,4.0145,4.0764,4.2721,4.6355,5.2405,6.2454,8.0289,11.7375,23.1184,200.0000
1.326,0,4157.80,31.64,494.17,1,0.0000,1.0000,0.0000,0.0000,605.5845,529.3717,35.0660,0.0026,-0.0167,0.0138,13.8615,-1.7293,-0.0029,30.6394,30.9562,29.8399,29.9038,-1.9805,7.9805,4.0195,-0.0138,straight,5.45,0.00,1.30,0.00,0.00,0,0.000,1.324,0.000,0.00,26.71,4,200.0000,45.9576,23.3333,15.9609,12.4154,10.4178,9.2150,8.4926,8.1036,4.0195,4.0815,4.2775,4.6414,5.2471,6.2533,8.0391,11.7523,23.1476,200.0000
1.346,0,4157.98,32.63,506.79,1,0.0000,1.0000,0.0000,0.0000,605.7632,529.3762,35.0663,0.0023,-0.0168,0.0154,13.8037,-1.2412,-0.2170,31.5482,31.5108,31.0815,30.5435,-1.9760,7.9760,4.0240,-0.0154,straight,5.45,0.00,1.12,0.00,0.00,0,0.000,1.344,0.000,0.00,26.71,4,200.0000,45.9320,23.3203,15.9520,12.4085,10.4119,9.2099,8.4879,8.0991,4.0240,4.0861,4.2822,4.6465,5.2529,6.2602,8.0480,11.7654,23.1732,200.0000
1.366,0,4158.16,33.63,518.56,1,0.0000,1.0000,0.0000,0.0000,605.9476,529.3804,35.0666,0.0017,-0.0168,0.0162,13.9040,-0.9096,0.0796,32.3415,31.9152,31.7546,31.7221,-1.9718,7.9718,4.0282,-0.0162,straight,5.45,0.00,0.93,0.00,0.00,0,0.000,1.364,0.000,0.00,26.71,4,200.0000,45.9077,23.3080,15.9436,12.4019,10.4064,9.2050,8.4834,8.0948,4.0282,4.0903,4.2867,4.6514,5.2584,6.2668,8.0564,11.7777,23.1975,200.0000
1.386,0,4158.34,34.61,532.57,1,0.0000,1.0000,0.0000,0.0000,606.1373,529.3840,35.0670,0.0011,-0.0169,0.0167,13.8404,-0.5444,0.0436,33.2599,32.8055,32.7457,32.6093,-1.9681,7.9681,4.0319,-0.0167,straight,5.45,0.00,0.74,0.00,0.00,0,0.000,1.384,0.000,0.00,26.71,4,200.0000,45.8866,23.2973,15.9363,12.3962,10.4017,9.2008,8.4795,8.0911,4.0319,4.0941,4.2906,4.6556,5.2632,6.2725,8.0637,11.7884,23.2186,200.0000
1.406,0,4158.53,35.59,546.53,1,0.0000,1.0000,0.0000,0.0000,606.3326,529.3877,35.0674,0.0005,-0.0169,0.0170,13.8384,-0.3221,0.0589,34.1537,33.7227,33.6679,33.5334,-1.9645,7.9645,4.0355,-0.0170,straight,5.45,0.00,0.55,0.00,0.00,0,0.000,1.404,0.000,0.00,26.71,4,200.0000,45.8656,23.2866,15.9289,12.3905,10.3969,9.1966,8.4756,8.0873,4.0355,4.0978,4.2945,4.6598,5.2680,6.2782,8.0711,11.7991,23.2397,200.0000
1.426,0,4158.73,36.57,560.41,1,0.0000,1.0000,0.0000,0.0000,606.5333,529.3914,35.0678,0.0001,-0.0168,0.0172,13.7818,-0.1874,0.0333,35.0133,34.6812,34.5882,34.4564,-1.9608,7.9608,4.0392,-0.0172,straight,5.45,0.00,0.35,0.00,0.00,0,0.000,1.424,0.000,0.00,26.71,4,200.0000,45.8445,23.2759,15.9216,12.3848,10.3921,9.1924,8.4717,8.0836,4.0392,4.1015,4.2984,4.6641,5.2728,6.2839,8.0784,11.8098,23.2608,200.0000
1.446,0,4158.93,37.55,573.98,1,0.0000,1.0000,0.0000,0.0000,606.7394,529.3950,35.0682,-0.0002,-0.0168,0.0173,13.7329,-0.1095,0.0411,35.8232,35.6302,35.4948,35.3648,-1.9571,7.9571,4.0429,-0.0173,straight,5.45,0.00,0.14,0.00,0.00,0,0.000,1.444,0.000,0.00,26.71,4,200.0000,45.8234,23.2651,15.9143,12.3791,10.3873,9.1881,8.4678,8.0799,4.0429,4.1052,4.3023,4.6683,5.2776,6.2896,8.0857,11.8205,23.2819,200.0000
1.466,0,4159.13,38.52,587.38,1,0.0000,1.0000,0.0000,0.0000,606.9509,529.3987,35.0686,-0.0003,-0.0168,0.0173,13.6844,-0.0626,0.0744,36.6422,36.5448,36.3870,36.2714,-1.9535,7.9535,4.0465,-0.0173,straight,5.45,0.00,5.39,0.00,0.00,0,0.000,1.464,0.000,0.00,26.71,4,200.0000,45.8023,23.2545,15.9070,12.3734,10.3825,9.1839,8.4639,8.0762,4.0465,4.1089,4.3062,4.6725,5.2823,6.2953,8.0930,11.8312,23.3029,200.0000
1.486,0,4159.34,39.49,601.06,1,0.0000,1.0000,0.0000,0.0000,607.1678,529.4023,35.0691,-0.0004,-0.0167,0.0174,13.6292,-0.0356,0.0733,37.5179,37.4645,37.2734,37.1989,-1.9498,7.9498,4.0502,-0.0174,straight,5.45,0.00,5.17,0.00,0.00,0,0.000,1.484,0.000,0.00,26.71,4,200.0000,45.7812,23.2437,15.8997,12.3677,10.3778,9.1797,8.4600,8.0725,4.0502,4.1127,4.3101,4.6767,5.2871,6.3009,8.1003,11.8419,23.3240,200.0000
1.506,0,4159.56,40.45,614.52,1,0.0000,1.0000,0.0000,0.0000,607.3900,529.4060,35.0696,-0.0004,-0.0167,0.0174,13.5438,-0.0203,0.0391,38.4263,38.3229,38.1389,38.1246,-1.9462,7.9462,4.0538,-0.0174,straight,5.45,0.00,4.95,0.00,0.00,0,0.000,1.504,0.000,0.00,26.71,4,200.0000,45.7601,23.2330,15.8923,12.3620,10.3730,9.1754,8.4561,8.0687,4.0538,4.1164,4.3140,4.6810,5.2919,6.3066,8.1077,11.8526,23.3451,200.0000
1.526,0,4159.78,41.41,628.13,1,0.0000,1.0000,0.0000,0.0000,607.6176,529.4100,35.0700,-0.0004,-0.0167,0.0174,13.4733,-0.0120,0.0050,39.3463,39.2042,39.0171,39.0438,-1.9421,7.9421,4.0579,-0.0174,straight,5.45,0.00,4.72,0.00,0.00,0,0.000,1.524,0.000,0.00,26.71,4,200.0000,45.7369,23.2213,15.8843,12.3558,10.3677,9.1708,8.4518,8.0647,4.0579,4.1205,4.3183,4.6856,5.2972,6.3129,8.1157,11.8644,23.3683,200.0000
1.546,0,4160.01,42.36,641.38,1,0.0000,1.0000,0.0000,0.0000,607.8506,529.4143,35.0705,-0.0004,-0.0166,0.0174,13.4290,-0.0072,0.0212,40.2275,40.0591,39.8952,39.9283,-1.9379,7.9379,4.0621,-0.0174,straight,5.45,0.00,4.49,0.00,0.00,0,0.000,1.544,0.000,0.00,26.71,4,200.0000,45.7123,23.2088,15.8757,12.3491,10.3621,9.1659,8.4473,8.0603,4.0621,4.1248,4.3228,4.6905,5.3027,6.3196,8.1243,11.8769,23.3929,200.0000
1.566,0,4160.24,43.31,654.46,1,0.0000,1.0000,0.0000,0.0000,608.0887,529.4186,35.0710,-0.0003,-0.0166,0.0174,13.3558,-0.0037,0.0109,41.0486,40.9339,40.7783,40.8070,-1.9336,7.9336,4.0664,-0.0174,straight,5.45,0.00,4.25,0.00,0.00,0,0.000,1.564,0.000,0.00,26.70,4,200.0000,45.6877,23.1963,15.8672,12.3425,10.3566,9.1609,8.4428,8.0560,4.0664,4.1291,4.3274,4.6955,5.3083,6.3262,8.1328,11.8894,23.4175,200.0000
1.586,0,4160.48,44.26,667.09,1,0.0000,1.0000,0.0000,0.0000,608.3322,529.4229,35.0715,-0.0002,-0.0166,0.0174,13.2882,-0.0037,0.1709,41.8057,41.8510,41.6564,41.6001,-1.9293,7.9293,4.0707,-0.0174,straight,5.45,0.00,4.00,0.00,0.00,0,0.000,1.584,0.000,0.00,26.70,4,200.0000,45.6631,23.1838,15.8586,12.3358,10.3510,9.1560,8.4382,8.0516,4.0707,4.1335,4.3319,4.7004,5.3139,6.3329,8.1414,11.9019,23.4421,200.0000
1.606,0,4160.72,45.20,680.04,1,0.0000,1.0000,0.0000,0.0000,608.5809,529.4271,35.0721,-0.0001,-0.0165,0.0174,13.2243,0.0000,0.1731,42.6132,42.7359,42.5002,42.4887,-1.9250,7.9250,4.0750,-0.0174,straight,5.45,0.00,3.76,0.00,0.00,0,0.000,1.604,0.000,0.00,26.70,4,200.0000,45.6385,23.1713,15.8501,12.3292,10.3454,9.1511,8.4337,8.0473,4.0750,4.1378,4.3365,4.7054,5.3195,6.3395,8.1499,11.9144,23.4667,200.0000
1.626,0,4160.97,46.13,692.96,1,0.0000,1.0000,0.0000,0.0000,608.8348,529.4314,35.0727,-0.0001,-0.0165,0.0174,13.1406,0.0016,0.1195,43.4527,43.5874,43.3534,43.3617,-1.9208,7.9208,4.0792,-0.0174,straight,5.45,0.00,3.50,0.00,0.00,0,0.000,1.624,0.000,0.00,26.70,4,200.0000,45.6139,23.1588,15.8415,12.3225,10.3398,9.1461,8.4291,8.0430,4.0792,4.1422,4.3410,4.7103,5.3251,6.3461,8.1585,11.9269,23.4913,200.0000
1.646,0,4161.23,47.06,705.90,1,0.0000,1.0000,0.0000,0.0000,609.0938,529.4357,35.0733,-0.0001,-0.0165,0.0174,13.0384,0.0011,0.0525,44.3411,44.4142,44.2007,44.2300,-1.9165,7.9165,4.0835,-0.0174,straight,5.45,0.00,3.24,0.00,0.00,0,0.000,1.644,0.000,0.00,26.70,4,200.0000,45.5893,23.1463,15.8330,12.3159,10.3343,9.1412,8.4246,8.0386,4.0835,4.1465,4.3456,4.7152,5.3306,6.3528,8.1670,11.9394,23.5159,200.0000
1.666,0,4161.49,47.98,718.89,1,0.0000,1.0000,0.0000,0.0000,609.3580,529.4404,35.0740,-0.0001,-0.0164,0.0174,12.9849,-0.0005,0.0832,45.2594,45.2175,45.0623,45.0854,-1.9117,7.9117,4.0883,-0.0174,straight,5.45,0.00,2.98,0.00,0.00,0,0.000,1.664,0.000,0.00,26.70,4,200.0000,45.5619,23.1324,15.8235,12.3085,10.3280,9.1357,8.4195,8.0338,4.0883,4.1513,4.3506,4.7207,5.3368,6.3602,8.1765,11.9533,23.5433,200.0000
1.686,0,4161.75,48.89,731.82,1,0.0000,1.0000,0.0000,0.0000,609.6273,529.4453,35.0748,-0.0002,-0.0163,0.0174,12.8956,-0.0018,-0.0260,46.1480,46.0315,45.9388,45.9269,-1.9069,7.9069,4.0931,-0.0174,straight,5.45,0.00,2.71,0.00,0.00,0,0.000,1.684,0.000,0.00,26.70,4,200.0000,45.5338,23.1181,15.8137,12.3009,10.3217,9.1301,8.4143,8.0288,4.0931,4.1563,4.3558,4.7264,5.3432,6.3678,8.1863,11.9675,23.5715,200.0000
1.706,0,4162.02,49.81,744.46,1,0.0000,1.0000,0.0000,0.0000,609.9016,529.4502,35.0755,-0.0002,-0.0162,0.0174,12.8238,-0.0029,-0.0604,46.9838,46.8500,46.7932,46.7646,-1.9020,7.9020,4.0980,-0.0174,straight,5.45,0.00,2.43,0.00,0.00,0,0.000,1.704,0.000,0.00,26.70,4,200.0000,45.5056,23.1038,15.8039,12.2933,10.3153,9.1244,8.4091,8.0239,4.0980,4.1612,4.3610,4.7320,5.3496,6.3754,8.1961,11.9818,23.5996,200.0000
1.726,0,4162.29,50.71,756.57,1,0.0000,1.0000,0.0000,0.0000,610.1811,529.4551,35.0762,-0.0001,-0.0161,0.0174,12.7556,-0.0019,0.0306,47.7240,47.6910,47.6213,47.5803,-1.8971,7.8971,4.1029,-0.0174,straight,5.45,0.00,2.16,0.00,0.00,0,0.000,1.724,0.000,0.00,26.70,4,200.0000,45.4775,23.0895,15.7942,12.2857,10.3089,9.1188,8.4039,8.0189,4.1029,4.1662,4.3662,4.7376,5.3560,6.3830,8.2058,11.9961,23.6277,200.0000
1.746,0,4162.57,51.61,767.65,1,0.0000,1.0000,0.0000,0.0000,610.4655,529.4600,35.0769,-0.0000,-0.0160,0.0174,12.5268,0.0007,0.0581,48.3984,48.4937,48.3816,48.3685,-1.8922,7.8922,4.1078,-0.0174,straight,5.45,0.00,1.87,0.00,0.00,0,0.000,1.744,0.000,0.00,26.70,4,200.0000,45.4494,23.0753,15.7844,12.2781,10.3025,9.1131,8.3987,8.0140,4.1078,4.1712,4.3714,4.7433,5.3623,6.3906,8.2156,12.0104,23.6558,200.0000
1.766,0,4162.86,52.49,778.40,1,0.0000,1.0000,0.0000,0.0000,610.7549,529.4648,35.0776,0.0000,-0.0160,0.0174,12.2978,0.0024,0.0634,49.0977,49.2289,49.1218,49.1279,-1.8873,7.8873,4.1127,-0.0174,straight,5.45,0.00,1.58,0.00,0.00,0,0.000,1.764,0.000,0.00,26.70,4,200.0000,45.4213,23.0610,15.7746,12.2705,10.2962,9.1075,8.3935,8.0090,4.1127,4.1761,4.3766,4.7489,5.3687,6.3982,8.2254,12.0247,23.6839,200.0000
1.786,0,4163.15,53.35,789.23,1,0.0000,1.0000,0.0000,0.0000,611.0491,529.4697,35.0784,0.0000,-0.0159,0.0174,12.0465,0.0024,0.0752,49.8618,49.9344,49.8593,49.8923,-1.8824,7.8824,4.1176,-0.0174,straight,5.45,0.00,1.29,0.00,0.00,0,0.000,1.784,0.000,0.00,26.70,4,200.0000,45.3932,23.0467,15.7649,12.2629,10.2898,9.1019,8.3883,8.0040,4.1176,4.1811,4.3818,4.7545,5.3751,6.4058,8.2351,12.0389,23.7121,200.0000
1.806,0,4163.44,54.19,799.96,1,0.0000,1.0000,0.0000,0.0000,611.3480,529.4751,35.0792,-0.0000,-0.0157,0.0174,11.8779,-0.0030,0.0742,50.6800,50.5479,50.5952,50.6357,-1.8771,7.8771,4.1229,-0.0174,straight,5.45,0.00,0.99,0.00,0.00,0,0.000,1.804,0.000,0.00,26.70,4,200.0000,45.3622,23.0310,15.7541,12.2545,10.2828,9.0957,8.3826,7.9986,4.1229,4.1865,4.3875,4.7607,5.3821,6.4141,8.2459,12.0546,23.7430,200.0000
1.826,0,4163.74,55.02,810.20,1,0.0000,1.0000,0.0000,0.0000,611.6516,529.4806,35.0800,-0.0001,-0.0156,0.0174,11.6183,-0.0011,0.0583,51.3345,51.2806,51.3303,51.3262,-1.8716,7.8716,4.1284,-0.0174,straight,5.45,0.00,0.68,0.00,0.00,0,0.000,1.824,0.000,0.00,26.70,4,200.0000,45.3306,23.0149,15.7432,12.2460,10.2756,9.0893,8.3768,7.9930,4.1284,4.1921,4.3934,4.7671,5.3893,6.4227,8.2568,12.0707,23.7746,200.0000
1.846,0,4164.04,55.84,820.40,1,0.0000,1.0000,0.0000,0.0000,611.9596,529.4861,35.0808,-0.0001,-0.0155,0.0174,11.3938,-0.0003,0.0617,51.9709,52.0215,52.0524,52.0156,-1.8661,7.8661,4.1339,-0.0174,straight,5.45,0.00,0.38,0.00,0.00,0,0.000,1.844,0.000,0.00,26.69,4,200.0000,45.2990,22.9989,15.7322,12.2375,10.2684,9.0830,8.3709,7.9874,4.1339,4.1977,4.3992,4.7734,5.3964,6.4312,8.2678,12.0868,23.8063,200.0000
1.866,0,4164.35,56.63,830.50,1,0.0000,1.0000,0.0000,0.0000,612.2722,529.4916,35.0817,-0.0001,-0.0154,0.0174,11.2087,0.0004,0.1212,52.6400,52.7200,52.7565,52.7011,-1.8606,7.8606,4.1394,-0.0174,straight,5.45,0.00,0.06,0.00,0.00,0,0.000,1.864,0.000,0.00,26.69,4,200.0000,45.2673,22.9828,15.7212,12.2289,10.2613,9.0766,8.3651,7.9819,4.1394,4.2033,4.4051,4.7798,5.4036,6.4398,8.2788,12.1028,23.8379,200.0000
1.886,0,4164.66,57.42,840.47,1,0.0000,1.0000,0.0000,0.0000,612.5892,529.4971,35.0826,-0.0001,-0.0153,0.0174,10.9776,0.0005,0.0548,53.3371,53.3935,53.4150,53.4020,-1.8551,7.8551,4.1449,-0.0174,straight,5.45,0.00,5.20,0.00,0.00,0,0.000,1.884,0.000,0.00,26.69,4,200.0000,45.2357,22.9668,15.7102,12.2204,10.2541,9.0703,8.3592,7.9763,4.1449,4.2088,4.4109,4.7861,5.4108,6.4483,8.2898,12.1189,23.8695,200.0000
1.906,0,4164.98,58.18,850.17,1,0.0000,1.0000,0.0000,0.0000,612.9105,529.5026,35.0835,-0.0001,-0.0153,0.0174,10.7733,0.0004,0.0546,54.0423,54.0188,54.0535,54.0828,-1.8496,7.8496,4.1504,-0.0174,straight,5.45,0.00,4.88,0.00,0.00,0,0.000,1.904,0.000,0.00,26.69,4,200.0000,45.2041,22.9507,15.6992,12.2118,10.2469,9.0639,8.3534,7.9707,4.1504,4.2144,4.4168,4.7925,5.4180,6.4569,8.3008,12.1349,23.9011,200.0000
1.926,0,4165.30,58.94,859.77,1,0.0000,1.0000,0.0000,0.0000,613.2360,529.5081,35.0845,-0.0001,-0.0152,0.0174,10.5649,-0.0002,0.0053,54.7337,54.6444,54.7024,54.7490,-1.8441,7.8441,4.1559,-0.0174,straight,5.45,0.00,4.55,0.00,0.00,0,0.000,1.924,0.000,0.00,26.69,4,200.0000,45.1724,22.9347,15.6882,12.2033,10.2398,9.0576,8.3475,7.9651,4.1559,4.2200,4.4226,4.7988,5.4251,6.4654,8.3118,12.1510,23.9328,200.0000
1.946,0,4165.63,59.67,868.03,1,0.0000,1.0000,0.0000,0.0000,613.5656,529.5135,35.0854,-0.0001,-0.0150,0.0174,10.2145,-0.0003,-0.0112,55.2990,55.2372,55.3153,55.3347,-1.8386,7.8386,4.1614,-0.0174,straight,5.45,0.00,4.23,0.00,0.00,0,0.000,1.944,0.000,0.00,26.69,4,200.0000,45.1408,22.9186,15.6772,12.1947,10.2326,9.0513,8.3417,7.9595,4.1614,4.2256,4.4284,4.8051,5.4323,6.4740,8.3228,12.1671,23.9644,200.0000
1.966,0,4165.96,60.38,875.72,1,0.0000,1.0000,0.0000,0.0000,613.8993,529.5195,35.0863,-0.0000,-0.0149,0.0174,9.8785,-0.0014,0.1504,55.7866,55.8320,55.8778,55.8891,-1.8327,7.8327,4.1673,-0.0174,straight,5.45,0.00,3.89,0.00,0.00,0,0.000,1.964,0.000,0.00,26.69,4,200.0000,45.1067,22.9013,15.6654,12.1855,10.2249,9.0444,8.3354,7.9535,4.1673,4.2316,4.4347,4.8120,5.4400,6.4832,8.3346,12.1844,23.9985,200.0000
