Time,Lap,DistFromStart,Speed,RPM,Gear,SteerCmd,AccelCmd,BrakeCmd,ClutchCmd,X,Y,Z,Roll,Pitch,Yaw,AccelX,AccelY,AccelZ,WheelSpinVel_FL,WheelSpinVel_FR,WheelSpinVel_RL,WheelSpinVel_RR,ToMiddle,ToLeft,ToRight,AngleToTrack,TrackSegType,SegmentLength,Radius,DistToSegEnd,NextCornerDist,NextCornerRadius,NextCornerDir,LapBestTime,CurrentLapTime,LastLapTime,DamageLevel,FuelLevel,RacePos,TrackSensor1,TrackSensor2,TrackSensor3,TrackSensor4,TrackSensor5,TrackSensor6,TrackSensor7,TrackSensor8,TrackSensor9,TrackSensor10,TrackSensor11,TrackSensor12,TrackSensor13,TrackSensor14,TrackSensor15,TrackSensor16,TrackSensor17,TrackSensor18,TrackSensor19
-0.98,0,0,0.03,115.19,0,0,0,1,0,535.0378,10.0892,5.6641,-0.2743,-0.0166,-0.0605,-1.6989,7.8141,0.0997,0,0,-3.0219,3.2355,-4.9112,19.9112,10.0888,0.0605,straight,9.38,0,8.08,0,0,0,0,-0.982,0,0,29.53,4,200,114.6639,58.2164,39.8224,30.9763,25.9922,22.9915,21.189,20.2184,10.0888,10.2444,10.7363,11.6496,13.17,15.6954,20.1776,29.4977,58.0991,200
-0.96,0,2922.64,0.03,115.19,0,0,0,0,0.5932,535.0378,10.0892,5.6641,-0.2743,-0.0166,-0.0605,-1.6989,7.8141,0.0997,0,0,-3.0219,3.2355,-4.9112,19.9112,10.0888,0.0605,straight,9.38,0,8.08,0,0,0,0,-0.962,0,0,29.53,4,200,114.6639,58.2164,39.8224,30.9763,25.9922,22.9915,21.189,20.2184,10.0888,10.2444,10.7363,11.6496,13.17,15.6954,20.1776,29.4977,58.0991,200
-0.94,0,2922.64,0.03,115.19,0,0,0,0,0.5932,535.0378,10.0892,5.6641,-0.2743,-0.0166,-0.0605,-1.6989,7.8141,0.0997,0,0,-3.0219,3.2355,-4.9112,19.9112,10.0888,0.0605,straight,9.38,0,8.08,0,0,0,0,-0.942,0,0,29.53,4,200,114.6639,58.2164,39.8224,30.9763,25.9922,22.9915,21.189,20.2184,10.0888,10.2444,10.7363,11.6496,13.17,15.6954,20.1776,29.4977,58.0991,200
-0.92,0,2922.64,0.03,134.94,0,0,1,0,0.5932,535.0378,10.0892,5.6641,-0.2743,-0.0166,-0.0605,-1.6989,7.8141,0.0997,0,0,-3.0219,3.2355,-4.9112,19.9112,10.0888,0.0605,straight,9.38,0,8.08,0,0,0,0,-0.922,0,0,29.53,4,200,114.6639,58.2164,39.8224,30.9763,25.9922,22.9915,21.189,20.2184,10.0888,10.2444,10.7363,11.6496,13.17,15.6954,20.1776,29.4977,58.0991,200
-0.9,0,2922.64,0.03,155.99,0,0,1,0,0.5932,535.0378,10.0892,5.6641,-0.2743,-0.0166,-0.0605,-1.6989,7.8141,0.0997,0,0,-3.0219,3.2355,-4.9112,19.9112,10.0888,0.0605,straight,9.38,0,8.08,0,0,0,0,-0.902,0,0,29.53,4,200,114.6639,58.2164,39.8224,30.9763,25.9922,22.9915,21.189,20.2184,10.0888,10.2444,10.7363,11.6496,13.17,15.6954,20.1776,29.4977,58.0991,200
-0.88,0,2922.64,0.03,178.41,0,0,1,0,0.5932,535.0378,10.0892,5.6641,-0.2743,-0.0166,-0.0605,-1.6989,7.8141,0.0997,0,0,-3.0219,3.2355,-4.9112,19.9112,10.0888,0.0605,straight,9.38,0,8.08,0,0,0,0,-0.882,0,0,29.53,4,200,114.6639,58.2164,39.8224,30.9763,25.9922,22.9915,21.189,20.2184,10.0888,10.2444,10.7363,11.6496,13.17,15.6954,20.1776,29.4977,58.0991,200
-0.86,0,2922.64,0.03,202.3,0,0,1,0,0.5932,535.0378,10.0892,5.6641,-0.2743,-0.0166,-0.0605,-1.6989,7.8141,0.0997,0,0,-3.0219,3.2355,-4.9112,19.9112,10.0888,0.0605,straight,9.38,0,8.08,0,0,0,0,-0.862,0,0,29.53,4,200,114.6639,58.2164,39.8224,30.9763,25.9922,22.9915,21.189,20.2184,10.0888,10.2444,10.7363,11.6496,13.17,15.6954,20.1776,29.4977,58.0991,200
-0.84,0,2922.64,0.03,227.73,0,0,1,0,0.5932,535.0378,10.0892,5.6641,-0.2743,-0.0166,-0.0605,-1.6989,7.8141,0.0997,0,0,-3.0219,3.2355,-4.9112,19.9112,10.0888,0.0605,straight,9.38,0,8.08,0,0,0,0,-0.842,0,0,29.53,4,200,114.6639,58.2164,39.8224,30.9763,25.9922,22.9915,21.189,20.2184,10.0888,10.2444,10.7363,11.6496,13.17,15.6954,20.1776,29.4977,58.0991,200
-0.82,0,2922.64,0.03,254.5,0,0,1,0,0.5932,535.0378,10.0892,5.6641,-0.2743,-0.0166,-0.0605,-1.6989,7.8141,0.0997,0,0,-3.0219,3.2355,-4.9112,19.9112,10.0888,0.0605,straight,9.38,0,8.08,0,0,0,0,-0.822,0,0,29.53,4,200,114.6639,58.2164,39.8224,30.9763,25.9922,22.9915,21.189,20.2184,10.0888,10.2444,10.7363,11.6496,13.17,15.6954,20.1776,29.4977,58.0991,200
-0.8,0,2922.64,0.03,282.64,0,0,1,0,0.5932,535.0378,10.0892,5.6641,-0.2743,-0.0166,-0.0605,-1.6989,7.8141,0.0997,0,0,-3.0219,3.2355,-4.9112,19.9112,10.0888,0.0605,straight,9.38,0,8.08,0,0,0,0,-0.802,0,0,29.53,4,200,114.6639,58.2164,39.8224,30.9763,25.9922,22.9915,21.189,20.2184,10.0888,10.2444,10.7363,11.6496,13.17,15.6954,20.1776,29.4977,58.0991,200
-0.78,0,2922.64,0.03,312.21,0,0,1,0,0.5932,535.0378,10.0892,5.6641,-0.2743,-0.0166,-0.0605,-1.6989,7.8141,0.0997,0,0,-3.0219,3.2355,-4.9112,19.9112,10.0888,0.0605,straight,9.38,0,8.08,0,0,0,0,-0.782,0,0,29.53,4,200,114.6639,58.2164,39.8224,30.9763,25.9922,22.9915,21.189,20.2184,10.0888,10.2444,10.7363,11.6496,13.17,15.6954,20.1776,29.4977,58.0991,200
-0.76,0,2922.64,0.03,343.44,0,0,1,0,0.5932,535.0378,10.0892,5.6641,-0.2743,-0.0166,-0.0605,-1.6989,7.8141,0.0997,0,0,-3.0219,3.2355,-4.9112,19.9112,10.0888,0.0605,straight,9.38,0,8.08,0,0,0,0,-0.762,0,0,29.53,4,200,114.6639,58.2164,39.8224,30.9763,25.9922,22.9915,21.189,20.2184,10.0888,10.2444,10.7363,11.6496,13.17,15.6954,20.1776,29.4977,58.0991,200
-0.74,0,2922.64,0.03,377.01,0,0,1,0,0.5932,535.0378,10.0892,5.6641,-0.2743,-0.0166,-0.0605,-1.6989,7.8141,0.0997,0,0,-3.0219,3.2355,-4.9112,19.9112,10.0888,0.0605,straight,9.38,0,8.08,0,0,0,0,-0.742,0,0,29.53,4,200,114.6639,58.2164,39.8224,30.9763,25.9922,22.9915,21.189,20.2184,10.0888,10.2444,10.7363,11.6496,13.17,15.6954,20.1776,29.4977,58.0991,200
-0.72,0,2922.64,0.03,413.13,0,0,1,0,0.5932,535.0378,10.0892,5.6641,-0.2743,-0.0166,-0.0605,-1.6989,7.8141,0.0997,0,0,-3.0219,3.2355,-4.9112,19.9112,10.0888,0.0605,straight,9.38,0,8.08,0,0,0,0,-0.722,0,0,29.53,4,200,114.6639,58.2164,39.8224,30.9763,25.9922,22.9915,21.189,20.2184,10.0888,10.2444,10.7363,11.6496,13.17,15.6954,20.1776,29.4977,58.0991,200
-0.7,0,2922.64,0.03,451.6,0,0,1,0,0.5932,535.0378,10.0892,5.6641,-0.2743,-0.0166,-0.0605,-1.6989,7.8141,0.0997,0,0,-3.0219,3.2355,-4.9112,19.9112,10.0888,0.0605,straight,9.38,0,8.08,0,0,0,0,-0.702,0,0,29.53,4,200,114.6639,58.2164,39.8224,30.9763,25.9922,22.9915,21.189,20.2184,10.0888,10.2444,10.7363,11.6496,13.17,15.6954,20.1776,29.4977,58.0991,200
-0.68,0,2922.64,0.03,447.01,0,0,0,0,0.5932,535.0378,10.0892,5.6641,-0.2743,-0.0166,-0.0605,-1.6989,7.8141,0.0997,0,0,-3.0219,3.2355,-4.9112,19.9112,10.0888,0.0605,straight,9.38,0,8.08,0,0,0,0,-0.682,0,0,29.53,4,200,114.6639,58.2164,39.8224,30.9763,25.9922,22.9915,21.189,20.2184,10.0888,10.2444,10.7363,11.6496,13.17,15.6954,20.1776,29.4977,58.0991,200
-0.66,0,2922.64,0.03,442.48,0,0,0,0,0.5932,535.0378,10.0892,5.6641,-0.2743,-0.0166,-0.0605,-1.6989,7.8141,0.0997,0,0,-3.0219,3.2355,-4.9112,19.9112,10.0888,0.0605,straight,9.38,0,8.08,0,0,0,0,-0.662,0,0,29.53,4,200,114.6639,58.2164,39.8224,30.9763,25.9922,22.9915,21.189,20.2184,10.0888,10.2444,10.7363,11.6496,13.17,15.6954,20.1776,29.4977,58.0991,200
-0.64,0,2922.64,0.03,438.01,0,0,0,0,0.5932,535.0378,10.0892,5.6641,-0.2743,-0.0166,-0.0605,-1.6989,7.8141,0.0997,0,0,-3.0219,3.2355,-4.9112,19.9112,10.0888,0.0605,straight,9.38,0,8.08,0,0,0,0,-0.642,0,0,29.53,4,200,114.6639,58.2164,39.8224,30.9763,25.9922,22.9915,21.189,20.2184,10.0888,10.2444,10.7363,11.6496,13.17,15.6954,20.1776,29.4977,58.0991,200
-0.62,0,2922.64,0.03,433.61,0,0,0,0,0.5932,535.0378,10.0892,5.6641,-0.2743,-0.0166,-0.0605,-1.6989,7.8141,0.0997,0,0,-3.0219,3.2355,-4.9112,19.9112,10.0888,0.0605,straight,9.38,0,8.08,0,0,0,0,-0.622,0,0,29.53,4,200,114.6639,58.2164,39.8224,30.9763,25.9922,22.9915,21.189,20.2184,10.0888,10.2444,10.7363,11.6496,13.17,15.6954,20.1776,29.4977,58.0991,200
-0.6,0,2922.64,0.03,429.26,0,0,0,0,0.5932,535.0378,10.0892,5.6641,-0.2743,-0.0166,-0.0605,-1.6989,7.8141,0.0997,0,0,-3.0219,3.2355,-4.9112,19.9112,10.0888,0.0605,straight,9.38,0,8.08,0,0,0,0,-0.602,0,0,29.53,4,200,114.6639,58.2164,39.8224,30.9763,25.9922,22.9915,21.189,20.2184,10.0888,10.2444,10.7363,11.6496,13.17,15.6954,20.1776,29.4977,58.0991,200
-0.58,0,2922.64,0.03,424.99,0,0,0,0,0.5932,535.0378,10.0892,5.6641,-0.2743,-0.0166,-0.0605,-1.6989,7.8141,0.0997,0,0,-3.0219,3.2355,-4.9112,19.9112,10.0888,0.0605,straight,9.38,0,8.08,0,0,0,0,-0.582,0,0,29.53,4,200,114.6639,58.2164,39.8224,30.9763,25.9922,22.9915,21.189,20.2184,10.0888,10.2444,10.7363,11.6496,13.17,15.6954,20.1776,29.4977,58.0991,200
-0.56,0,2922.64,0.03,420.81,0,0,0,0,0.5932,535.0378,10.0892,5.6641,-0.2743,-0.0166,-0.0605,-1.6989,7.8141,0.0997,0,0,-3.0219,3.2355,-4.9112,19.9112,10.0888,0.0605,straight,9.38,0,8.08,0,0,0,0,-0.562,0,0,29.53,4,200,114.6639,58.2164,39.8224,30.9763,25.9922,22.9915,21.189,20.2184,10.0888,10.2444,10.7363,11.6496,13.17,15.6954,20.1776,29.4977,58.0991,200
-0.54,0,2922.64,0.03,416.72,0,0,0,0,0.5932,535.0378,10.0892,5.6641,-0.2743,-0.0166,-0.0605,-1.6989,7.8141,0.0997,0,0,-3.0219,3.2355,-4.9112,19.9112,10.0888,0.0605,straight,9.38,0,8.08,0,0,0,0,-0.542,0,0,29.53,4,200,114.6639,58.2164,39.8224,30.9763,25.9922,22.9915,21.189,20.2184,10.0888,10.2444,10.7363,11.6496,13.17,15.6954,20.1776,29.4977,58.0991,200
-0.52,0,2922.64,0.03,412.72,0,0,0,0,0.5932,535.0378,10.0892,5.6641,-0.2743,-0.0166,-0.0605,-1.6989,7.8141,0.0997,0,0,-3.0219,3.2355,-4.9112,19.9112,10.0888,0.0605,straight,9.38,0,8.08,0,0,0,0,-0.522,0,0,29.53,4,200,114.6639,58.2164,39.8224,30.9763,25.9922,22.9915,21.189,20.2184,10.0888,10.2444,10.7363,11.6496,13.17,15.6954,20.1776,29.4977,58.0991,200
-0.5,0,2922.64,0.03,408.8,0,0,0,0,0.5932,535.0378,10.0892,5.6641,-0.2743,-0.0166,-0.0605,-1.6989,7.8141,0.0997,0,0,-3.0219,3.2355,-4.9112,19.9112,10.0888,0.0605,straight,9.38,0,8.08,0,0,0,0,-0.502,0,0,29.53,4,200,114.6639,58.2164,39.8224,30.9763,25.9922,22.9915,21.189,20.2184,10.0888,10.2444,10.7363,11.6496,13.17,15.6954,20.1776,29.4977,58.0991,200
-0.48,0,2922.64,0.03,404.96,0,0,0,0,0.5932,535.0378,10.0892,5.6641,-0.2743,-0.0166,-0.0605,-1.6989,7.8141,0.0997,0,0,-3.0219,3.2355,-4.9112,19.9112,10.0888,0.0605,straight,9.38,0,8.08,0,0,0,0,-0.482,0,0,29.53,4,200,114.6639,58.2164,39.8224,30.9763,25.9922,22.9915,21.189,20.2184,10.0888,10.2444,10.7363,11.6496,13.17,15.6954,20.1776,29.4977,58.0991,200
-0.46,0,2922.64,0.03,401.2,0,0,0,0,0.5932,535.0378,10.0892,5.6641,-0.2743,-0.0166,-0.0605,-1.6989,7.8141,0.0997,0,0,-3.0219,3.2355,-4.9112,19.9112,10.0888,0.0605,straight,9.38,0,8.08,0,0,0,0,-0.462,0,0,29.53,4,200,114.6639,58.2164,39.8224,30.9763,25.9922,22.9915,21.189,20.2184,10.0888,10.2444,10.7363,11.6496,13.17,15.6954,20.1776,29.4977,58.0991,200
-0.44,0,2922.64,0.03,397.51,0,0,0,0,0.5932,535.0378,10.0892,5.6641,-0.2743,-0.0166,-0.0605,-1.6989,7.8141,0.0997,0,0,-3.0219,3.2355,-4.9112,19.9112,10.0888,0.0605,straight,9.38,0,8.08,0,0,0,0,-0.442,0,0,29.53,4,200,114.6639,58.2164,39.8224,30.9763,25.9922,22.9915,21.189,20.2184,10.0888,10.2444,10.7363,11.6496,13.17,15.6954,20.1776,29.4977,58.0991,200
-0.42,0,2922.64,0.03,393.9,0,0,0,0,0.5932,535.0378,10.0892,5.6641,-0.2743,-0.0166,-0.0605,-1.6989,7.8141,0.0997,0,0,-3.0219,3.2355,-4.9112,19.9112,10.0888,0.0605,straight,9.38,0,8.08,0,0,0,0,-0.422,0,0,29.53,4,200,114.6639,58.2164,39.8224,30.9763,25.9922,22.9915,21.189,20.2184,10.0888,10.2444,10.7363,11.6496,13.17,15.6954,20.1776,29.4977,58.0991,200
-0.4,0,2922.64,0.03,390.36,0,0,0,0,0.5932,535.0378,10.0892,5.6641,-0.2743,-0.0166,-0.0605,-1.6989,7.8141,0.0997,0,0,-3.0219,3.2355,-4.9112,19.9112,10.0888,0.0605,straight,9.38,0,8.08,0,0,0,0,-0.402,0,0,29.53,4,200,114.6639,58.2164,39.8224,30.9763,25.9922,22.9915,21.189,20.2184,10.0888,10.2444,10.7363,11.6496,13.17,15.6954,20.1776,29.4977,58.0991,200
-0.38,0,2922.64,0.03,386.89,0,0,0,0,0.5932,535.0378,10.0892,5.6641,-0.2743,-0.0166,-0.0605,-1.6989,7.8141,0.0997,0,0,-3.0219,3.2355,-4.9112,19.9112,10.0888,0.0605,straight,9.38,0,8.08,0,0,0,0,-0.382,0,0,29.53,4,200,114.6639,58.2164,39.8224,30.9763,25.9922,22.9915,21.189,20.2184,10.0888,10.2444,10.7363,11.6496,13.17,15.6954,20.1776,29.4977,58.0991,200
-0.36,0,2922.64,0.03,383.49,0,0,0,0,0.5932,535.0378,10.0892,5.6641,-0.2743,-0.0166,-0.0605,-1.6989,7.8141,0.0997,0,0,-3.0219,3.2355,-4.9112,19.9112,10.0888,0.0605,straight,9.38,0,8.08,0,0,0,0,-0.362,0,0,29.53,4,200,114.6639,58.2164,39.8224,30.9763,25.9922,22.9915,21.189,20.2184,10.0888,10.2444,10.7363,11.6496,13.17,15.6954,20.1776,29.4977,58.0991,200
-0.34,0,2922.64,0.03,380.16,0,0,0,0,0.5932,535.0378,10.0892,5.6641,-0.2743,-0.0166,-0.0605,-1.6989,7.8141,0.0997,0,0,-3.0219,3.2355,-4.9112,19.9112,10.0888,0.0605,straight,9.38,0,8.08,0,0,0,0,-0.342,0,0,29.52,4,200,114.6639,58.2164,39.8224,30.9763,25.9922,22.9915,21.189,20.2184,10.0888,10.2444,10.7363,11.6496,13.17,15.6954,20.1776,29.4977,58.0991,200
-0.32,0,2922.64,0.03,376.89,0,0,0,0,0.5932,535.0378,10.0892,5.6641,-0.2743,-0.0166,-0.0605,-1.6989,7.8141,0.0997,0,0,-3.0219,3.2355,-4.9112,19.9112,10.0888,0.0605,straight,9.38,0,8.08,0,0,0,0,-0.322,0,0,29.52,4,200,114.6639,58.2164,39.8224,30.9763,25.9922,22.9915,21.189,20.2184,10.0888,10.2444,10.7363,11.6496,13.17,15.6954,20.1776,29.4977,58.0991,200
-0.3,0,2922.64,0.03,373.68,0,0,0,0,0.5932,535.0378,10.0892,5.6641,-0.2743,-0.0166,-0.0605,-1.6989,7.8141,0.0997,0,0,-3.0219,3.2355,-4.9112,19.9112,10.0888,0.0605,straight,9.38,0,8.08,0,0,0,0,-0.302,0,0,29.52,4,200,114.6639,58.2164,39.8224,30.9763,25.9922,22.9915,21.189,20.2184,10.0888,10.2444,10.7363,11.6496,13.17,15.6954,20.1776,29.4977,58.0991,200
-0.28,0,2922.64,0.03,370.53,0,0,0,0,0.5932,535.0378,10.0892,5.6641,-0.2743,-0.0166,-0.0605,-1.6989,7.8141,0.0997,0,0,-3.0219,3.2355,-4.9112,19.9112,10.0888,0.0605,straight,9.38,0,8.08,0,0,0,0,-0.282,0,0,29.52,4,200,114.6639,58.2164,39.8224,30.9763,25.9922,22.9915,21.189,20.2184,10.0888,10.2444,10.7363,11.6496,13.17,15.6954,20.1776,29.4977,58.0991,200
-0.26,0,2922.64,0.03,367.44,0,0,0,0,0.5932,535.0378,10.0892,5.6641,-0.2743,-0.0166,-0.0605,-1.6989,7.8141,0.0997,0,0,-3.0219,3.2355,-4.9112,19.9112,10.0888,0.0605,straight,9.38,0,8.08,0,0,0,0,-0.262,0,0,29.52,4,200,114.6639,58.2164,39.8224,30.9763,25.9922,22.9915,21.189,20.2184,10.0888,10.2444,10.7363,11.6496,13.17,15.6954,20.1776,29.4977,58.0991,200
-0.24,0,2922.64,0.03,364.41,0,0,0,0,0.5932,535.0378,10.0892,5.6641,-0.2743,-0.0166,-0.0605,-1.6989,7.8141,0.0997,0,0,-3.0219,3.2355,-4.9112,19.9112,10.0888,0.0605,straight,9.38,0,8.08,0,0,0,0,-0.242,0,0,29.52,4,200,114.6639,58.2164,39.8224,30.9763,25.9922,22.9915,21.189,20.2184,10.0888,10.2444,10.7363,11.6496,13.17,15.6954,20.1776,29.4977,58.0991,200
-0.22,0,2922.64,0.03,361.43,0,0,0,0,0.5932,535.0378,10.0892,5.6641,-0.2743,-0.0166,-0.0605,-1.6989,7.8141,0.0997,0,0,-3.0219,3.2355,-4.9112,19.9112,10.0888,0.0605,straight,9.38,0,8.08,0,0,0,0,-0.222,0,0,29.52,4,200,114.6639,58.2164,39.8224,30.9763,25.9922,22.9915,21.189,20.2184,10.0888,10.2444,10.7363,11.6496,13.17,15.6954,20.1776,29.4977,58.0991,200
-0.2,0,2922.64,0.03,358.51,0,0,0,0,0.5932,535.0378,10.0892,5.6641,-0.2743,-0.0166,-0.0605,-1.6989,7.8141,0.0997,0,0,-3.0219,3.2355,-4.9112,19.9112,10.0888,0.0605,straight,9.38,0,8.08,0,0,0,0,-0.202,0,0,29.52,4,200,114.6639,58.2164,39.8224,30.9763,25.9922,22.9915,21.189,20.2184,10.0888,10.2444,10.7363,11.6496,13.17,15.6954,20.1776,29.4977,58.0991,200
-0.18,0,2922.64,0.03,355.64,0,0,0,0,0.5932,535.0378,10.0892,5.6641,-0.2743,-0.0166,-0.0605,-1.6989,7.8141,0.0997,0,0,-3.0219,3.2355,-4.9112,19.9112,10.0888,0.0605,straight,9.38,0,8.08,0,0,0,0,-0.182,0,0,29.52,4,200,114.6639,58.2164,39.8224,30.9763,25.9922,22.9915,21.189,20.2184,10.0888,10.2444,10.7363,11.6496,13.17,15.6954,20.1776,29.4977,58.0991,200
-0.16,0,2922.64,0.03,352.82,0,0,0,0,0.5932,535.0378,10.0892,5.6641,-0.2743,-0.0166,-0.0605,-1.6989,7.8141,0.0997,0,0,-3.0219,3.2355,-4.9112,19.9112,10.0888,0.0605,straight,9.38,0,8.08,0,0,0,0,-0.162,0,0,29.52,4,200,114.6639,58.2164,39.8224,30.9763,25.9922,22.9915,21.189,20.2184,10.0888,10.2444,10.7363,11.6496,13.17,15.6954,20.1776,29.4977,58.0991,200
-0.14,0,2922.64,0.03,350.05,0,0,0,0,0.5932,535.0378,10.0892,5.6641,-0.2743,-0.0166,-0.0605,-1.6989,7.8141,0.0997,0,0,-3.0219,3.2355,-4.9112,19.9112,10.0888,0.0605,straight,9.38,0,8.08,0,0,0,0,-0.142,0,0,29.52,4,200,114.6639,58.2164,39.8224,30.9763,25.9922,22.9915,21.189,20.2184,10.0888,10.2444,10.7363,11.6496,13.17,15.6954,20.1776,29.4977,58.0991,200
-0.12,0,2922.64,0.03,347.34,0,0,0,0,0.5932,535.0378,10.0892,5.6641,-0.2743,-0.0166,-0.0605,-1.6989,7.8141,0.0997,0,0,-3.0219,3.2355,-4.9112,19.9112,10.0888,0.0605,straight,9.38,0,8.08,0,0,0,0,-0.122,0,0,29.52,4,200,114.6639,58.2164,39.8224,30.9763,25.9922,22.9915,21.189,20.2184,10.0888,10.2444,10.7363,11.6496,13.17,15.6954,20.1776,29.4977,58.0991,200
-0.1,0,2922.64,0.03,344.67,0,0,0,0,0.5932,535.0378,10.0892,5.6641,-0.2743,-0.0166,-0.0605,-1.6989,7.8141,0.0997,0,0,-3.0219,3.2355,-4.9112,19.9112,10.0888,0.0605,straight,9.38,0,8.08,0,0,0,0,-0.102,0,0,29.52,4,200,114.6639,58.2164,39.8224,30.9763,25.9922,22.9915,21.189,20.2184,10.0888,10.2444,10.7363,11.6496,13.17,15.6954,20.1776,29.4977,58.0991,200
-0.08,0,2922.64,0.03,342.04,0,0,0,0,0.5932,535.0378,10.0892,5.6641,-0.2743,-0.0166,-0.0605,-1.6989,7.8141,0.0997,0,0,-3.0219,3.2355,-4.9112,19.9112,10.0888,0.0605,straight,9.38,0,8.08,0,0,0,0,-0.082,0,0,29.52,4,200,114.6639,58.2164,39.8224,30.9763,25.9922,22.9915,21.189,20.2184,10.0888,10.2444,10.7363,11.6496,13.17,15.6954,20.1776,29.4977,58.0991,200
-0.06,0,2922.64,0.03,339.46,0,0,0,0,0.5932,535.0378,10.0892,5.6641,-0.2743,-0.0166,-0.0605,-1.6989,7.8141,0.0997,0,0,-3.0219,3.2355,-4.9112,19.9112,10.0888,0.0605,straight,9.38,0,8.08,0,0,0,0,-0.062,0,0,29.52,4,200,114.6639,58.2164,39.8224,30.9763,25.9922,22.9915,21.189,20.2184,10.0888,10.2444,10.7363,11.6496,13.17,15.6954,20.1776,29.4977,58.0991,200
-0.04,0,2922.64,0.03,336.93,0,0,0,0,0.5932,535.0378,10.0892,5.6641,-0.2743,-0.0166,-0.0605,-1.6989,7.8141,0.0997,0,0,-3.0219,3.2355,-4.9112,19.9112,10.0888,0.0605,straight,9.38,0,8.08,0,0,0,0,-0.042,0,0,29.52,4,200,114.6639,58.2164,39.8224,30.9763,25.9922,22.9915,21.189,20.2184,10.0888,10.2444,10.7363,11.6496,13.17,15.6954,20.1776,29.4977,58.0991,200
-0.02,0,2922.64,0.03,334.43,0,0,0,0,0.5932,535.0378,10.0892,5.6641,-0.2743,-0.0166,-0.0605,-1.6989,7.8141,0.0997,0,0,-3.0219,3.2355,-4.9112,19.9112,10.0888,0.0605,straight,9.38,0,8.08,0,0,0,0,-0.022,0,0,29.52,4,200,114.6639,58.2164,39.8224,30.9763,25.9922,22.9915,21.189,20.2184,10.0888,10.2444,10.7363,11.6496,13.17,15.6954,20.1776,29.4977,58.0991,200
0.02,0,2922.64,0.01,329.58,0,0,0,0,0.5932,535.0381,10.0902,5.664,-0.2742,-0.0167,-0.0608,-5.9595,2.2111,-0.0997,0.3857,0.4939,4.0867,-3.8244,-4.9102,19.9102,10.0898,0.0608,straight,9.38,0,8.08,0,0,0,0,0.018,0,0,29.52,4,200,114.6582,58.2135,39.8204,30.9748,25.9909,22.9903,21.188,20.2173,10.0898,10.2455,10.7373,11.6507,13.1713,15.6969,20.1796,29.5006,58.1048,200
0.04,0,2922.64,0.06,245.72,1,0,0,0,0.5932,535.0385,10.0918,5.6638,-0.274,-0.0168,-0.0615,5.4111,0.7525,-0.3619,-2.2226,-2.327,-3.9455,2.7152,-4.9086,19.9086,10.0914,0.0615,straight,9.38,0,8.08,0,0,0,0,0.038,0,0,29.52,4,200,114.6492,58.2089,39.8172,30.9723,25.9889,22.9885,21.1863,20.2157,10.0914,10.2471,10.739,11.6525,13.1734,15.6994,20.1828,29.5052,58.1139,200
0.06,0,2922.64,-0.05,157.8,1,0,0,0,0.5532,535.0386,10.0938,5.6635,-0.2737,-0.0169,-0.0626,-5.7978,1.7383,-0.367,0.3051,0.3924,2.1542,-4.2927,-4.9066,19.9066,10.0934,0.0626,straight,9.38,0,8.08,0,0,0,0,0.058,0,0,29.52,4,200,114.6375,58.203,39.8132,30.9692,25.9862,22.9862,21.1842,20.2137,10.0934,10.2491,10.7412,11.6548,13.176,15.7025,20.1868,29.5111,58.1255,200
0.08,0,2922.64,0.02,115.19,1,0,0,0,0.5132,535.0387,10.0962,5.663,-0.2734,-0.0172,-0.0639,5.9082,0.483,-0.3581,-2.0365,-2.0021,-4.2284,2.1101,-4.9042,19.9042,10.0958,0.0638,straight,9.38,0,8.08,0,0,0,0,0.078,0,0,29.52,4,200,114.6237,58.196,39.8084,30.9654,25.9831,22.9834,21.1816,20.2113,10.0958,10.2515,10.7437,11.6576,13.1791,15.7063,20.1916,29.5182,58.1394,200
0.1,0,2922.64,-0.09,115.19,1,0,0,0,0.4732,535.0387,10.0991,5.6624,-0.2732,-0.0174,-0.0652,-5.9925,1.4176,-0.122,0.7095,0.6908,2.2454,-4.3782,-4.9014,19.9014,10.0986,0.0652,straight,9.38,0,8.08,0,0,0,0,0.098,0,0,29.52,4,200,114.6074,58.1877,39.8028,30.961,25.9794,22.9801,21.1786,20.2084,10.0986,10.2544,10.7467,11.6609,13.1828,15.7107,20.1972,29.5264,58.1556,200
0.12,0,2922.64,-0.02,115.19,1,0,0,0,0.4332,535.0386,10.1023,5.6618,-0.273,-0.0177,-0.0668,5.3262,0.503,-0.6425,-1.7503,-1.7391,-4.0257,2.1155,-4.8982,19.8982,10.1018,0.0667,straight,9.38,0,8.08,0,0,0,0,0.118,0,0,29.52,4,200,114.589,58.1784,39.7964,30.9561,25.9752,22.9764,21.1752,20.2051,10.1018,10.2577,10.7501,11.6646,13.187,15.7156,20.2036,29.5358,58.1741,200
0.14,0,2922.64,-0.12,115.19,1,0,0,0,0.3932,535.0384,10.1058,5.6609,-0.2729,-0.0181,-0.0683,-6.414,1.1165,-0.2616,0.8591,0.9763,2.2613,-4.2282,-4.8946,19.8946,10.1054,0.0683,straight,9.38,0,8.08,0,0,0,0,0.138,0,0,29.52,4,200,114.5686,58.168,39.7893,30.9505,25.9706,22.9723,21.1714,20.2015,10.1054,10.2613,10.7539,11.6687,13.1916,15.7212,20.2107,29.5461,58.1945,200
0.16,0,2922.64,-0.05,115.19,1,0,0,0,0.3532,535.0383,10.1097,5.6599,-0.2727,-0.0186,-0.0701,5.411,0.4842,-0.1729,-1.6195,-1.4959,-4.1869,2.3015,-4.8908,19.8908,10.1092,0.0701,straight,9.38,0,8.08,0,0,0,0,0.158,0,0,29.52,4,200,114.5463,58.1567,39.7815,30.9445,25.9655,22.9679,21.1673,20.1976,10.1092,10.2652,10.758,11.6731,13.1967,15.7272,20.2185,29.5574,58.2168,200
0.18,0,2922.64,-0.16,115.19,1,0,0,0,0.3132,535.038,10.1138,5.6588,-0.2727,-0.0191,-0.0719,-5.571,0.8035,-0.3302,0.9924,1.1374,2.3382,-4.2312,-4.8866,19.8866,10.1134,0.0719,straight,9.38,0,8.08,0,0,0,0,0.178,0,0,29.52,4,200,114.5223,58.1445,39.7732,30.938,25.9601,22.9631,21.1629,20.1934,10.1134,10.2694,10.7625,11.678,13.2021,15.7337,20.2268,29.5696,58.2408,200
0.2,0,2922.64,-0.09,115.19,1,0,0,0,0.2732,535.0375,10.1183,5.6576,-0.2727,-0.0196,-0.0739,5.1753,0.5171,-0.4796,-1.4212,-1.3567,-3.7855,2.3228,-4.8822,19.8822,10.1178,0.0739,straight,9.38,0,8.09,0,0,0,0,0.198,0,0,29.52,4,200,114.4969,58.1316,39.7644,30.9312,25.9543,22.958,21.1582,20.1889,10.1178,10.2739,10.7672,11.6831,13.2079,15.7405,20.2356,29.5825,58.2662,200
0.22,0,2922.64,-0.2,115.19,1,0,0,0,0.2332,535.037,10.1229,5.6562,-0.2727,-0.0201,-0.0759,-6.0691,0.4545,-0.2506,1.0656,1.4087,2.3595,-4.0571,-4.8775,19.8775,10.1225,0.0759,straight,9.38,0,8.09,0,0,0,0,0.218,0,0,29.52,4,200,114.4702,58.118,39.7551,30.924,25.9483,22.9526,21.1532,20.1842,10.1225,10.2786,10.7721,11.6884,13.2139,15.7477,20.2449,29.5961,58.2929,200
0.24,0,2922.64,-0.13,115.19,1,0,0,0,0.1932,535.0365,10.1277,5.6549,-0.2728,-0.0207,-0.0781,5.5444,0.4991,-0.6193,-1.3437,-1.3313,-3.7209,2.3368,-4.8727,19.8727,10.1273,0.0781,straight,9.38,0,8.09,0,0,0,0,0.238,0,0,29.52,4,200,114.4425,58.104,39.7455,30.9165,25.942,22.9471,21.1481,20.1793,10.1273,10.2835,10.7772,11.694,13.2202,15.7552,20.2545,29.6101,58.3206,200
0.262,0,2922.64,-0.19,115.19,1,0,0,0,0.1532,535.0358,10.1332,5.6532,-0.2729,-0.0214,-0.0807,6.396,0.5876,-0.1227,4.0866,-3.5566,2.765,-4.2663,-4.8673,19.8673,10.1327,0.0807,straight,9.38,0,8.09,0,0,0,0,0.26,0,0,29.52,4,200,114.4111,58.088,39.7346,30.908,25.9349,22.9408,21.1423,20.1738,10.1327,10.289,10.783,11.7003,13.2273,15.7637,20.2654,29.6261,58.352,200
0.282,0,2922.63,-0.21,115.19,1,0,0,0,0.1132,535.0351,10.1382,5.6517,-0.273,-0.0221,-0.0831,-6.9745,0.0134,0.244,-4.5206,3.3353,-4.0561,2.8798,-4.8622,19.8622,10.1378,0.0831,straight,9.38,0,8.09,0,0,0,0,0.28,0,0,29.52,4,200,114.3819,58.0732,39.7244,30.9001,25.9283,22.9349,21.1369,20.1686,10.1378,10.2942,10.7884,11.7061,13.2339,15.7716,20.2756,29.6409,58.3812,200
0.302,0,2922.63,-0.22,115.19,1,0,0,0,0.0732,535.0343,10.1434,5.6503,-0.273,-0.0228,-0.0857,6.3551,0.3516,-0.1295,3.8447,-3.6496,2.8727,-4.1686,-4.857,19.857,10.143,0.0857,straight,9.38,0,8.09,0,0,0,0,0.3,0,0,29.52,4,200,114.3521,58.0581,39.7141,30.8921,25.9215,22.9289,21.1314,20.1634,10.143,10.2994,10.7939,11.7121,13.2407,15.7796,20.2859,29.656,58.4109,200
0.322,0,2922.63,-0.25,115.19,1,0,0,0,0.0332,535.0336,10.1486,5.6487,-0.273,-0.0236,-0.0883,-6.7998,0.1172,0.1893,-4.6854,3.2956,-4.0841,3.1689,-4.8518,19.8518,10.1482,0.0883,straight,9.38,0,8.09,0,0,0,0,0.32,0,0,29.52,4,200,114.3219,58.0428,39.7036,30.8839,25.9147,22.9229,21.1258,20.158,10.1482,10.3048,10.7995,11.7181,13.2475,15.7878,20.2964,29.6714,58.4411,200
0.342,0,2922.63,-0.26,115.19,1,0,0,0,0,535.0325,10.154,5.6472,-0.2731,-0.0244,-0.091,6.3262,0.4041,-0.0353,3.8057,-3.6948,2.9871,-4.1401,-4.8465,19.8465,10.1535,0.091,straight,9.38,0,8.09,0,0,0,0,0.34,0,0,29.52,4,200,114.2912,58.0272,39.6929,30.8756,25.9077,22.9167,21.1202,20.1526,10.1535,10.3102,10.8052,11.7243,13.2545,15.7961,20.3071,29.6869,58.4719,200
0.362,0,2922.63,-0.29,115.19,1,0,0,0,0,535.0315,10.1594,5.6457,-0.273,-0.0252,-0.0937,-6.7551,0.1179,-0.578,-4.581,3.2115,-3.5929,3.1175,-4.8411,19.8411,10.1589,0.0937,straight,9.38,0,8.09,0,0,0,0,0.36,0,0,29.52,4,200,114.2601,58.0114,39.6821,30.8672,25.9007,22.9105,21.1144,20.1471,10.1589,10.3157,10.8109,11.7305,13.2616,15.8045,20.3179,29.7028,58.503,200
0.382,0,2922.63,-0.3,115.19,1,0,0,0,0,535.0304,10.1649,5.6441,-0.273,-0.0259,-0.0965,6.4573,0.4197,0.1188,3.7578,-3.7029,2.8579,-4.1206,-4.8356,19.8356,10.1644,0.0965,straight,9.38,0,8.09,0,0,0,0,0.38,0,0,29.52,4,200,114.2284,57.9953,39.6711,30.8587,25.8935,22.9041,21.1086,20.1416,10.1644,10.3212,10.8168,11.7369,13.2687,15.8131,20.3289,29.7188,58.5346,200
0.402,0,2922.63,-0.33,115.19,1,0,0,0,0,535.0292,10.1705,5.6425,-0.273,-0.0267,-0.0993,-6.9849,-0.1055,0.2695,-4.5867,3.1646,-3.9677,3.0543,-4.83,19.83,10.17,0.0993,straight,9.38,0,8.09,0,0,0,0,0.4,0,0,29.52,4,200,114.1963,57.979,39.66,30.85,25.8862,22.8977,21.1026,20.1359,10.17,10.3269,10.8227,11.7433,13.276,15.8217,20.34,29.7352,58.5668,200
0.422,0,2922.63,-0.34,115.19,1,0,0,0,0,535.028,10.1761,5.641,-0.2729,-0.0275,-0.1021,6.2349,0.4873,0.0307,3.8232,-3.9279,2.941,-4.1438,-4.8243,19.8243,10.1757,0.1021,straight,9.38,0,8.09,0,0,0,0,0.42,0,0,29.52,4,200,114.1636,57.9624,39.6486,30.8411,25.8788,22.8911,21.0966,20.1301,10.1757,10.3327,10.8288,11.7499,13.2834,15.8306,20.3514,29.7518,58.5995,200
0.442,0,2922.63,-0.36,115.19,1,0,0,0,0,535.0266,10.1819,5.6394,-0.2728,-0.0283,-0.1049,-6.851,0.1338,-0.2836,-4.7064,2.8847,-4.1081,2.9868,-4.8185,19.8185,10.1815,0.1049,straight,9.38,0,8.1,0,0,0,0,0.44,0,0,29.52,4,200,114.1303,57.9455,39.637,30.8321,25.8712,22.8845,21.0904,20.1243,10.1815,10.3385,10.8349,11.7566,13.291,15.8396,20.363,29.7687,58.6328,200
0.462,0,2922.63,-0.37,115.19,1,0,0,0,0,535.0252,10.1878,5.6378,-0.2727,-0.0291,-0.1077,6.5792,0.3676,-0.1856,3.5724,-3.9753,2.4386,-4.154,-4.8126,19.8126,10.1874,0.1077,straight,9.38,0,8.1,0,0,0,0,0.46,0,0,29.52,4,200,114.0964,57.9283,39.6253,30.823,25.8636,22.8777,21.0842,20.1183,10.1874,10.3445,10.8412,11.7634,13.2987,15.8487,20.3747,29.7859,58.6667,200
0.482,0,2922.62,-0.4,115.19,1,0,0,0,0,535.0237,10.1938,5.6362,-0.2726,-0.0299,-0.1105,-6.7525,0.1494,0.2031,-4.8297,3.009,-4.2201,2.961,-4.8066,19.8066,10.1934,0.1104,straight,9.38,0,8.1,0,0,0,0,0.48,0,0,29.52,4,200,114.0619,57.9108,39.6133,30.8137,25.8557,22.8707,21.0778,20.1122,10.1934,10.3506,10.8475,11.7703,13.3065,15.858,20.3867,29.8034,58.7012,200
0.504,0,2922.62,-0.38,115.19,1,0,0,0,0,535.0219,10.2005,5.6344,-0.2725,-0.0308,-0.1136,5.2007,0.3681,-0.0856,-1.8644,-1.8286,-3.8215,2.6506,-4.7999,19.7999,10.2001,0.1136,straight,9.38,0,8.1,0,0,0,0,0.502,0,0,29.52,4,200,114.0233,57.8912,39.5999,30.8032,25.847,22.863,21.0707,20.1054,10.2001,10.3574,10.8547,11.778,13.3152,15.8685,20.4001,29.823,58.7398,200
0.524,0,2922.62,-0.49,115.19,1,0,0,0,0,535.0201,10.2067,5.6328,-0.2725,-0.0315,-0.1164,-5.6862,-0.2918,0.0042,0.4351,0.8663,2.6834,-3.7809,-4.7938,19.7938,10.2062,0.1163,straight,9.38,0,8.1,0,0,0,0,0.522,0,0,29.52,4,200,113.9878,57.8731,39.5876,30.7937,25.8389,22.8559,21.0641,20.0991,10.2062,10.3637,10.8612,11.7851,13.3233,15.8781,20.4124,29.841,58.7753,200
0.544,0,2922.62,-0.43,115.19,1,0,0,0,0,535.0182,10.2128,5.6312,-0.2724,-0.0323,-0.1192,5.5507,0.0708,-0.3196,-1.6164,-2.2053,-3.6802,2.744,-4.7876,19.7876,10.2124,0.1192,straight,9.38,0,8.1,0,0,0,0,0.542,0,0,29.52,4,200,113.9523,57.8551,39.5752,30.7841,25.8309,22.8488,21.0575,20.0929,10.2124,10.3699,10.8678,11.7922,13.3313,15.8877,20.4248,29.859,58.8108,200
0.564,0,2922.62,-0.16,115.19,1,0,1,0,0,535.0171,10.2188,5.6295,-0.2723,-0.0332,-0.1217,5.1541,-2.3923,-0.2931,7.2975,-1.5354,4.8682,-1.6788,-4.7816,19.7816,10.2184,0.1217,straight,9.38,0,8.11,0,0,0,0,0.562,0,0,29.52,4,200,113.9178,57.8376,39.5632,30.7747,25.8231,22.8419,21.0512,20.0868,10.2184,10.376,10.8742,11.7992,13.3391,15.897,20.4368,29.8765,58.8453,200
0.584,0,2922.62,0.27,115.19,1,0,1,0,0,535.0183,10.2238,5.6279,-0.2726,-0.0346,-0.1238,-0.5863,-0.8382,0.1707,-2.5192,7.0907,0.5878,7.9152,-4.7767,19.7767,10.2233,0.1237,straight,9.38,0,8.1,0,0,0,0,0.582,0,0,29.52,4,200,113.8893,57.8231,39.5534,30.767,25.8166,22.8361,21.0459,20.0818,10.2233,10.381,10.8794,11.8049,13.3456,15.9047,20.4466,29.891,58.8738,200
0.604,0,2922.62,0.81,115.19,1,0,1,0,0,535.0222,10.2275,5.6264,-0.2729,-0.0363,-0.1253,1.2855,-2.175,0.3018,6.8363,-2.438,6.4164,-0.4151,-4.7729,19.7729,10.2271,0.1253,straight,9.38,0,8.1,0,0,0,0,0.602,0,0,29.52,4,200,113.8678,57.8122,39.5459,30.7612,25.8117,22.8318,21.0419,20.078,10.2271,10.3848,10.8834,11.8092,13.3505,15.9105,20.4541,29.9019,58.8953,200
0.624,0,2922.62,1.29,115.19,1,0,1,0,0,535.0284,10.2294,5.6252,-0.2736,-0.038,-0.1259,-0.4904,-2.8648,0.9531,-1.9008,7.5184,7.6848,-2.0363,-4.7711,19.7711,10.2289,0.1259,straight,9.38,0,8.09,0,0,0,0,0.622,0,0,29.52,4,200,113.857,57.8067,39.5421,30.7583,25.8093,22.8297,21.0399,20.0761,10.2289,10.3867,10.8854,11.8114,13.3529,15.9134,20.4579,29.9074,58.9061,200
0.644,0,2922.63,1.7,115.19,1,0,1,0,0,535.0369,10.2298,5.6243,-0.2743,-0.0396,-0.126,0.6526,-0.1536,1.0299,5.9931,1.259,-0.3444,10.0943,-4.7707,19.7707,10.2293,0.126,straight,9.38,0,8.09,0,0,0,0,0.642,0,0,29.52,4,200,113.8547,57.8055,39.5413,30.7577,25.8088,22.8292,21.0395,20.0757,10.2293,10.3871,10.8858,11.8118,13.3535,15.914,20.4587,29.9086,58.9084,200
0.664,0,2922.64,2.18,115.19,1,0,1,0,0,535.0482,10.2292,5.6238,-0.2748,-0.0409,-0.1259,0.6376,1.3622,1.3024,1.6417,7.4734,8.2955,0.6401,-4.7712,19.7712,10.2288,0.1259,straight,9.38,0,8.07,0,0,0,0,0.662,0,0,29.52,4,200,113.8579,57.8072,39.5424,30.7586,25.8095,22.8298,21.0401,20.0762,10.2288,10.3866,10.8852,11.8112,13.3527,15.9132,20.4576,29.9069,58.9052,200
0.684,0,2922.65,2.7,115.19,1,0,1,0,0,535.062,10.2282,5.6238,-0.275,-0.0419,-0.1259,0.2255,0.528,0.5555,1.4634,8.4883,8.0429,-0.738,-4.7722,19.7722,10.2278,0.1259,straight,9.38,0,8.06,0,0,0,0,0.682,0,0,29.52,4,200,113.8635,57.81,39.5444,30.7601,25.8108,22.831,21.0411,20.0772,10.2278,10.3856,10.8842,11.8101,13.3515,15.9116,20.4556,29.9041,58.8996,200
0.704,0,2922.66,3.15,115.19,1,0,1,0,0,535.0784,10.227,5.6242,-0.2748,-0.0425,-0.1259,4.7749,0.6216,0.851,7.6294,3.4209,0.0926,9.3846,-4.7734,19.7734,10.2266,0.1259,straight,9.38,0,8.04,0,0,0,0,0.702,0,0,29.52,4,200,113.8706,57.8136,39.5468,30.762,25.8124,22.8324,21.0424,20.0785,10.2266,10.3843,10.8829,11.8086,13.3498,15.9097,20.4532,29.9005,58.8925,200
0.724,0,2922.68,3.73,115.19,1,0,1,0,0,535.0975,10.2254,5.6248,-0.2744,-0.043,-0.1259,4.8703,-0.8509,0.7053,0.9704,7.3951,7.7333,-1.193,-4.775,19.775,10.225,0.1259,straight,9.38,0,8.03,0,0,0,0,0.722,0,0,29.52,4,200,113.8798,57.8183,39.5501,30.7645,25.8145,22.8342,21.0441,20.0801,10.225,10.3827,10.8812,11.8068,13.3477,15.9072,20.4499,29.8958,58.8832,200
0.744,0,2922.7,4.15,115.19,1,0,1,0,0,535.1192,10.2234,5.6257,-0.274,-0.0432,-0.1258,3.4294,-0.0116,0.6306,7.7033,2.1824,2.0613,7.7442,-4.777,19.777,10.223,0.1257,straight,9.38,0,8,0,0,0,0,0.742,0,0,29.52,4,200,113.8912,57.8241,39.554,30.7676,25.817,22.8365,21.0462,20.0821,10.223,10.3807,10.8791,11.8045,13.3452,15.9042,20.446,29.89,58.8719,200
0.764,0,2922.72,4.63,115.19,1,0,1,0,0,535.1434,10.2212,5.6268,-0.2735,-0.0432,-0.1259,4.4159,-1.3849,0.2048,1.5477,8.0896,7.2816,4.4486,-4.7792,19.7792,10.2208,0.1259,straight,9.38,0,7.98,0,0,0,0,0.762,0,0,29.52,4,200,113.904,57.8306,39.5584,30.771,25.8199,22.8391,21.0486,20.0843,10.2208,10.3784,10.8767,11.8019,13.3423,15.9007,20.4416,29.8836,58.8591,200
0.784,0,2922.74,5,133.62,1,0,1,0,0,535.1702,10.2186,5.6279,-0.2731,-0.0431,-0.1257,10.2833,0.6326,-0.0772,8.9014,5.4818,10.7018,5.4569,-4.7818,19.7818,10.2182,0.1257,straight,9.38,0,7.95,0,0,0,0,0.782,0,0,29.52,4,200,113.9189,57.8382,39.5636,30.7751,25.8233,22.8421,21.0514,20.087,10.2182,10.3758,10.874,11.7989,13.3389,15.8967,20.4364,29.876,58.8441,200
0.804,0,2922.77,5.53,131.03,1,0,1,0,0,535.1997,10.2157,5.6291,-0.2727,-0.043,-0.1258,11.2154,-0.4026,0.2749,4.5009,8.5493,5.9985,10.1945,-4.7847,19.7847,10.2153,0.1258,straight,9.38,0,7.92,0,0,0,0,0.802,0,0,29.52,4,200,113.9357,57.8467,39.5695,30.7796,25.8271,22.8454,21.0545,20.0899,10.2153,10.3729,10.8709,11.7956,13.3351,15.8921,20.4305,29.8674,58.8274,200
0.824,0,2922.8,6.08,115.19,1,0,1,0,0,535.2322,10.2124,5.6303,-0.2725,-0.043,-0.1258,7.8946,0.3159,-0.2622,9.6057,3.6168,9.4822,2.8213,-4.788,19.788,10.212,0.1258,straight,9.38,0,7.89,0,0,0,0,0.822,0,0,29.52,4,200,113.9545,57.8562,39.576,30.7847,25.8314,22.8492,21.0579,20.0933,10.212,10.3695,10.8674,11.7918,13.3308,15.8871,20.424,29.8579,58.8086,200
0.844,0,2922.83,6.53,128.16,1,0,1,0,0,535.267,10.2089,5.6315,-0.2723,-0.0429,-0.1256,5.7373,0.544,0.7601,4.3931,9.308,5.0174,11.1373,-4.7915,19.7915,10.2085,0.1256,straight,9.38,0,7.86,0,0,0,0,0.842,0,0,29.52,4,200,113.9748,57.8665,39.583,30.7901,25.836,22.8533,21.0617,20.0968,10.2085,10.366,10.8636,11.7877,13.3262,15.8816,20.417,29.8476,58.7883,200
0.864,0,2922.87,7.06,139.2,1,0,1,0,0,535.3046,10.2051,5.6327,-0.2722,-0.0428,-0.1255,11.3688,1.2307,0.1959,11.0761,4.4394,11.1591,4.0569,-4.7953,19.7953,10.2047,0.1254,straight,9.38,0,7.82,0,0,0,0,0.862,0,0,29.52,4,200,113.9967,57.8777,39.5907,30.7961,25.841,22.8577,21.0657,20.1007,10.2047,10.3621,10.8596,11.7833,13.3213,15.8757,20.4093,29.8365,58.7664,200
0.884,0,2922.9,7.52,150.57,1,0,1,0,0,535.3452,10.201,5.634,-0.2721,-0.0427,-0.1253,8.5684,-0.3381,0.1584,5.6039,10.3257,5.5521,13.5892,-4.7994,19.7994,10.2006,0.1253,straight,9.38,0,7.78,0,0,0,0,0.882,0,0,29.52,4,200,114.0203,57.8896,39.5989,30.8024,25.8463,22.8624,21.0701,20.1049,10.2006,10.3579,10.8552,11.7786,13.3159,15.8693,20.4011,29.8245,58.7427,200
0.904,0,2922.94,8.12,136.37,1,0,1,0,0,535.3887,10.1966,5.6353,-0.272,-0.0428,-0.1253,7.0957,-0.6585,-0.7345,10.4776,5.1941,11.0989,4.3695,-4.8038,19.8038,10.1962,0.1253,straight,9.38,0,7.73,0,0,0,0,0.902,0,0,29.52,4,200,114.0455,57.9024,39.6076,30.8092,25.852,22.8675,21.0748,20.1093,10.1962,10.3535,10.8506,11.7736,13.3102,15.8625,20.3924,29.8117,58.7175,200
0.924,0,2922.99,8.64,148.48,1,0.025,1,0,0,535.4349,10.192,5.6366,-0.272,-0.0428,-0.1252,7.8078,0.2851,0.0152,6.0988,10.9776,5.0394,12.1431,-4.8084,19.8084,10.1916,0.1252,straight,9.38,0,7.69,0,0,0,0,0.922,0,0,29.52,4,200,114.072,57.9159,39.6168,30.8164,25.858,22.8728,21.0797,20.114,10.1916,10.3488,10.8457,11.7682,13.3042,15.8553,20.3832,29.7983,58.6911,200
0.944,0,2923.03,9.15,166.07,1,0.0499,1,0,0,535.4842,10.1873,5.6379,-0.2719,-0.0428,-0.1249,9.9029,1.1308,0.1192,11.5868,6.8698,14.139,5.5478,-4.8131,19.8131,10.1869,0.1249,straight,9.38,0,7.64,0,0,0,0,0.942,0,0,29.52,4,200,114.0991,57.9297,39.6262,30.8237,25.8642,22.8782,21.0847,20.1188,10.1869,10.344,10.8407,11.7628,13.298,15.848,20.3738,29.7845,58.664,200
0.964,0,2923.08,9.66,171.73,1,0.0749,1,0,0,535.5366,10.1825,5.6393,-0.2717,-0.0429,-0.1243,4.1189,0.2765,1.0467,7.2852,11.9427,7.8257,14.435,-4.8179,19.8179,10.1821,0.1243,straight,9.38,0,7.59,0,0,0,0,0.962,0,0,29.52,4,200,114.1268,57.9437,39.6358,30.8312,25.8704,22.8838,21.0898,20.1236,10.1821,10.3392,10.8356,11.7573,13.2918,15.8405,20.3642,29.7704,58.6363,200
0.984,0,2923.14,10.27,177.73,1,0.0998,1,0,0,535.5919,10.1777,5.6407,-0.2716,-0.0429,-0.1236,6.3254,0.5827,0.8783,12.6781,9.406,13.9784,6.4633,-4.8228,19.8228,10.1772,0.1235,straight,9.38,0,7.53,0,0,0,0,0.982,0,0,29.52,4,200,114.1548,57.9579,39.6456,30.8388,25.8768,22.8894,21.095,20.1286,10.1772,10.3342,10.8304,11.7516,13.2854,15.8329,20.3544,29.7562,58.6083,200
1.006,0,2923.19,10.92,182.49,1,0.1248,0.9777,0,0,535.6567,10.1723,5.6423,-0.2715,-0.0429,-0.1223,7.8041,0.8567,-0.3292,8.423,12.9582,11.3876,10.2194,-4.8281,19.8281,10.1719,0.1223,straight,9.38,0,7.47,0,0,0,0,1.004,0,0,29.52,4,200,114.1854,57.9734,39.6562,30.847,25.8837,22.8955,21.1006,20.134,10.1719,10.3288,10.8247,11.7455,13.2785,15.8247,20.3438,29.7407,58.5777,200
1.026,0,2923.26,11.02,164.4,1,0.1522,0.2,0,0,535.7178,10.1677,5.6437,-0.2713,-0.0425,-0.1208,-0.986,1.6979,-1.0065,11.9938,8.2172,14.6713,7.7153,-4.8327,19.8327,10.1673,0.1208,straight,9.38,0,7.4,0,0,0,0,1.024,0,0,29.52,4,200,114.2119,57.9869,39.6654,30.8542,25.8897,22.9008,21.1055,20.1386,10.1673,10.3242,10.8198,11.7402,13.2725,15.8175,20.3346,29.7272,58.5512,200
1.046,0,2923.32,11.23,175.68,1,0.1772,0.4,0,0,535.7794,10.1636,5.645,-0.2712,-0.0416,-0.119,4.578,1.5238,-0.1966,10.9299,10.5269,8.4971,13.2985,-4.8369,19.8369,10.1631,0.119,straight,9.38,0,7.34,0,0,0,0,1.044,0,0,29.52,4,200,114.2359,57.9991,39.6737,30.8607,25.8952,22.9056,21.1099,20.1429,10.1631,10.3199,10.8154,11.7354,13.267,15.8111,20.3263,29.7151,58.5272,200
1.066,0,2923.38,11.61,181.58,1,0,0.6,0,0,535.8425,10.1591,5.6463,-0.2713,-0.0406,-0.1177,9.1048,-2.0532,-2.0955,10.1904,10.7779,14.0332,7.8586,-4.8414,19.8414,10.1586,0.1177,straight,9.38,0,7.28,0,0,0,0,1.064,0,0,29.52,4,200,114.2618,58.0122,39.6827,30.8677,25.9011,22.9108,21.1147,20.1474,10.1586,10.3154,10.8106,11.7302,13.2612,15.804,20.3173,29.7019,58.5013,200
1.086,0,2923.44,12.06,190.44,1,0,0.8,0,0,535.9081,10.1534,5.6475,-0.2718,-0.0398,-0.1173,7.1267,-1.1787,-1.7301,11.5132,10.4313,8.1346,15.4264,-4.8471,19.8471,10.1529,0.1173,straight,9.38,0,7.21,0,0,0,0,1.084,0,0,29.52,4,200,114.2946,58.0289,39.6941,30.8765,25.9085,22.9174,21.1208,20.1532,10.1529,10.3096,10.8045,11.7236,13.2537,15.7952,20.3059,29.6852,58.4685,200
1.106,0,2923.51,12.65,213.91,1,0,1,0,0,535.9764,10.1469,5.6489,-0.2724,-0.0393,-0.1172,11.5764,-0.311,0.7306,12.4623,12.3725,15.3269,9.6713,-4.8536,19.8536,10.1464,0.1172,straight,9.38,0,7.15,0,0,0,0,1.104,0,0,29.52,4,200,114.332,58.0479,39.7071,30.8866,25.917,22.9249,21.1277,20.1598,10.1464,10.303,10.7976,11.7161,13.2452,15.7851,20.2929,29.6662,58.431,200
1.126,0,2923.57,13.28,220.33,1,0,1,0,0,536.0482,10.1399,5.6504,-0.2727,-0.0392,-0.1172,8.7826,-0.2348,2.5617,12.8125,13.1059,10.2724,16.2822,-4.8606,19.8606,10.1394,0.1172,straight,9.38,0,7.07,0,0,0,0,1.124,0,0,29.52,4,200,114.3725,58.0684,39.7211,30.8976,25.9261,22.933,21.1352,20.167,10.1394,10.2958,10.7902,11.708,13.2361,15.7741,20.2789,29.6457,58.3906,200
1.146,0,2923.65,13.93,233.04,1,0,1,0,0,536.1235,10.1324,5.6521,-0.273,-0.0394,-0.1173,11.3616,-0.1286,1.3178,13.908,13.3545,16.9014,10.6331,-4.868,19.868,10.132,0.1173,straight,9.38,0,7,0,0,0,0,1.144,0,0,29.52,4,200,114.4152,58.0901,39.736,30.9091,25.9358,22.9416,21.1431,20.1745,10.132,10.2883,10.7823,11.6994,13.2264,15.7626,20.264,29.624,58.3479,200
1.166,0,2923.72,14.58,242.6,1,0,1,0,0,536.2025,10.1246,5.654,-0.2731,-0.0398,-0.1173,9.5407,0.1005,0.8296,14.2818,13.9521,11.308,18.3103,-4.8758,19.8758,10.1242,0.1173,straight,9.38,0,6.92,0,0,0,0,1.164,0,0,29.52,4,200,114.4603,58.113,39.7516,30.9213,25.946,22.9506,21.1514,20.1824,10.1242,10.2804,10.7739,11.6904,13.2162,15.7504,20.2484,29.6011,58.3028,200
1.186,0,2923.8,15.26,252.49,1,0,1,0,0,536.2851,10.1164,5.656,-0.2731,-0.0402,-0.1173,8.9449,-0.0243,0.5305,15.3269,14.9374,18.5608,11.9277,-4.884,19.884,10.116,0.1173,straight,9.38,0,6.84,0,0,0,0,1.184,0,0,29.52,4,200,114.5076,58.137,39.7681,30.9341,25.9568,22.9601,21.1602,20.1908,10.116,10.272,10.7652,11.6809,13.2054,15.7376,20.2319,29.5771,58.2555,200
1.206,0,2923.88,15.95,264.1,1,0,1,0,0,536.3715,10.1077,5.6582,-0.273,-0.0407,-0.1173,9.959,-0.1233,1.1139,15.5598,15.388,13.0444,19.29,-4.8927,19.8927,10.1073,0.1173,straight,9.38,0,6.75,0,0,0,0,1.204,0,0,29.52,4,200,114.5574,58.1623,39.7854,30.9475,25.9681,22.9701,21.1694,20.1996,10.1073,10.2632,10.756,11.6709,13.1942,15.7242,20.2146,29.5518,58.2057,200
1.226,0,2923.97,16.67,271.97,1,0,1,0,0,536.4619,10.0986,5.6606,-0.2729,-0.0413,-0.1173,11.6425,-0.1561,0.8347,15.904,16.0029,20.0037,12.9577,-4.9018,19.9018,10.0982,0.1173,straight,9.38,0,6.66,0,0,0,0,1.224,0,0,29.52,4,200,114.6099,58.189,39.8036,30.9617,25.98,22.9806,21.1791,20.2088,10.0982,10.254,10.7463,11.6604,13.1823,15.71,20.1964,29.5251,58.1532,200
1.246,0,2924.06,17.37,282.8,1,0,1,0,0,536.5561,10.089,5.6631,-0.2729,-0.0417,-0.1173,9.5387,0.1014,0.2278,17.1446,16.6688,13.717,20.7302,-4.9114,19.9114,10.0886,0.1173,straight,9.38,0,6.57,0,0,0,0,1.244,0,0,29.52,4,200,114.6653,58.2171,39.8229,30.9767,25.9925,22.9917,21.1893,20.2186,10.0886,10.2442,10.736,11.6493,13.1697,15.695,20.1771,29.497,58.0977,200
1.266,0,2924.15,18.1,296.07,1,0,1,0,0,536.6544,10.0789,5.6658,-0.2728,-0.0421,-0.1174,11.5153,0.2825,0.1741,17.3257,17.6725,21.3032,14.8726,-4.9215,19.9215,10.0785,0.1174,straight,9.38,0,6.47,0,0,0,0,1.264,0,0,29.52,4,200,114.7235,58.2467,39.8431,30.9924,26.0057,23.0034,21.2001,20.2289,10.0785,10.2339,10.7253,11.6376,13.1565,15.6793,20.1569,29.4675,58.0396,200
1.286,0,2924.25,18.85,302.19,1,0,1,0,0,536.7567,10.0683,5.6687,-0.2728,-0.0425,-0.1174,11.4912,0.0403,0.9182,18.2197,17.2711,15.3462,21.7758,-4.9321,19.9321,10.0679,0.1174,straight,9.38,0,6.37,0,0,0,0,1.284,0,0,29.52,4,200,114.7846,58.2777,39.8643,31.0089,26.0196,23.0157,21.2113,20.2396,10.0679,10.2232,10.714,11.6254,13.1427,15.6628,20.1357,29.4364,57.9785,200
1.306,0,2924.36,19.6,310.39,1,0,1,0,0,536.8631,10.0572,5.6717,-0.2727,-0.0428,-0.1176,9.4912,0.0368,-0.5374,18.9824,18.3129,22.3147,15.7302,-4.9433,19.9433,10.0567,0.1176,straight,9.38,0,6.26,0,0,0,0,1.304,0,0,29.52,4,200,114.8487,58.3102,39.8865,31.0262,26.0341,23.0285,21.2232,20.2509,10.0567,10.2119,10.7021,11.6125,13.1281,15.6455,20.1135,29.4039,57.9144,200
1.326,0,2924.46,20.36,323.44,1,0,1,0,0,536.9738,10.0455,5.6749,-0.2727,-0.043,-0.1176,9.6607,0.1776,0.1762,19.4237,19.3296,17.1281,22.9109,-4.9549,19.9549,10.0451,0.1176,straight,9.38,0,6.15,0,0,0,0,1.324,0,0,29.52,4,200,114.9155,58.3442,39.9098,31.0443,26.0492,23.0419,21.2355,20.2627,10.0451,10.2001,10.6898,11.5991,13.113,15.6274,20.0902,29.37,57.8475,200
1.346,0,2924.57,21.16,336.23,1,0,1,0,0,537.0887,10.0334,5.6782,-0.2726,-0.0433,-0.1177,11.4494,0.0369,-0.6445,20.0898,19.7824,23.71,17.5712,-4.967,19.967,10.033,0.1177,straight,9.38,0,6.03,0,0,0,0,1.344,0,0,29.52,4,200,114.9853,58.3796,39.934,31.0631,26.065,23.0559,21.2484,20.275,10.033,10.1878,10.6769,11.5851,13.0972,15.6086,20.066,29.3346,57.7778,200
1.366,0,2924.69,21.95,349.5,1,0,1,0,0,537.2081,10.0208,5.6816,-0.2726,-0.0436,-0.1177,10.4112,0.1558,-1.213,20.7976,20.7338,18.6102,24.7896,-4.9796,19.9796,10.0204,0.1177,straight,9.38,0,5.91,0,0,0,0,1.364,0,0,29.52,4,200,115.0577,58.4164,39.9591,31.0827,26.0815,23.0704,21.2618,20.2878,10.0204,10.175,10.6635,11.5706,13.0807,15.589,20.0409,29.2978,57.7053,200
1.386,0,2924.81,22.79,363.6,1,0,1,0,0,537.3319,10.0078,5.6852,-0.2725,-0.0439,-0.1177,12.831,0.0328,2.0519,21.8771,21.5431,25.4701,19.1512,-4.9926,19.9926,10.0074,0.1177,straight,9.38,0,5.79,0,0,0,0,1.384,0,0,29.52,4,200,115.133,58.4546,39.9853,31.103,26.0985,23.0855,21.2757,20.3011,10.0074,10.1617,10.6496,11.5555,13.0637,15.5687,20.0147,29.2595,57.63,200
1.406,0,2924.93,23.64,377.4,1,0,1,0,0,537.4604,9.9942,5.6888,-0.2725,-0.0442,-0.1176,11.5394,0.2042,0.1242,22.9681,22.3412,20.5223,26.1715,-5.0062,20.0062,9.9938,0.1176,straight,9.38,0,5.66,0,0,0,0,1.404,0,0,29.52,4,200,115.2113,58.4943,40.0125,31.1242,26.1163,23.1012,21.2902,20.3149,9.9938,10.1479,10.6351,11.5398,13.0459,15.5475,19.9875,29.2198,57.5518,200
1.426,0,2925.06,24.57,381.75,1,0,1,0,0,537.5939,9.9801,5.6926,-0.2724,-0.0446,-0.1175,12.464,-0.2571,1.8463,23.1384,22.8554,24.8872,21.6166,-5.0204,20.0204,9.9796,0.1174,straight,9.38,0,5.53,0,0,0,0,1.424,0,0,29.52,4,200,115.2926,58.5356,40.0407,31.1462,26.1347,23.1175,21.3052,20.3292,9.9796,10.1336,10.6201,11.5235,13.0275,15.5256,19.9593,29.1785,57.4704,200
1.446,0,2925.19,25.43,403.41,1,0,1,0,0,537.7322,9.9653,5.6965,-0.2724,-0.0449,-0.1172,11.6281,0.4209,0.8972,24.7593,24.1143,22.5835,26.8985,-5.0351,20.0351,9.9649,0.1172,straight,9.38,0,5.39,0,0,0,0,1.444,0,0,29.52,4,200,115.3774,58.5786,40.0701,31.169,26.1539,23.1345,21.3209,20.3441,9.9649,10.1187,10.6045,11.5065,13.0083,15.5027,19.9299,29.1355,57.3857,200
1.466,0,2925.33,26.38,419.5,1,0,1,0,0,537.8755,9.9501,5.7006,-0.2723,-0.0453,-0.117,14.6154,0.3039,1.1565,25.5895,24.9743,27.4994,23.5006,-5.0503,20.0503,9.9497,0.117,straight,9.38,0,5.25,0,0,0,0,1.464,0,0,29.52,4,200,115.4649,58.6231,40.1005,31.1927,26.1738,23.1521,21.3371,20.3596,9.9497,10.1032,10.5883,11.489,12.9884,15.479,19.8995,29.0911,57.2982,200
1.486,0,2925.47,27.34,431.46,1,0,1,0,0,538.0244,9.9344,5.7048,-0.2723,-0.0457,-0.1167,12.2437,0.3682,-0.3051,26.6326,25.9731,24.9919,27.7181,-5.066,20.066,9.934,0.1167,straight,9.38,0,5.1,0,0,0,0,1.484,0,0,29.52,4,200,115.5555,58.6691,40.132,31.2172,26.1943,23.1702,21.3538,20.3755,9.934,10.0872,10.5715,11.4708,12.9679,15.4546,19.868,29.0451,57.2076,200
1.506,0,2925.62,28.33,444.07,1,0,1,0,0,538.1784,9.9181,5.7092,-0.2724,-0.0461,-0.1164,13.6681,0.2843,0.1401,27.5447,27.0109,27.5823,26.1113,-5.0823,20.0823,9.9177,0.1163,straight,9.38,0,4.94,0,0,0,0,1.504,0,0,29.52,4,200,115.6493,58.7167,40.1646,31.2425,26.2156,23.189,21.3711,20.3921,9.9177,10.0707,10.5542,11.452,12.9467,15.4292,19.8354,28.9974,57.1138,200
1.526,0,2925.78,29.31,457.07,1,0,1,0,0,538.3379,9.9013,5.7138,-0.2724,-0.0464,-0.116,13.2061,0.1644,-0.0855,28.1875,27.6631,27.4736,28.3419,-5.0991,20.0991,9.9009,0.116,straight,9.38,0,4.78,0,0,0,0,1.524,0,0,29.52,4,200,115.7462,58.7659,40.1983,31.2687,26.2375,23.2085,21.389,20.4092,9.9009,10.0536,10.5363,11.4325,12.9247,15.403,19.8017,28.9482,57.0168,200
1.546,0,2925.94,30.29,470.11,1,0,1,0,0,538.5027,9.8839,5.7184,-0.2724,-0.0466,-0.1155,14.1972,0.2025,-0.2141,28.8724,28.7275,28.6913,28.5336,-5.1165,20.1165,9.8835,0.1155,straight,9.38,0,4.62,0,0,0,0,1.544,0,0,29.52,4,200,115.8462,58.8167,40.233,31.2957,26.2602,23.2285,21.4075,20.4268,9.8835,10.036,10.5178,11.4125,12.902,15.376,19.767,28.8975,56.9169,200
1.566,0,2926.1,31.26,484.58,1,0,1,0,0,538.673,9.866,5.7232,-0.2724,-0.0467,-0.1151,13.2268,0.3579,-0.2003,30.2506,29.7889,29.6104,29.3552,-5.1344,20.1344,9.8656,0.1151,straight,9.38,0,4.45,0,0,0,0,1.564,0,0,29.52,4,200,115.9493,58.869,40.2688,31.3235,26.2836,23.2492,21.4266,20.445,9.8656,10.0178,10.4988,11.3918,12.8786,15.3482,19.7312,28.8451,56.8138,200
1.586,0,2926.27,32.23,498.19,1,0,1,0,0,538.8488,9.8476,5.7281,-0.2724,-0.0468,-0.1147,13.3854,0.2932,0.0968,30.9205,30.6541,30.3838,30.4874,-5.1528,20.1528,9.8472,0.1147,straight,9.38,0,4.27,0,0,0,0,1.584,0,0,29.52,4,200,116.0553,58.9228,40.3056,31.3522,26.3076,23.2704,21.4462,20.4637,9.8472,9.9991,10.4792,11.3706,12.8546,15.3195,19.6944,28.7913,56.7078,200
1.606,0,2926.45,33.21,511.84,1,0,1,0,0,539.0298,9.8287,5.7331,-0.2724,-0.0467,-0.1142,13.4689,0.3073,-0.1515,31.9236,31.4748,31.412,31.1364,-5.1717,20.1717,9.8283,0.1142,straight,9.38,0,4.09,0,0,0,0,1.604,0,0,29.51,4,200,116.1642,58.9781,40.3434,31.3816,26.3323,23.2923,21.4663,20.4829,9.8283,9.9799,10.459,11.3487,12.8299,15.2901,19.6566,28.736,56.5989,200
1.626,0,2926.63,34.18,526.8,1,0.0248,1,0,0,539.2164,9.8095,5.7383,-0.2724,-0.0466,-0.1136,14.0452,1.0969,0.8503,32.9607,32.2522,32.382,32.1959,-5.1909,20.1909,9.8091,0.1135,straight,9.38,0,3.91,0,0,0,0,1.624,0,0,29.51,4,200,116.275,59.0344,40.3819,31.4115,26.3574,23.3145,21.4867,20.5024,9.8091,9.9604,10.4386,11.3265,12.8048,15.2602,19.6181,28.6798,56.4881,200
1.646,0,2926.81,35.15,543.06,1,0.0497,1,0,0,539.4082,9.7902,5.7436,-0.2721,-0.0463,-0.1124,15.0206,1.796,2.0401,33.9486,33.4046,33.417,33.0843,-5.2102,20.2102,9.7898,0.1124,straight,9.38,0,3.71,0,0,0,0,1.644,0,0,29.51,4,200,116.3856,59.0905,40.4203,31.4414,26.3825,23.3367,21.5072,20.5219,9.7898,9.9409,10.4181,11.3043,12.7797,15.2303,19.5797,28.6236,56.3774,200
1.666,0,2927.01,36.13,554.23,1,0.0745,1,0,0,539.6056,9.7713,5.7489,-0.2718,-0.0459,-0.1106,13.2739,2.4329,-0.8023,34.7759,34.179,33.8652,34.2395,-5.2291,20.2291,9.7709,0.1106,straight,9.38,0,3.52,0,0,0,0,1.664,0,0,29.51,4,200,116.4947,59.1459,40.4582,31.4709,26.4072,23.3586,21.5274,20.5412,9.7709,9.9216,10.398,11.2825,12.755,15.2008,19.5418,28.5682,56.2684,200
1.686,0,2927.2,37.08,570.32,1,0.0993,1,0,0,539.8084,9.7529,5.7542,-0.2714,-0.0454,-0.1081,12.8566,2.8828,-0.7388,35.3742,36.0186,34.5388,35.5223,-5.2475,20.2475,9.7525,0.1081,straight,9.38,0,3.31,0,0,0,0,1.684,0,0,29.51,4,200,116.6009,59.1998,40.4951,31.4996,26.4313,23.3798,21.547,20.5599,9.7525,9.9029,10.3783,11.2612,12.7309,15.1721,19.5049,28.5143,56.1622,200
1.706,0,2927.41,38.02,583.52,1,0.1242,0.9783,0,0,540.0165,9.7351,5.7593,-0.2709,-0.0447,-0.1049,12.5027,3.2437,-0.4307,37.069,36.7224,36.3491,35.1181,-5.2653,20.2653,9.7347,0.1049,straight,9.38,0,3.11,0,0,0,0,1.704,0,0,29.51,4,200,116.703,59.2517,40.5306,31.5272,26.4544,23.4003,21.5659,20.5779,9.7347,9.8849,10.3595,11.2407,12.7078,15.1445,19.4694,28.4624,56.06,200
1.726,0,2927.62,38.97,601.64,1,0,1,0,0,540.23,9.7176,5.7644,-0.2706,-0.0438,-0.1017,13.8382,-0.3069,0.4379,38.3116,37.5782,37.0572,36.564,-5.2828,20.2828,9.7172,0.1017,straight,9.38,0,2.89,0,0,0,0,1.724,0,0,29.51,4,200,116.8037,59.3028,40.5655,31.5544,26.4773,23.4205,21.5845,20.5956,9.7172,9.8672,10.3409,11.2205,12.685,15.1174,19.4345,28.4113,55.9594,200
1.746,0,2927.83,39.95,611.78,1,0,1,0,0,540.4488,9.6995,5.7693,-0.2708,-0.0429,-0.0994,13.6374,-0.4042,-0.0589,38.899,37.8045,37.8967,37.5482,-5.3009,20.3009,9.6991,0.0994,straight,9.38,0,2.67,0,0,0,0,1.744,0,0,29.51,4,200,116.908,59.3557,40.6017,31.5825,26.5009,23.4414,21.6037,20.614,9.6991,9.8488,10.3216,11.1996,12.6613,15.0892,19.3983,28.3584,55.8551,200
1.766,0,2928.05,40.92,621.59,1,0,1,0,0,540.6729,9.6808,5.7742,-0.2711,-0.042,-0.0978,13.207,-0.3938,-0.4609,39.0876,38.4962,38.8177,38.4912,-5.3196,20.3196,9.6804,0.0978,straight,9.38,0,2.45,0,0,0,0,1.764,0,0,29.51,4,200,117.0161,59.4106,40.6393,31.6117,26.5254,23.4631,21.6237,20.6331,9.6804,9.8297,10.3016,11.1779,12.6368,15.06,19.3607,28.3035,55.747,200
1.786,0,2928.27,41.87,633.25,1,0,1,0,0,540.9023,9.6613,5.7791,-0.2716,-0.0413,-0.0967,12.4827,-0.1177,-0.2673,40.0257,39.1385,39.7347,39.3013,-5.3391,20.3391,9.6609,0.0967,straight,9.38,0,2.22,0,0,0,0,1.784,0,0,29.51,4,200,117.128,59.4674,40.6781,31.642,26.5508,23.4855,21.6444,20.6528,9.6609,9.81,10.281,11.1555,12.6115,15.0298,19.3219,28.2467,55.6351,200
1.806,0,2928.5,42.82,648.17,1,0,1,0,0,541.137,9.6413,5.7841,-0.2722,-0.0407,-0.0959,13.5415,-0.0455,0.9385,40.6284,40.2957,40.4916,40.3934,-5.359,20.359,9.641,0.0959,straight,9.38,0,1.99,0,0,0,0,1.804,0,0,29.51,4,200,117.243,59.5259,40.7181,31.673,26.5768,23.5086,21.6656,20.6731,9.641,9.7897,10.2597,11.1324,12.5854,14.9987,19.2819,28.1883,55.52,200
1.826,0,2928.74,43.76,659.97,1,0,1,0,0,541.3768,9.6209,5.7893,-0.2727,-0.0403,-0.0953,12.8652,0.0761,0.0236,41.3935,41.3017,41.7365,40.6594,-5.3795,20.3795,9.6205,0.0953,straight,9.38,0,1.75,0,0,0,0,1.824,0,0,29.51,4,200,117.361,59.5858,40.7591,31.7049,26.6036,23.5323,21.6874,20.6939,9.6205,9.7689,10.2379,11.1088,12.5586,14.9668,19.2409,28.1284,55.4021,200
1.846,0,2928.98,44.7,672.87,1,0,1,0,0,541.6219,9.5999,5.7946,-0.273,-0.04,-0.0948,13.1283,0.1529,1.3464,42.4592,41.868,42.3475,41.8017,-5.4005,20.4005,9.5995,0.0948,straight,9.38,0,1.5,0,0,0,0,1.844,0,0,29.51,5,200,117.4816,59.647,40.8009,31.7375,26.6309,23.5564,21.7097,20.7152,9.5995,9.7476,10.2156,11.0846,12.5313,14.9342,19.1991,28.0672,55.2815,200
1.866,0,2929.22,45.63,686.3,1,0,1,0,0,541.8722,9.5786,5.8,-0.2732,-0.0398,-0.0944,12.8516,0.248,1.5667,43.4026,42.7921,43.2837,42.7184,-5.4218,20.4218,9.5782,0.0944,straight,9.38,0,1.25,0,0,0,0,1.864,0,0,29.51,5,200,117.6045,59.7094,40.8436,31.7707,26.6588,23.5811,21.7324,20.7369,9.5782,9.7259,10.1929,11.0599,12.5034,14.901,19.1564,28.0047,55.1586,200
1.886,0,2929.47,46.56,697.56,1,0,1,0,0,542.1276,9.5568,5.8056,-0.2732,-0.0397,-0.094,12.3732,0.346,-0.1887,44.0925,43.6446,43.6514,43.6834,-5.4436,20.4436,9.5564,0.094,straight,9.38,0,1,0,0,0,0,1.884,0,0,29.51,5,200,117.7297,59.773,40.8871,31.8045,26.6872,23.6062,21.7556,20.7589,9.5564,9.7039,10.1698,11.0348,12.475,14.8672,19.1129,27.9412,55.0333,200
1.906,0,2929.73,47.48,710.96,1,0,1,0,0,542.3882,9.5347,5.8114,-0.2733,-0.0396,-0.0935,12.382,0.3459,0.7249,44.9968,44.6537,44.5319,44.5123,-5.4657,20.4657,9.5343,0.0935,straight,9.38,0,0.73,0,0,0,0,1.904,0,0,29.51,5,200,117.8571,59.8376,40.9314,31.8389,26.716,23.6317,21.7791,20.7814,9.5343,9.6814,10.1462,11.0093,12.4462,14.8328,19.0686,27.8765,54.906,200
1.926,0,2929.99,48.4,724.22,1,0,1,0,0,542.6537,9.5122,5.8173,-0.2732,-0.0396,-0.0931,12.8468,0.3168,0.9454,46.0383,45.1541,45.5315,45.289,-5.4881,20.4881,9.5119,0.0931,straight,9.38,0,0.47,0,0,0,0,1.924,0,0,29.5,5,200,117.9865,59.9033,40.9763,31.8739,26.7454,23.6577,21.803,20.8042,9.5119,9.6586,10.1223,10.9833,12.4168,14.7978,19.0237,27.8108,54.7766,200
1.946,0,2930.25,49.31,737.29,1,0,1,0,0,542.9244,9.4894,5.8234,-0.2732,-0.0395,-0.0926,12.5592,0.4007,-0.1785,47.0017,46.0332,46.3925,46.0739,-5.5109,20.5109,9.4891,0.0926,straight,9.38,0,0.2,0,0,0,0,1.944,0,0,29.5,5,200,118.1178,59.97,41.0219,31.9094,26.7751,23.684,21.8273,20.8274,9.4891,9.6354,10.098,10.957,12.3871,14.7624,18.9781,27.7441,54.6453,200
1.966,0,2930.52,50.21,749.24,1,0,1,0,0,543.2002,9.4663,5.8296,-0.273,-0.0394,-0.0921,12.6374,0.3912,0.432,47.4272,47.0363,47.2564,46.9473,-5.5341,20.5341,9.4659,0.0921,straight,9.38,0,9.3,0,0,0,0,1.964,0,0,29.5,5,200,118.2509,60.0376,41.0681,31.9453,26.8053,23.7107,21.8519,20.8508,9.4659,9.612,10.0734,10.9303,12.3569,14.7264,18.9319,27.6766,54.5122,200
1.986,0,2930.8,51.11,760.7,1,0,1,0,0,543.481,9.4429,5.836,-0.273,-0.0392,-0.0916,11.7291,0.5172,-1.6134,48.2076,47.8673,47.9608,47.7922,-5.5575,20.5575,9.4425,0.0915,straight,9.38,0,9.02,0,0,0,0,1.984,0,0,29.5,5,200,118.3857,60.106,41.1149,31.9817,26.8359,23.7377,21.8768,20.8746,9.4425,9.5882,10.0485,10.9033,12.3264,14.69,18.8851,27.6081,54.3774,200
2.008,0,2931.08,52.08,772.61,1,0,1,0,0,543.7954,9.4168,5.843,-0.2729,-0.0391,-0.091,11.4328,0.5066,0.9389,48.9346,48.8651,48.7808,48.7061,-5.5835,20.5835,9.4165,0.091,straight,9.38,0,8.7,0,0,0,0,2.006,0,0,29.5,5,200,118.5358,60.1822,41.1671,32.0223,26.8699,23.7678,21.9045,20.9011,9.4165,9.5617,10.0208,10.8732,12.2923,14.6494,18.8329,27.5319,54.2272,200
2.03,0,2931.39,53.03,786.66,1,0,1,0,0,544.1157,9.3904,5.8502,-0.2729,-0.0389,-0.0904,12.2828,0.4671,-0.4311,50.2039,49.2198,49.8066,49.3609,-5.6099,20.6099,9.3901,0.0904,straight,9.38,0,8.38,0,0,0,0,2.028,0,0,29.5,5,200,118.6878,60.2594,41.2199,32.0634,26.9044,23.7983,21.9326,20.9279,9.3901,9.5349,9.9927,10.8427,12.2579,14.6084,18.7801,27.4547,54.0752,200
2.052,0,2931.71,53.96,797.51,1,0,1,0,0,544.4419,9.3637,5.8574,-0.2729,-0.0386,-0.0898,11.3497,0.4925,-0.7328,50.8873,50.1645,50.4282,50.3582,-5.6366,20.6366,9.3634,0.0898,straight,9.38,0,8.06,0,0,0,0,2.05,0,0,29.5,5,200,118.8416,60.3375,41.2733,32.1049,26.9392,23.8291,21.9611,20.955,9.3634,9.5078,9.9643,10.8119,12.223,14.5668,18.7267,27.3766,53.9214,200
2.074,0,2932.04,54.87,809.32,1,0,1,0,0,544.7736,9.3367,5.8647,-0.2729,-0.0383,-0.0892,11.0881,0.5013,0.0851,51.7035,51.0028,51.6719,50.7909,-5.6636,20.6636,9.3364,0.0892,straight,9.38,0,7.72,0,0,0,0,2.072,0,0,29.5,5,200,118.9971,60.4164,41.3273,32.1469,26.9745,23.8603,21.9898,20.9824,9.3364,9.4804,9.9356,10.7807,12.1878,14.5248,18.6727,27.2977,53.766,200
2.096,0,2932.37,55.77,820.88,1,0,1,0,0,545.1109,9.3094,5.872,-0.2729,-0.0379,-0.0886,12.1954,0.2107,2.5043,52.415,51.5648,52.1733,51.8549,-5.6909,20.6909,9.3091,0.0886,straight,9.38,0,7.39,0,0,0,0,2.094,0,0,29.5,5,200,119.1543,60.4962,41.3819,32.1894,27.0101,23.8918,22.0188,21.0101,9.3091,9.4527,9.9065,10.7492,12.1521,14.4823,18.6181,27.2179,53.6088,200
2.118,0,2932.71,56.64,830.67,1,0,1,0,0,545.4536,9.2819,5.8794,-0.2729,-0.0375,-0.0881,10.808,0.3874,1.4975,52.7506,52.7688,53.1219,52.3822,-5.7185,20.7185,9.2815,0.0881,straight,9.38,0,7.04,0,0,0,0,2.116,0,0,29.5,5,200,119.3131,60.5768,41.437,32.2323,27.0461,23.9237,22.0482,21.0381,9.2815,9.4247,9.8772,10.7174,12.1161,14.4394,18.563,27.1373,53.45,200
2.14,0,2933.05,57.5,842.04,1,0,1,0,0,545.8015,9.254,5.8869,-0.273,-0.0371,-0.0876,10.6542,0.3819,-0.9134,53.5819,53.3581,53.6791,53.3544,-5.7464,20.7464,9.2536,0.0876,straight,9.38,0,6.7,0,0,0,0,2.138,0,0,29.5,5,200,119.4735,60.6583,41.4927,32.2756,27.0824,23.9558,22.0778,21.0664,9.2536,9.3964,9.8475,10.6852,12.0798,14.3961,18.5073,27.0558,53.2896,200
2.162,0,2933.4,58.34,852.47,1,0,1,0,0,546.1545,9.2259,5.8944,-0.273,-0.0368,-0.0871,10.5659,0.3839,-0.4128,54.314,54.0469,54.3824,54.0731,-5.7745,20.7745,9.2255,0.0871,straight,9.38,0,6.34,0,0,0,0,2.16,0,0,29.5,5,200,119.6354,60.7405,41.549,32.3193,27.1192,23.9883,22.1077,21.095,9.2255,9.3678,9.8176,10.6527,12.0431,14.3524,18.451,26.9736,53.1277,200
2.184,0,2933.75,59.16,862.4,1,0,1,0,0,546.5126,9.1975,5.9019,-0.273,-0.0365,-0.0866,10.2973,0.3758,0.5079,55.0361,54.6947,55.0428,54.7896,-5.8028,20.8028,9.1972,0.0866,straight,9.38,0,5.99,0,0,0,0,2.182,0,0,29.5,5,200,119.7988,60.8235,41.6057,32.3635,27.1562,24.0211,22.1379,21.1238,9.1972,9.339,9.7874,10.62,12.006,14.3082,18.3943,26.8907,52.9643,200
2.206,0,2934.11,59.96,871.41,1,0,1,0,0,546.8757,9.1689,5.9096,-0.2731,-0.0362,-0.0861,9.8957,0.3886,0.6268,55.6565,55.3943,55.6765,55.4366,-5.8315,20.8315,9.1685,0.0861,straight,9.38,0,5.62,0,0,0,0,2.204,0,0,29.49,5,200,119.9636,60.9071,41.6629,32.408,27.1936,24.0541,22.1684,21.1528,9.1685,9.31,9.7569,10.5869,11.9687,14.2637,18.3371,26.807,52.7994,200
2.228,0,2934.47,60.72,879.47,1,0,1,0,0,547.2436,9.14,5.9173,-0.2731,-0.0359,-0.0856,9.3234,0.3627,-0.6056,56.1084,56.1066,56.2282,56.0552,-5.8603,20.8603,9.1397,0.0856,straight,9.38,0,5.25,0,0,0,0,2.226,0,0,29.49,5,200,120.1298,60.9915,41.7206,32.4529,27.2312,24.0874,22.1991,21.1821,9.1397,9.2807,9.7262,10.5536,11.931,14.2188,18.2794,26.7226,52.6333,200
2.25,0,2934.84,61.45,889.43,1,0,1,0,0,547.616,9.1109,5.925,-0.2732,-0.0355,-0.0851,9.0517,0.4305,0.0093,57.0226,56.6587,56.9529,56.7548,-5.8894,20.8894,9.1106,0.0851,straight,9.38,0,4.88,0,0,0,0,2.248,0,0,29.49,5,200,120.2972,61.0765,41.7788,32.4981,27.2692,24.121,22.23,21.2116,9.1106,9.2512,9.6953,10.52,11.8931,14.1736,18.2212,26.6376,52.4659,200
2.272,0,2935.21,62.04,872.18,1,0,1,0,0,547.9925,9.0817,5.9329,-0.2732,-0.035,-0.0847,8.2968,0.4585,-1.268,56.5991,56.7014,56.6388,56.4737,-5.9186,20.9186,9.0814,0.0846,straight,9.38,0,4.51,0,0,0,0,2.27,0,0,29.49,5,200,120.4657,61.162,41.8373,32.5436,27.3074,24.1548,22.2612,21.2414,9.0814,9.2214,9.6642,10.4862,11.8549,14.1281,18.1627,26.5521,52.2974,200
2.294,0,2935.59,62.6,824.15,2,0,1,0,0.5625,548.3724,9.0523,5.9407,-0.2732,-0.0343,-0.0842,7.0927,0.4829,-0.5962,57.6211,57.3752,57.5921,57.2952,-5.948,20.948,9.052,0.0842,straight,9.38,0,4.13,0,0,0,0,2.292,0,0,29.49,5,200,120.6349,61.248,41.8961,32.5894,27.3457,24.1887,22.2924,21.2712,9.052,9.1916,9.6329,10.4523,11.8165,14.0823,18.1039,26.4662,52.1281,200
2.316,0,2935.97,63.25,778.05,2,0,1,0,0.5225,548.7559,9.0227,5.9487,-0.2732,-0.0337,-0.0838,7.7561,0.5252,-1.8339,58.4271,58.074,58.4307,57.9977,-5.9776,20.9776,9.0224,0.0838,straight,9.38,0,3.74,0,0,0,0,2.314,0,0,29.49,5,200,120.8051,61.3344,41.9552,32.6353,27.3843,24.2228,22.3239,21.3012,9.0224,9.1616,9.6014,10.4182,11.7779,14.0364,18.0448,26.3798,51.958,200
2.338,0,2936.35,63.94,742.92,2,0,1,0,0.4825,549.1436,8.993,5.9565,-0.2732,-0.0332,-0.0835,8.4796,0.4914,-0.1311,59.2467,58.9065,59.0964,59.1311,-6.0073,21.0073,8.9927,0.0835,straight,9.38,0,3.35,0,0,0,0,2.336,0,0,29.49,5,200,120.9762,61.4212,42.0146,32.6816,27.4231,24.2571,22.3555,21.3314,8.9927,9.1314,9.5698,10.3839,11.7391,13.9902,17.9854,26.2929,51.7869,200
2.36,0,2936.74,64.65,721.58,2,0,1,0,0.4425,549.5356,8.9631,5.9645,-0.2732,-0.0328,-0.0831,8.5902,0.4617,-0.0774,59.8875,59.5978,59.8082,59.7927,-6.0372,21.0372,8.9628,0.0831,straight,9.38,0,2.96,0,0,0,0,2.358,0,0,29.49,5,200,121.1483,61.5086,42.0744,32.7281,27.4621,24.2917,22.3873,21.3617,8.9628,9.1011,9.538,10.3494,11.7001,13.9437,17.9256,26.2055,51.6148,200
