Time,Lap,DistFromStart,Speed,RPM,Gear,SteerCmd,AccelCmd,BrakeCmd,ClutchCmd,X,Y,Z,Roll,Pitch,Yaw,AccelX,AccelY,AccelZ,WheelSpinVel_FL,WheelSpinVel_FR,WheelSpinVel_RL,WheelSpinVel_RR,ToMiddle,ToLeft,ToRight,AngleToTrack,TrackSegType,SegmentLength,Radius,DistToSegEnd,NextCornerDist,NextCornerRadius,NextCornerDir,LapBestTime,CurrentLapTime,LastLapTime,DamageLevel,FuelLevel,RacePos,TrackSensor1,TrackSensor2,TrackSensor3,TrackSensor4,TrackSensor5,TrackSensor6,TrackSensor7,TrackSensor8,TrackSensor9,TrackSensor10,TrackSensor11,TrackSensor12,TrackSensor13,TrackSensor14,TrackSensor15,TrackSensor16,TrackSensor17,TrackSensor18,TrackSensor19
-0.980,0,0.00,0.06,115.19,0,0.0000,0.0000,1.0000,0.0000,600.9700,529.3521,35.0785,-0.0001,-0.0011,0.0014,22.6488,-6.3800,0.0362,0.0000,0.0000,-1.0621,-1.0621,-2.0001,8.0001,3.9999,-0.0014,straight,5.45,0.00,0.46,0.00,0.00,0,0.000,-0.982,0.000,0.00,26.73,4,200.0000,46.0708,23.3908,16.0002,12.4460,10.4434,9.2377,8.5135,8.1235,3.9999,4.0616,4.2566,4.6187,5.2215,6.2227,7.9998,11.6949,23.0344,200.0000
-0.960,0,4153.36,0.06,115.19,0,0.0000,0.0000,0.0000,0.5932,600.9700,529.3521,35.0785,-0.0001,-0.0011,0.0014,22.6488,-6.3800,0.0362,0.0000,0.0000,-1.0621,-1.0621,-2.0001,8.0001,3.9999,-0.0014,straight,5.45,0.00,0.46,0.00,0.00,0,0.000,-0.962,0.000,0.00,26.73,4,200.0000,46.0708,23.3908,16.0002,12.4460,10.4434,9.2377,8.5135,8.1235,3.9999,4.0616,4.2566,4.6187,5.2215,6.2227,7.9998,11.6949,23.0344,200.0000
-0.940,0,4153.36,0.06,115.19,0,0.0000,0.0000,0.0000,0.5932,600.9700,529.3521,35.0785,-0.0001,-0.0011,0.0014,22.6488,-6.3800,0.0362,0.0000,0.0000,-1.0621,-1.0621,-2.0001,8.0001,3.9999,-0.0014,straight,5.45,0.00,0.46,0.00,0.00,0,0.000,-0.942,0.000,0.00,26.73,4,200.0000,46.0708,23.3908,16.0002,12.4460,10.4434,9.2377,8.5135,8.1235,3.9999,4.0616,4.2566,4.6187,5.2215,6.2227,7.9998,11.6949,23.0344,200.0000
-0.920,0,4153.36,0.06,115.19,0,0.0000,0.0000,0.0000,0.5932,600.9700,529.3521,35.0785,-0.0001,-0.0011,0.0014,22.6488,-6.3800,0.0362,0.0000,0.0000,-1.0621,-1.0621,-2.0001,8.0001,3.9999,-0.0014,straight,5.45,0.00,0.46,0.00,0.00,0,0.000,-0.922,0.000,0.00,26.73,4,200.0000,46.0708,23.3908,16.0002,12.4460,10.4434,9.2377,8.5135,8.1235,3.9999,4.0616,4.2566,4.6187,5.2215,6.2227,7.9998,11.6949,23.0344,200.0000
-0.900,0,4153.36,0.06,115.19,0,0.0000,0.0000,0.0000,0.5932,600.9700,529.3521,35.0785,-0.0001,-0.0011,0.0014,22.6488,-6.3800,0.0362,0.0000,0.0000,-1.0621,-1.0621,-2.0001,8.0001,3.9999,-0.0014,straight,5.45,0.00,0.46,0.00,0.00,0,0.000,-0.902,0.000,0.00,26.73,4,200.0000,46.0708,23.3908,16.0002,12.4460,10.4434,9.2377,8.5135,8.1235,3.9999,4.0616,4.2566,4.6187,5.2215,6.2227,7.9998,11.6949,23.0344,200.0000
-0.880,0,4153.36,0.06,115.19,0,0.0000,0.0000,0.0000,0.5932,600.9700,529.3521,35.0785,-0.0001,-0.0011,0.0014,22.6488,-6.3800,0.0362,0.0000,0.0000,-1.0621,-1.0621,-2.0001,8.0001,3.9999,-0.0014,straight,5.45,0.00,0.46,0.00,0.00,0,0.000,-0.882,0.000,0.00,26.73,4,200.0000,46.0708,23.3908,16.0002,12.4460,10.4434,9.2377,8.5135,8.1235,3.9999,4.0616,4.2566,4.6187,5.2215,6.2227,7.9998,11.6949,23.0344,200.0000
-0.860,0,4153.36,0.06,115.19,0,0.0000,0.0000,0.0000,0.5932,600.9700,529.3521,35.0785,-0.0001,-0.0011,0.0014,22.6488,-6.3800,0.0362,0.0000,0.0000,-1.0621,-1.0621,-2.0001,8.0001,3.9999,-0.0014,straight,5.45,0.00,0.46,0.00,0.00,0,0.000,-0.862,0.000,0.00,26.73,4,200.0000,46.0708,23.3908,16.0002,12.4460,10.4434,9.2377,8.5135,8.1235,3.9999,4.0616,4.2566,4.6187,5.2215,6.2227,7.9998,11.6949,23.0344,200.0000
-0.840,0,4153.36,0.06,115.19,0,0.0000,0.0000,0.0000,0.5932,600.9700,529.3521,35.0785,-0.0001,-0.0011,0.0014,22.6488,-6.3800,0.0362,0.0000,0.0000,-1.0621,-1.0621,-2.0001,8.0001,3.9999,-0.0014,straight,5.45,0.00,0.46,0.00,0.00,0,0.000,-0.842,0.000,0.00,26.73,4,200.0000,46.0708,23.3908,16.0002,12.4460,10.4434,9.2377,8.5135,8.1235,3.9999,4.0616,4.2566,4.6187,5.2215,6.2227,7.9998,11.6949,23.0344,200.0000
-0.820,0,4153.36,0.06,115.19,0,0.0000,0.0000,0.0000,0.5932,600.9700,529.3521,35.0785,-0.0001,-0.0011,0.0014,22.6488,-6.3800,0.0362,0.0000,0.0000,-1.0621,-1.0621,-2.0001,8.0001,3.9999,-0.0014,straight,5.45,0.00,0.46,0.00,0.00,0,0.000,-0.822,0.000,0.00,26.73,4,200.0000,46.0708,23.3908,16.0002,12.4460,10.4434,9.2377,8.5135,8.1235,3.9999,4.0616,4.2566,4.6187,5.2215,6.2227,7.9998,11.6949,23.0344,200.0000
-0.800,0,4153.36,0.06,115.19,0,0.0000,0.0000,0.0000,0.5932,600.9700,529.3521,35.0785,-0.0001,-0.0011,0.0014,22.6488,-6.3800,0.0362,0.0000,0.0000,-1.0621,-1.0621,-2.0001,8.0001,3.9999,-0.0014,straight,5.45,0.00,0.46,0.00,0.00,0,0.000,-0.802,0.000,0.00,26.73,4,200.0000,46.0708,23.3908,16.0002,12.4460,10.4434,9.2377,8.5135,8.1235,3.9999,4.0616,4.2566,4.6187,5.2215,6.2227,7.9998,11.6949,23.0344,200.0000
-0.780,0,4153.36,0.06,115.19,0,0.0000,0.0000,0.0000,0.5932,600.9700,529.3521,35.0785,-0.0001,-0.0011,0.0014,22.6488,-6.3800,0.0362,0.0000,0.0000,-1.0621,-1.0621,-2.0001,8.0001,3.9999,-0.0014,straight,5.45,0.00,0.46,0.00,0.00,0,0.000,-0.782,0.000,0.00,26.73,4,200.0000,46.0708,23.3908,16.0002,12.4460,10.4434,9.2377,8.5135,8.1235,3.9999,4.0616,4.2566,4.6187,5.2215,6.2227,7.9998,11.6949,23.0344,200.0000
-0.760,0,4153.36,0.06,115.19,0,0.0000,0.0000,0.0000,0.5932,600.9700,529.3521,35.0785,-0.0001,-0.0011,0.0014,22.6488,-6.3800,0.0362,0.0000,0.0000,-1.0621,-1.0621,-2.0001,8.0001,3.9999,-0.0014,straight,5.45,0.00,0.46,0.00,0.00,0,0.000,-0.762,0.000,0.00,26.73,4,200.0000,46.0708,23.3908,16.0002,12.4460,10.4434,9.2377,8.5135,8.1235,3.9999,4.0616,4.2566,4.6187,5.2215,6.2227,7.9998,11.6949,23.0344,200.0000
-0.740,0,4153.36,0.06,115.19,0,0.0000,0.0000,0.0000,0.5932,600.9700,529.3521,35.0785,-0.0001,-0.0011,0.0014,22.6488,-6.3800,0.0362,0.0000,0.0000,-1.0621,-1.0621,-2.0001,8.0001,3.9999,-0.0014,straight,5.45,0.00,0.46,0.00,0.00,0,0.000,-0.742,0.000,0.00,26.73,4,200.0000,46.0708,23.3908,16.0002,12.4460,10.4434,9.2377,8.5135,8.1235,3.9999,4.0616,4.2566,4.6187,5.2215,6.2227,7.9998,11.6949,23.0344,200.0000
-0.720,0,4153.36,0.06,115.19,0,0.0000,0.0000,0.0000,0.5932,600.9700,529.3521,35.0785,-0.0001,-0.0011,0.0014,22.6488,-6.3800,0.0362,0.0000,0.0000,-1.0621,-1.0621,-2.0001,8.0001,3.9999,-0.0014,straight,5.45,0.00,0.46,0.00,0.00,0,0.000,-0.722,0.000,0.00,26.73,4,200.0000,46.0708,23.3908,16.0002,12.4460,10.4434,9.2377,8.5135,8.1235,3.9999,4.0616,4.2566,4.6187,5.2215,6.2227,7.9998,11.6949,23.0344,200.0000
-0.700,0,4153.36,0.06,115.19,0,0.0000,0.0000,0.0000,0.5932,600.9700,529.3521,35.0785,-0.0001,-0.0011,0.0014,22.6488,-6.3800,0.0362,0.0000,0.0000,-1.0621,-1.0621,-2.0001,8.0001,3.9999,-0.0014,straight,5.45,0.00,0.46,0.00,0.00,0,0.000,-0.702,0.000,0.00,26.73,4,200.0000,46.0708,23.3908,16.0002,12.4460,10.4434,9.2377,8.5135,8.1235,3.9999,4.0616,4.2566,4.6187,5.2215,6.2227,7.9998,11.6949,23.0344,200.0000
-0.680,0,4153.36,0.06,115.19,0,0.0000,0.0000,0.0000,0.5932,600.9700,529.3521,35.0785,-0.0001,-0.0011,0.0014,22.6488,-6.3800,0.0362,0.0000,0.0000,-1.0621,-1.0621,-2.0001,8.0001,3.9999,-0.0014,straight,5.45,0.00,0.46,0.00,0.00,0,0.000,-0.682,0.000,0.00,26.73,4,200.0000,46.0708,23.3908,16.0002,12.4460,10.4434,9.2377,8.5135,8.1235,3.9999,4.0616,4.2566,4.6187,5.2215,6.2227,7.9998,11.6949,23.0344,200.0000
-0.660,0,4153.36,0.06,115.19,0,0.0000,0.0000,0.0000,0.5932,600.9700,529.3521,35.0785,-0.0001,-0.0011,0.0014,22.6488,-6.3800,0.0362,0.0000,0.0000,-1.0621,-1.0621,-2.0001,8.0001,3.9999,-0.0014,straight,5.45,0.00,0.46,0.00,0.00,0,0.000,-0.662,0.000,0.00,26.73,4,200.0000,46.0708,23.3908,16.0002,12.4460,10.4434,9.2377,8.5135,8.1235,3.9999,4.0616,4.2566,4.6187,5.2215,6.2227,7.9998,11.6949,23.0344,200.0000
-0.640,0,4153.36,0.06,115.19,0,0.0000,0.0000,0.0000,0.5932,600.9700,529.3521,35.0785,-0.0001,-0.0011,0.0014,22.6488,-6.3800,0.0362,0.0000,0.0000,-1.0621,-1.0621,-2.0001,8.0001,3.9999,-0.0014,straight,5.45,0.00,0.46,0.00,0.00,0,0.000,-0.642,0.000,0.00,26.73,4,200.0000,46.0708,23.3908,16.0002,12.4460,10.4434,9.2377,8.5135,8.1235,3.9999,4.0616,4.2566,4.6187,5.2215,6.2227,7.9998,11.6949,23.0344,200.0000
-0.620,0,4153.36,0.06,115.19,0,0.0000,0.0000,0.0000,0.5932,600.9700,529.3521,35.0785,-0.0001,-0.0011,0.0014,22.6488,-6.3800,0.0362,0.0000,0.0000,-1.0621,-1.0621,-2.0001,8.0001,3.9999,-0.0014,straight,5.45,0.00,0.46,0.00,0.00,0,0.000,-0.622,0.000,0.00,26.73,4,200.0000,46.0708,23.3908,16.0002,12.4460,10.4434,9.2377,8.5135,8.1235,3.9999,4.0616,4.2566,4.6187,5.2215,6.2227,7.9998,11.6949,23.0344,200.0000
-0.600,0,4153.36,0.06,115.19,0,0.0000,0.0000,0.0000,0.5932,600.9700,529.3521,35.0785,-0.0001,-0.0011,0.0014,22.6488,-6.3800,0.0362,0.0000,0.0000,-1.0621,-1.0621,-2.0001,8.0001,3.9999,-0.0014,straight,5.45,0.00,0.46,0.00,0.00,0,0.000,-0.602,0.000,0.00,26.73,4,200.0000,46.0708,23.3908,16.0002,12.4460,10.4434,9.2377,8.5135,8.1235,3.9999,4.0616,4.2566,4.6187,5.2215,6.2227,7.9998,11.6949,23.0344,200.0000
-0.580,0,4153.36,0.06,115.19,0,0.0000,0.0000,0.0000,0.5932,600.9700,529.3521,35.0785,-0.0001,-0.0011,0.0014,22.6488,-6.3800,0.0362,0.0000,0.0000,-1.0621,-1.0621,-2.0001,8.0001,3.9999,-0.0014,straight,5.45,0.00,0.46,0.00,0.00,0,0.000,-0.582,0.000,0.00,26.73,4,200.0000,46.0708,23.3908,16.0002,12.4460,10.4434,9.2377,8.5135,8.1235,3.9999,4.0616,4.2566,4.6187,5.2215,6.2227,7.9998,11.6949,23.0344,200.0000
-0.560,0,4153.36,0.06,115.19,0,0.0000,0.0000,0.0000,0.5932,600.9700,529.3521,35.0785,-0.0001,-0.0011,0.0014,22.6488,-6.3800,0.0362,0.0000,0.0000,-1.0621,-1.0621,-2.0001,8.0001,3.9999,-0.0014,straight,5.45,0.00,0.46,0.00,0.00,0,0.000,-0.562,0.000,0.00,26.73,4,200.0000,46.0708,23.3908,16.0002,12.4460,10.4434,9.2377,8.5135,8.1235,3.9999,4.0616,4.2566,4.6187,5.2215,6.2227,7.9998,11.6949,23.0344,200.0000
-0.540,0,4153.36,0.06,115.19,0,0.0000,0.0000,0.0000,0.5932,600.9700,529.3521,35.0785,-0.0001,-0.0011,0.0014,22.6488,-6.3800,0.0362,0.0000,0.0000,-1.0621,-1.0621,-2.0001,8.0001,3.9999,-0.0014,straight,5.45,0.00,0.46,0.00,0.00,0,0.000,-0.542,0.000,0.00,26.73,4,200.0000,46.0708,23.3908,16.0002,12.4460,10.4434,9.2377,8.5135,8.1235,3.9999,4.0616,4.2566,4.6187,5.2215,6.2227,7.9998,11.6949,23.0344,200.0000
-0.520,0,4153.36,0.06,115.19,0,0.0000,0.0000,0.0000,0.5932,600.9700,529.3521,35.0785,-0.0001,-0.0011,0.0014,22.6488,-6.3800,0.0362,0.0000,0.0000,-1.0621,-1.0621,-2.0001,8.0001,3.9999,-0.0014,straight,5.45,0.00,0.46,0.00,0.00,0,0.000,-0.522,0.000,0.00,26.73,4,200.0000,46.0708,23.3908,16.0002,12.4460,10.4434,9.2377,8.5135,8.1235,3.9999,4.0616,4.2566,4.6187,5.2215,6.2227,7.9998,11.6949,23.0344,200.0000
-0.500,0,4153.36,0.06,115.19,0,0.0000,0.0000,0.0000,0.5932,600.9700,529.3521,35.0785,-0.0001,-0.0011,0.0014,22.6488,-6.3800,0.0362,0.0000,0.0000,-1.0621,-1.0621,-2.0001,8.0001,3.9999,-0.0014,straight,5.45,0.00,0.46,0.00,0.00,0,0.000,-0.502,0.000,0.00,26.73,4,200.0000,46.0708,23.3908,16.0002,12.4460,10.4434,9.2377,8.5135,8.1235,3.9999,4.0616,4.2566,4.6187,5.2215,6.2227,7.9998,11.6949,23.0344,200.0000
-0.480,0,4153.36,0.06,115.19,0,0.0000,0.0000,0.0000,0.5932,600.9700,529.3521,35.0785,-0.0001,-0.0011,0.0014,22.6488,-6.3800,0.0362,0.0000,0.0000,-1.0621,-1.0621,-2.0001,8.0001,3.9999,-0.0014,straight,5.45,0.00,0.46,0.00,0.00,0,0.000,-0.482,0.000,0.00,26.73,4,200.0000,46.0708,23.3908,16.0002,12.4460,10.4434,9.2377,8.5135,8.1235,3.9999,4.0616,4.2566,4.6187,5.2215,6.2227,7.9998,11.6949,23.0344,200.0000
-0.460,0,4153.36,0.06,115.19,0,0.0000,0.0000,0.0000,0.5932,600.9700,529.3521,35.0785,-0.0001,-0.0011,0.0014,22.6488,-6.3800,0.0362,0.0000,0.0000,-1.0621,-1.0621,-2.0001,8.0001,3.9999,-0.0014,straight,5.45,0.00,0.46,0.00,0.00,0,0.000,-0.462,0.000,0.00,26.73,4,200.0000,46.0708,23.3908,16.0002,12.4460,10.4434,9.2377,8.5135,8.1235,3.9999,4.0616,4.2566,4.6187,5.2215,6.2227,7.9998,11.6949,23.0344,200.0000
-0.440,0,4153.36,0.06,115.19,0,0.0000,0.0000,0.0000,0.5932,600.9700,529.3521,35.0785,-0.0001,-0.0011,0.0014,22.6488,-6.3800,0.0362,0.0000,0.0000,-1.0621,-1.0621,-2.0001,8.0001,3.9999,-0.0014,straight,5.45,0.00,0.46,0.00,0.00,0,0.000,-0.442,0.000,0.00,26.73,4,200.0000,46.0708,23.3908,16.0002,12.4460,10.4434,9.2377,8.5135,8.1235,3.9999,4.0616,4.2566,4.6187,5.2215,6.2227,7.9998,11.6949,23.0344,200.0000
-0.420,0,4153.36,0.06,115.19,0,0.0000,0.0000,0.0000,0.5932,600.9700,529.3521,35.0785,-0.0001,-0.0011,0.0014,22.6488,-6.3800,0.0362,0.0000,0.0000,-1.0621,-1.0621,-2.0001,8.0001,3.9999,-0.0014,straight,5.45,0.00,0.46,0.00,0.00,0,0.000,-0.422,0.000,0.00,26.73,4,200.0000,46.0708,23.3908,16.0002,12.4460,10.4434,9.2377,8.5135,8.1235,3.9999,4.0616,4.2566,4.6187,5.2215,6.2227,7.9998,11.6949,23.0344,200.0000
-0.400,0,4153.36,0.06,115.19,0,0.0000,0.0000,0.0000,0.5932,600.9700,529.3521,35.0785,-0.0001,-0.0011,0.0014,22.6488,-6.3800,0.0362,0.0000,0.0000,-1.0621,-1.0621,-2.0001,8.0001,3.9999,-0.0014,straight,5.45,0.00,0.46,0.00,0.00,0,0.000,-0.402,0.000,0.00,26.73,4,200.0000,46.0708,23.3908,16.0002,12.4460,10.4434,9.2377,8.5135,8.1235,3.9999,4.0616,4.2566,4.6187,5.2215,6.2227,7.9998,11.6949,23.0344,200.0000
-0.380,0,4153.36,0.06,115.19,0,0.0000,0.0000,0.0000,0.5932,600.9700,529.3521,35.0785,-0.0001,-0.0011,0.0014,22.6488,-6.3800,0.0362,0.0000,0.0000,-1.0621,-1.0621,-2.0001,8.0001,3.9999,-0.0014,straight,5.45,0.00,0.46,0.00,0.00,0,0.000,-0.382,0.000,0.00,26.73,4,200.0000,46.0708,23.3908,16.0002,12.4460,10.4434,9.2377,8.5135,8.1235,3.9999,4.0616,4.2566,4.6187,5.2215,6.2227,7.9998,11.6949,23.0344,200.0000
-0.360,0,4153.36,0.06,115.19,0,0.0000,0.0000,0.0000,0.5932,600.9700,529.3521,35.0785,-0.0001,-0.0011,0.0014,22.6488,-6.3800,0.0362,0.0000,0.0000,-1.0621,-1.0621,-2.0001,8.0001,3.9999,-0.0014,straight,5.45,0.00,0.46,0.00,0.00,0,0.000,-0.362,0.000,0.00,26.73,4,200.0000,46.0708,23.3908,16.0002,12.4460,10.4434,9.2377,8.5135,8.1235,3.9999,4.0616,4.2566,4.6187,5.2215,6.2227,7.9998,11.6949,23.0344,200.0000
-0.340,0,4153.36,0.06,115.19,0,0.0000,0.0000,0.0000,0.5932,600.9700,529.3521,35.0785,-0.0001,-0.0011,0.0014,22.6488,-6.3800,0.0362,0.0000,0.0000,-1.0621,-1.0621,-2.0001,8.0001,3.9999,-0.0014,straight,5.45,0.00,0.46,0.00,0.00,0,0.000,-0.342,0.000,0.00,26.73,4,200.0000,46.0708,23.3908,16.0002,12.4460,10.4434,9.2377,8.5135,8.1235,3.9999,4.0616,4.2566,4.6187,5.2215,6.2227,7.9998,11.6949,23.0344,200.0000
-0.320,0,4153.36,0.06,115.19,0,0.0000,0.0000,0.0000,0.5932,600.9700,529.3521,35.0785,-0.0001,-0.0011,0.0014,22.6488,-6.3800,0.0362,0.0000,0.0000,-1.0621,-1.0621,-2.0001,8.0001,3.9999,-0.0014,straight,5.45,0.00,0.46,0.00,0.00,0,0.000,-0.322,0.000,0.00,26.73,4,200.0000,46.0708,23.3908,16.0002,12.4460,10.4434,9.2377,8.5135,8.1235,3.9999,4.0616,4.2566,4.6187,5.2215,6.2227,7.9998,11.6949,23.0344,200.0000
-0.300,0,4153.36,0.06,115.19,0,0.0000,0.0000,0.0000,0.5932,600.9700,529.3521,35.0785,-0.0001,-0.0011,0.0014,22.6488,-6.3800,0.0362,0.0000,0.0000,-1.0621,-1.0621,-2.0001,8.0001,3.9999,-0.0014,straight,5.45,0.00,0.46,0.00,0.00,0,0.000,-0.302,0.000,0.00,26.73,4,200.0000,46.0708,23.3908,16.0002,12.4460,10.4434,9.2377,8.5135,8.1235,3.9999,4.0616,4.2566,4.6187,5.2215,6.2227,7.9998,11.6949,23.0344,200.0000
-0.280,0,4153.36,0.06,115.19,0,0.0000,0.0000,0.0000,0.5932,600.9700,529.3521,35.0785,-0.0001,-0.0011,0.0014,22.6488,-6.3800,0.0362,0.0000,0.0000,-1.0621,-1.0621,-2.0001,8.0001,3.9999,-0.0014,straight,5.45,0.00,0.46,0.00,0.00,0,0.000,-0.282,0.000,0.00,26.73,4,200.0000,46.0708,23.3908,16.0002,12.4460,10.4434,9.2377,8.5135,8.1235,3.9999,4.0616,4.2566,4.6187,5.2215,6.2227,7.9998,11.6949,23.0344,200.0000
-0.260,0,4153.36,0.06,115.19,0,0.0000,0.0000,0.0000,0.5932,600.9700,529.3521,35.0785,-0.0001,-0.0011,0.0014,22.6488,-6.3800,0.0362,0.0000,0.0000,-1.0621,-1.0621,-2.0001,8.0001,3.9999,-0.0014,straight,5.45,0.00,0.46,0.00,0.00,0,0.000,-0.262,0.000,0.00,26.73,4,200.0000,46.0708,23.3908,16.0002,12.4460,10.4434,9.2377,8.5135,8.1235,3.9999,4.0616,4.2566,4.6187,5.2215,6.2227,7.9998,11.6949,23.0344,200.0000
-0.240,0,4153.36,0.06,115.19,0,0.0000,0.0000,0.0000,0.5932,600.9700,529.3521,35.0785,-0.0001,-0.0011,0.0014,22.6488,-6.3800,0.0362,0.0000,0.0000,-1.0621,-1.0621,-2.0001,8.0001,3.9999,-0.0014,straight,5.45,0.00,0.46,0.00,0.00,0,0.000,-0.242,0.000,0.00,26.73,4,200.0000,46.0708,23.3908,16.0002,12.4460,10.4434,9.2377,8.5135,8.1235,3.9999,4.0616,4.2566,4.6187,5.2215,6.2227,7.9998,11.6949,23.0344,200.0000
-0.220,0,4153.36,0.06,115.19,0,0.0000,0.0000,0.0000,0.5932,600.9700,529.3521,35.0785,-0.0001,-0.0011,0.0014,22.6488,-6.3800,0.0362,0.0000,0.0000,-1.0621,-1.0621,-2.0001,8.0001,3.9999,-0.0014,straight,5.45,0.00,0.46,0.00,0.00,0,0.000,-0.222,0.000,0.00,26.73,4,200.0000,46.0708,23.3908,16.0002,12.4460,10.4434,9.2377,8.5135,8.1235,3.9999,4.0616,4.2566,4.6187,5.2215,6.2227,7.9998,11.6949,23.0344,200.0000
-0.200,0,4153.36,0.06,115.19,0,0.0000,0.0000,0.0000,0.5932,600.9700,529.3521,35.0785,-0.0001,-0.0011,0.0014,22.6488,-6.3800,0.0362,0.0000,0.0000,-1.0621,-1.0621,-2.0001,8.0001,3.9999,-0.0014,straight,5.45,0.00,0.46,0.00,0.00,0,0.000,-0.202,0.000,0.00,26.73,4,200.0000,46.0708,23.3908,16.0002,12.4460,10.4434,9.2377,8.5135,8.1235,3.9999,4.0616,4.2566,4.6187,5.2215,6.2227,7.9998,11.6949,23.0344,200.0000
-0.180,0,4153.36,0.06,115.19,0,0.0000,0.0000,0.0000,0.5932,600.9700,529.3521,35.0785,-0.0001,-0.0011,0.0014,22.6488,-6.3800,0.0362,0.0000,0.0000,-1.0621,-1.0621,-2.0001,8.0001,3.9999,-0.0014,straight,5.45,0.00,0.46,0.00,0.00,0,0.000,-0.182,0.000,0.00,26.73,4,200.0000,46.0708,23.3908,16.0002,12.4460,10.4434,9.2377,8.5135,8.1235,3.9999,4.0616,4.2566,4.6187,5.2215,6.2227,7.9998,11.6949,23.0344,200.0000
-0.160,0,4153.36,0.06,115.19,0,0.0000,0.0000,0.0000,0.5932,600.9700,529.3521,35.0785,-0.0001,-0.0011,0.0014,22.6488,-6.3800,0.0362,0.0000,0.0000,-1.0621,-1.0621,-2.0001,8.0001,3.9999,-0.0014,straight,5.45,0.00,0.46,0.00,0.00,0,0.000,-0.162,0.000,0.00,26.73,4,200.0000,46.0708,23.3908,16.0002,12.4460,10.4434,9.2377,8.5135,8.1235,3.9999,4.0616,4.2566,4.6187,5.2215,6.2227,7.9998,11.6949,23.0344,200.0000
-0.140,0,4153.36,0.06,115.19,0,0.0000,0.0000,0.0000,0.5932,600.9700,529.3521,35.0785,-0.0001,-0.0011,0.0014,22.6488,-6.3800,0.0362,0.0000,0.0000,-1.0621,-1.0621,-2.0001,8.0001,3.9999,-0.0014,straight,5.45,0.00,0.46,0.00,0.00,0,0.000,-0.142,0.000,0.00,26.73,4,200.0000,46.0708,23.3908,16.0002,12.4460,10.4434,9.2377,8.5135,8.1235,3.9999,4.0616,4.2566,4.6187,5.2215,6.2227,7.9998,11.6949,23.0344,200.0000
-0.120,0,4153.36,0.06,115.19,0,0.0000,0.0000,0.0000,0.5932,600.9700,529.3521,35.0785,-0.0001,-0.0011,0.0014,22.6488,-6.3800,0.0362,0.0000,0.0000,-1.0621,-1.0621,-2.0001,8.0001,3.9999,-0.0014,straight,5.45,0.00,0.46,0.00,0.00,0,0.000,-0.122,0.000,0.00,26.73,4,200.0000,46.0708,23.3908,16.0002,12.4460,10.4434,9.2377,8.5135,8.1235,3.9999,4.0616,4.2566,4.6187,5.2215,6.2227,7.9998,11.6949,23.0344,200.0000
-0.100,0,4153.36,0.06,115.19,0,0.0000,0.0000,0.0000,0.5932,600.9700,529.3521,35.0785,-0.0001,-0.0011,0.0014,22.6488,-6.3800,0.0362,0.0000,0.0000,-1.0621,-1.0621,-2.0001,8.0001,3.9999,-0.0014,straight,5.45,0.00,0.46,0.00,0.00,0,0.000,-0.102,0.000,0.00,26.73,4,200.0000,46.0708,23.3908,16.0002,12.4460,10.4434,9.2377,8.5135,8.1235,3.9999,4.0616,4.2566,4.6187,5.2215,6.2227,7.9998,11.6949,23.0344,200.0000
-0.080,0,4153.36,0.06,115.19,0,0.0000,0.0000,0.0000,0.5932,600.9700,529.3521,35.0785,-0.0001,-0.0011,0.0014,22.6488,-6.3800,0.0362,0.0000,0.0000,-1.0621,-1.0621,-2.0001,8.0001,3.9999,-0.0014,straight,5.45,0.00,0.46,0.00,0.00,0,0.000,-0.082,0.000,0.00,26.73,4,200.0000,46.0708,23.3908,16.0002,12.4460,10.4434,9.2377,8.5135,8.1235,3.9999,4.0616,4.2566,4.6187,5.2215,6.2227,7.9998,11.6949,23.0344,200.0000
-0.060,0,4153.36,0.06,115.19,0,0.0000,0.0000,0.0000,0.5932,600.9700,529.3521,35.0785,-0.0001,-0.0011,0.0014,22.6488,-6.3800,0.0362,0.0000,0.0000,-1.0621,-1.0621,-2.0001,8.0001,3.9999,-0.0014,straight,5.45,0.00,0.46,0.00,0.00,0,0.000,-0.062,0.000,0.00,26.73,4,200.0000,46.0708,23.3908,16.0002,12.4460,10.4434,9.2377,8.5135,8.1235,3.9999,4.0616,4.2566,4.6187,5.2215,6.2227,7.9998,11.6949,23.0344,200.0000
-0.040,0,4153.36,0.06,115.19,0,0.0000,0.0000,0.0000,0.5932,600.9700,529.3521,35.0785,-0.0001,-0.0011,0.0014,22.6488,-6.3800,0.0362,0.0000,0.0000,-1.0621,-1.0621,-2.0001,8.0001,3.9999,-0.0014,straight,5.45,0.00,0.46,0.00,0.00,0,0.000,-0.042,0.000,0.00,26.73,4,200.0000,46.0708,23.3908,16.0002,12.4460,10.4434,9.2377,8.5135,8.1235,3.9999,4.0616,4.2566,4.6187,5.2215,6.2227,7.9998,11.6949,23.0344,200.0000
-0.020,0,4153.36,0.06,115.19,0,0.0000,0.0000,0.0000,0.5932,600.9700,529.3521,35.0785,-0.0001,-0.0011,0.0014,22.6488,-6.3800,0.0362,0.0000,0.0000,-1.0621,-1.0621,-2.0001,8.0001,3.9999,-0.0014,straight,5.45,0.00,0.46,0.00,0.00,0,0.000,-0.022,0.000,0.00,26.73,4,200.0000,46.0708,23.3908,16.0002,12.4460,10.4434,9.2377,8.5135,8.1235,3.9999,4.0616,4.2566,4.6187,5.2215,6.2227,7.9998,11.6949,23.0344,200.0000
0.020,0,4153.36,-0.10,115.19,0,0.0000,0.0000,0.0000,0.5932,600.9700,529.3521,35.0785,-0.0000,-0.0011,0.0015,-25.4211,-0.5357,-0.0119,1.6445,1.6562,1.5223,1.5614,-2.0001,8.0001,3.9999,-0.0015,straight,5.45,0.00,0.46,0.00,0.00,0,0.000,0.018,0.000,0.00,26.73,4,200.0000,46.0708,23.3908,16.0002,12.4460,10.4434,9.2377,8.5135,8.1235,3.9999,4.0616,4.2566,4.6187,5.2215,6.2227,7.9998,11.6949,23.0344,200.0000
0.040,0,4153.36,0.09,115.19,1,0.0000,0.0000,0.0000,0.5932,600.9700,529.3521,35.0785,-0.0001,-0.0011,0.0015,25.3718,0.0074,0.0077,-0.2239,-0.2775,0.0196,0.0158,-2.0001,8.0001,3.9999,-0.0015,straight,5.45,0.00,0.46,0.00,0.00,0,0.000,0.038,0.000,0.00,26.73,4,200.0000,46.0708,23.3908,16.0002,12.4460,10.4434,9.2377,8.5135,8.1235,3.9999,4.0616,4.2566,4.6187,5.2215,6.2227,7.9998,11.6949,23.0344,200.0000
0.060,0,4153.36,-0.08,115.19,1,0.0000,0.0000,0.0000,0.5532,600.9700,529.3521,35.0785,-0.0001,-0.0011,0.0015,-25.4392,-0.0067,0.0068,1.2673,1.2564,1.5802,1.5814,-2.0001,8.0001,3.9999,-0.0015,straight,5.45,0.00,0.46,0.00,0.00,0,0.000,0.058,0.000,0.00,26.73,4,200.0000,46.0708,23.3908,16.0002,12.4460,10.4434,9.2377,8.5135,8.1235,3.9999,4.0616,4.2566,4.6187,5.2215,6.2227,7.9998,11.6949,23.0344,200.0000
0.080,0,4153.36,0.12,115.19,1,0.0000,0.0000,0.0000,0.5132,600.9700,529.3521,35.0785,-0.0001,-0.0012,0.0015,25.4522,0.0047,0.0286,-0.7359,-0.7587,-0.3948,-0.3589,-2.0001,8.0001,3.9999,-0.0015,straight,5.45,0.00,0.46,0.00,0.00,0,0.000,0.078,0.000,0.00,26.73,4,200.0000,46.0708,23.3908,16.0002,12.4460,10.4434,9.2377,8.5135,8.1235,3.9999,4.0616,4.2566,4.6187,5.2215,6.2227,7.9998,11.6949,23.0344,200.0000
0.100,0,4153.36,-0.07,115.19,1,0.0000,0.0000,0.0000,0.4732,600.9700,529.3521,35.0785,-0.0000,-0.0012,0.0015,-25.4453,0.0050,0.0045,0.7473,0.7614,1.5327,1.5631,-2.0001,8.0001,3.9999,-0.0015,straight,5.45,0.00,0.46,0.00,0.00,0,0.000,0.098,0.000,0.00,26.73,4,200.0000,46.0708,23.3908,16.0002,12.4460,10.4434,9.2377,8.5135,8.1235,3.9999,4.0616,4.2566,4.6187,5.2215,6.2227,7.9998,11.6949,23.0344,200.0000
0.120,0,4153.36,0.13,115.19,1,0.0000,0.0000,0.0000,0.4332,600.9700,529.3521,35.0785,-0.0000,-0.0012,0.0015,25.3843,-0.0013,-0.0418,-1.2510,-1.2675,-0.2021,-0.1764,-2.0001,8.0001,3.9999,-0.0015,straight,5.45,0.00,0.46,0.00,0.00,0,0.000,0.118,0.000,0.00,26.73,4,200.0000,46.0708,23.3908,16.0002,12.4460,10.4434,9.2377,8.5135,8.1235,3.9999,4.0616,4.2566,4.6187,5.2215,6.2227,7.9998,11.6949,23.0344,200.0000
0.140,0,4153.36,-0.05,115.19,1,0.0000,0.0000,0.0000,0.3932,600.9700,529.3521,35.0785,-0.0000,-0.0012,0.0015,-24.5241,-0.0087,0.0134,0.2449,0.2277,1.3247,1.4412,-2.0001,8.0001,3.9999,-0.0015,straight,5.45,0.00,0.46,0.00,0.00,0,0.000,0.138,0.000,0.00,26.73,4,200.0000,46.0708,23.3908,16.0002,12.4460,10.4434,9.2377,8.5135,8.1235,3.9999,4.0616,4.2566,4.6187,5.2215,6.2227,7.9998,11.6949,23.0344,200.0000
0.160,0,4153.36,0.13,115.19,1,0.0000,0.0000,0.0000,0.3532,600.9703,529.3521,35.0785,-0.0000,-0.0012,0.0015,25.4031,0.0171,-0.0204,-1.7688,-1.7922,-0.0594,-0.0276,-2.0001,8.0001,3.9999,-0.0015,straight,5.45,0.00,0.46,0.00,0.00,0,0.000,0.158,0.000,0.00,26.73,4,200.0000,46.0708,23.3908,16.0002,12.4460,10.4434,9.2377,8.5135,8.1235,3.9999,4.0616,4.2566,4.6187,5.2215,6.2227,7.9998,11.6949,23.0344,200.0000
0.180,0,4153.36,-0.05,115.19,1,0.0000,0.0000,0.0000,0.3132,600.9705,529.3521,35.0785,-0.0000,-0.0012,0.0015,12.2783,-0.1011,-0.0204,3.0260,3.0427,0.4665,0.4173,-2.0001,8.0001,3.9999,-0.0015,straight,5.45,0.00,0.46,0.00,0.00,0,0.000,0.178,0.000,0.00,26.73,4,200.0000,46.0708,23.3908,16.0002,12.4460,10.4434,9.2377,8.5135,8.1235,3.9999,4.0616,4.2566,4.6187,5.2215,6.2227,7.9998,11.6949,23.0344,200.0000
0.200,0,4153.36,-0.06,115.19,1,0.0000,0.0000,0.0000,0.2732,600.9708,529.3521,35.0785,-0.0000,-0.0012,0.0015,-25.4398,-0.0231,-0.0093,-0.9193,-0.9331,2.6158,2.6095,-2.0001,8.0001,3.9999,-0.0015,straight,5.45,0.00,0.46,0.00,0.00,0,0.000,0.198,0.000,0.00,26.73,4,200.0000,46.0708,23.3908,16.0002,12.4460,10.4434,9.2377,8.5135,8.1235,3.9999,4.0616,4.2566,4.6187,5.2215,6.2227,7.9998,11.6949,23.0344,200.0000
0.220,0,4153.36,0.20,115.19,1,0.0000,0.0000,0.0000,0.2332,600.9709,529.3521,35.0785,-0.0000,-0.0012,0.0015,11.6808,-0.0004,0.0010,-2.7556,-2.8366,-2.3734,-2.3682,-2.0001,8.0001,3.9999,-0.0015,straight,5.45,0.00,0.46,0.00,0.00,0,0.000,0.218,0.000,0.00,26.73,4,200.0000,46.0708,23.3908,16.0002,12.4460,10.4434,9.2377,8.5135,8.1235,3.9999,4.0616,4.2566,4.6187,5.2215,6.2227,7.9998,11.6949,23.0344,200.0000
0.240,0,4153.36,-0.08,115.19,1,0.0000,0.0000,0.0000,0.1932,600.9708,529.3521,35.0785,-0.0000,-0.0012,0.0016,12.2276,0.0165,-0.0213,3.0316,3.0617,1.0005,1.0014,-2.0001,8.0001,3.9999,-0.0016,straight,5.45,0.00,0.46,0.00,0.00,0,0.000,0.238,0.000,0.00,26.73,4,200.0000,46.0708,23.3908,16.0002,12.4460,10.4434,9.2377,8.5135,8.1235,3.9999,4.0616,4.2566,4.6187,5.2215,6.2227,7.9998,11.6949,23.0344,200.0000
0.262,0,4153.36,-0.01,115.19,1,0.0000,0.0000,0.0000,0.1532,600.9711,529.3521,35.0785,-0.0000,-0.0012,0.0016,-1.1969,-0.0377,0.0014,2.1991,2.1907,-1.2647,-1.0664,-2.0001,8.0001,3.9999,-0.0016,straight,5.45,0.00,0.46,0.00,0.00,0,0.000,0.260,0.000,0.00,26.73,4,200.0000,46.0708,23.3908,16.0002,12.4460,10.4434,9.2377,8.5135,8.1235,3.9999,4.0616,4.2566,4.6187,5.2215,6.2227,7.9998,11.6949,23.0344,200.0000
0.282,0,4153.36,0.08,115.19,1,0.0000,0.0000,0.0000,0.1132,600.9714,529.3521,35.0785,-0.0000,-0.0012,0.0016,-12.9909,-0.0372,0.0072,-3.2154,-3.6281,0.6792,0.7007,-2.0001,8.0001,3.9999,-0.0016,straight,5.45,0.00,0.46,0.00,0.00,0,0.000,0.280,0.000,0.00,26.73,4,200.0000,46.0708,23.3908,16.0002,12.4460,10.4434,9.2377,8.5135,8.1235,3.9999,4.0616,4.2566,4.6187,5.2215,6.2227,7.9998,11.6949,23.0344,200.0000
0.302,0,4153.36,0.08,115.19,1,0.0000,0.0000,0.0000,0.0732,600.9716,529.3521,35.0785,-0.0000,-0.0012,0.0016,25.4231,0.0016,0.0016,0.1739,0.1674,-0.9102,-0.8795,-2.0001,8.0001,3.9999,-0.0016,straight,5.45,0.00,0.46,0.00,0.00,0,0.000,0.300,0.000,0.00,26.73,4,200.0000,46.0708,23.3908,16.0002,12.4460,10.4434,9.2377,8.5135,8.1235,3.9999,4.0616,4.2566,4.6187,5.2215,6.2227,7.9998,11.6949,23.0344,200.0000
0.322,0,4153.36,-0.11,115.19,1,0.0000,0.0000,0.0000,0.0332,600.9720,529.3521,35.0785,-0.0000,-0.0012,0.0016,-25.4401,0.0014,0.0016,1.9558,1.8909,0.8542,0.8823,-2.0001,8.0001,3.9999,-0.0016,straight,5.45,0.00,0.46,0.00,0.00,0,0.000,0.320,0.000,0.00,26.73,4,200.0000,46.0708,23.3908,16.0002,12.4460,10.4434,9.2377,8.5135,8.1235,3.9999,4.0616,4.2566,4.6187,5.2215,6.2227,7.9998,11.6949,23.0344,200.0000
0.342,0,4153.36,0.07,115.19,1,0.0000,0.0000,0.0000,0.0000,600.9720,529.3521,35.0785,-0.0000,-0.0011,0.0016,25.4435,0.0027,0.0239,-0.4431,-0.4412,-0.4703,-0.4513,-2.0001,8.0001,3.9999,-0.0016,straight,5.45,0.00,0.46,0.00,0.00,0,0.000,0.340,0.000,0.00,26.73,4,200.0000,46.0708,23.3908,16.0002,12.4460,10.4434,9.2377,8.5135,8.1235,3.9999,4.0616,4.2566,4.6187,5.2215,6.2227,7.9998,11.6949,23.0344,200.0000
0.362,0,4153.36,-0.11,115.19,1,0.0000,0.0000,0.0000,0.0000,600.9720,529.3521,35.0785,-0.0000,-0.0011,0.0016,-25.4400,0.0037,0.0012,0.9865,0.9972,1.5206,1.5308,-2.0001,8.0001,3.9999,-0.0016,straight,5.45,0.00,0.46,0.00,0.00,0,0.000,0.360,0.000,0.00,26.73,4,200.0000,46.0708,23.3908,16.0002,12.4460,10.4434,9.2377,8.5135,8.1235,3.9999,4.0616,4.2566,4.6187,5.2215,6.2227,7.9998,11.6949,23.0344,200.0000
0.382,0,4153.36,0.42,115.19,1,0.0000,1.0000,0.0000,0.0000,600.9733,529.3521,35.0785,-0.0000,-0.0013,0.0016,-13.4373,-0.0022,0.0021,3.0291,2.9342,-0.7487,-0.7268,-2.0001,8.0001,3.9999,-0.0016,straight,5.45,0.00,0.45,0.00,0.00,0,0.000,0.380,0.000,0.00,26.73,4,200.0000,46.0708,23.3908,16.0002,12.4460,10.4434,9.2377,8.5135,8.1235,3.9999,4.0616,4.2566,4.6187,5.2215,6.2227,7.9998,11.6949,23.0344,200.0000
0.402,0,4153.37,0.90,115.19,1,0.0000,1.0000,0.0000,0.0000,600.9769,529.3521,35.0785,-0.0000,-0.0020,0.0015,1.5505,-0.3784,0.0250,6.5724,0.2840,0.5910,0.3157,-2.0001,8.0001,3.9999,-0.0015,straight,5.45,0.00,0.45,0.00,0.00,0,0.000,0.400,0.000,0.00,26.73,4,200.0000,46.0708,23.3908,16.0002,12.4460,10.4434,9.2377,8.5135,8.1235,3.9999,4.0616,4.2566,4.6187,5.2215,6.2227,7.9998,11.6949,23.0344,200.0000
0.422,0,4153.37,1.33,115.19,1,0.0000,1.0000,0.0000,0.0000,600.9831,529.3521,35.0786,-0.0000,-0.0030,0.0015,7.0794,0.1861,0.0135,1.3285,7.7859,6.4723,-1.4129,-2.0001,8.0001,3.9999,-0.0015,straight,5.45,0.00,0.44,0.00,0.00,0,0.000,0.420,0.000,0.00,26.73,4,200.0000,46.0708,23.3908,16.0002,12.4460,10.4434,9.2377,8.5135,8.1235,3.9999,4.0616,4.2566,4.6187,5.2215,6.2227,7.9998,11.6949,23.0344,200.0000
0.442,0,4153.38,1.89,115.19,1,0.0000,1.0000,0.0000,0.0000,600.9921,529.3521,35.0786,-0.0000,-0.0041,0.0015,6.2475,-0.1685,0.0134,1.9973,2.4707,1.3110,4.7921,-2.0001,8.0001,3.9999,-0.0015,straight,5.45,0.00,0.44,0.00,0.00,0,0.000,0.440,0.000,0.00,26.73,4,200.0000,46.0708,23.3908,16.0002,12.4460,10.4434,9.2377,8.5135,8.1235,3.9999,4.0616,4.2566,4.6187,5.2215,6.2227,7.9998,11.6949,23.0344,200.0000
0.462,0,4153.38,2.39,115.19,1,0.0000,1.0000,0.0000,0.0000,601.0037,529.3521,35.0786,0.0000,-0.0052,0.0014,9.8181,0.2743,0.0030,3.3305,1.5492,4.8697,1.7770,-2.0001,8.0001,3.9999,-0.0014,straight,5.45,0.00,0.42,0.00,0.00,0,0.000,0.460,0.000,0.00,26.73,4,200.0000,46.0708,23.3908,16.0002,12.4460,10.4434,9.2377,8.5135,8.1235,3.9999,4.0616,4.2566,4.6187,5.2215,6.2227,7.9998,11.6949,23.0344,200.0000
0.482,0,4153.40,2.85,115.19,1,0.0000,1.0000,0.0000,0.0000,601.0179,529.3521,35.0787,-0.0000,-0.0063,0.0014,10.5013,-0.0133,0.0043,2.1994,5.4645,1.7771,5.7018,-2.0001,8.0001,3.9999,-0.0014,straight,5.45,0.00,0.41,0.00,0.00,0,0.000,0.480,0.000,0.00,26.73,4,200.0000,46.0708,23.3908,16.0002,12.4460,10.4434,9.2377,8.5135,8.1235,3.9999,4.0616,4.2566,4.6187,5.2215,6.2227,7.9998,11.6949,23.0344,200.0000
0.504,0,4153.41,3.39,115.19,1,0.0000,1.0000,0.0000,0.0000,601.0369,529.3521,35.0787,-0.0000,-0.0073,0.0014,3.6094,0.1441,-0.0058,0.5936,6.1632,0.2219,9.1727,-2.0001,8.0001,3.9999,-0.0014,straight,5.45,0.00,0.39,0.00,0.00,0,0.000,0.502,0.000,0.00,26.73,4,200.0000,46.0708,23.3908,16.0002,12.4460,10.4434,9.2377,8.5135,8.1235,3.9999,4.0616,4.2566,4.6187,5.2215,6.2227,7.9998,11.6949,23.0344,200.0000
0.524,0,4153.43,3.83,115.19,1,0.0000,1.0000,0.0000,0.0000,601.0569,529.3521,35.0788,-0.0000,-0.0080,0.0014,3.6931,-0.3272,0.0124,6.4540,3.7304,9.7336,1.2943,-2.0001,8.0001,3.9999,-0.0014,straight,5.45,0.00,0.37,0.00,0.00,0,0.000,0.522,0.000,0.00,26.73,4,200.0000,46.0708,23.3908,16.0002,12.4460,10.4434,9.2377,8.5135,8.1235,3.9999,4.0616,4.2566,4.6187,5.2215,6.2227,7.9998,11.6949,23.0344,200.0000
0.544,0,4153.45,4.36,115.19,1,0.0000,1.0000,0.0000,0.0000,601.0797,529.3521,35.0788,-0.0000,-0.0085,0.0014,4.1507,0.1384,0.0065,4.7399,3.7390,1.6184,9.8163,-2.0001,8.0001,3.9999,-0.0014,straight,5.45,0.00,0.35,0.00,0.00,0,0.000,0.542,0.000,0.00,26.73,4,200.0000,46.0708,23.3908,16.0002,12.4460,10.4434,9.2377,8.5135,8.1235,3.9999,4.0616,4.2566,4.6187,5.2215,6.2227,7.9998,11.6949,23.0344,200.0000
0.564,0,4153.47,4.83,115.19,1,0.0000,1.0000,0.0000,0.0000,601.1051,529.3521,35.0788,-0.0000,-0.0088,0.0014,5.0328,-0.0162,0.0004,4.7448,5.2826,10.3679,2.6982,-2.0001,8.0001,3.9999,-0.0014,straight,5.45,0.00,0.32,0.00,0.00,0,0.000,0.562,0.000,0.00,26.73,4,200.0000,46.0708,23.3908,16.0002,12.4460,10.4434,9.2377,8.5135,8.1235,3.9999,4.0616,4.2566,4.6187,5.2215,6.2227,7.9998,11.6949,23.0344,200.0000
0.584,0,4153.50,5.29,115.19,1,0.0000,1.0000,0.0000,0.0000,601.1333,529.3521,35.0789,-0.0000,-0.0089,0.0013,5.4937,0.0262,0.0167,5.9999,5.1473,3.5864,11.2927,-2.0001,8.0001,3.9999,-0.0013,straight,5.45,0.00,0.29,0.00,0.00,0,0.000,0.582,0.000,0.00,26.73,4,200.0000,46.0708,23.3908,16.0002,12.4460,10.4434,9.2377,8.5135,8.1235,3.9999,4.0616,4.2566,4.6187,5.2215,6.2227,7.9998,11.6949,23.0344,200.0000
0.604,0,4153.53,5.87,115.19,1,0.0000,1.0000,0.0000,0.0000,601.1644,529.3521,35.0789,-0.0000,-0.0089,0.0013,7.2375,-0.6697,-0.0184,5.1298,5.8071,9.0732,2.1051,-2.0001,8.0001,3.9999,-0.0013,straight,5.45,0.00,0.26,0.00,0.00,0,0.000,0.602,0.000,0.00,26.73,4,200.0000,46.0708,23.3908,16.0002,12.4460,10.4434,9.2377,8.5135,8.1235,3.9999,4.0616,4.2566,4.6187,5.2215,6.2227,7.9998,11.6949,23.0344,200.0000
0.624,0,4153.56,6.33,115.19,1,0.0000,1.0000,0.0000,0.0000,601.1981,529.3521,35.0790,-0.0000,-0.0087,0.0013,4.8207,0.0563,0.0261,6.9779,5.6870,5.2970,8.9684,-2.0001,8.0001,3.9999,-0.0013,straight,5.45,0.00,0.23,0.00,0.00,0,0.000,0.622,0.000,0.00,26.73,4,200.0000,46.0708,23.3908,16.0002,12.4460,10.4434,9.2377,8.5135,8.1235,3.9999,4.0616,4.2566,4.6187,5.2215,6.2227,7.9998,11.6949,23.0344,200.0000
0.644,0,4153.59,6.82,133.29,1,0.0000,1.0000,0.0000,0.0000,601.2346,529.3521,35.0790,-0.0000,-0.0085,0.0013,7.5713,0.0209,-0.0080,6.9712,7.2363,10.3387,6.3967,-2.0001,8.0001,3.9999,-0.0013,straight,5.45,0.00,0.19,0.00,0.00,0,0.000,0.642,0.000,0.00,26.73,4,200.0000,46.0708,23.3908,16.0002,12.4460,10.4434,9.2377,8.5135,8.1235,3.9999,4.0616,4.2566,4.6187,5.2215,6.2227,7.9998,11.6949,23.0344,200.0000
0.664,0,4153.63,7.32,135.19,1,0.0000,1.0000,0.0000,0.0000,601.2743,529.3521,35.0790,-0.0000,-0.0084,0.0013,3.0074,-0.0209,0.0156,9.2397,6.4721,12.0765,5.7068,-2.0001,8.0001,3.9999,-0.0013,straight,5.45,0.00,0.15,0.00,0.00,0,0.000,0.662,0.000,0.00,26.73,4,200.0000,46.0708,23.3908,16.0002,12.4460,10.4434,9.2377,8.5135,8.1235,3.9999,4.0616,4.2566,4.6187,5.2215,6.2227,7.9998,11.6949,23.0344,200.0000
0.684,0,4153.67,7.94,141.11,1,0.0000,1.0000,0.0000,0.0000,601.3167,529.3521,35.0791,-0.0000,-0.0083,0.0013,9.8999,-0.0342,0.0280,7.9218,8.0644,7.8520,8.3775,-2.0001,8.0001,3.9999,-0.0013,straight,5.45,0.00,0.11,0.00,0.00,0,0.000,0.682,0.000,0.00,26.73,4,200.0000,46.0708,23.3908,16.0002,12.4460,10.4434,9.2377,8.5135,8.1235,3.9999,4.0616,4.2566,4.6187,5.2215,6.2227,7.9998,11.6949,23.0344,200.0000
0.704,0,4153.71,8.40,165.33,1,0.0000,1.0000,0.0000,0.0000,601.3622,529.3521,35.0791,-0.0000,-0.0082,0.0013,6.9948,0.3752,-0.0408,9.5230,8.5608,13.6071,8.0800,-2.0001,8.0001,3.9999,-0.0013,straight,5.45,0.00,0.07,0.00,0.00,0,0.000,0.702,0.000,0.00,26.73,4,200.0000,46.0708,23.3908,16.0002,12.4460,10.4434,9.2377,8.5135,8.1235,3.9999,4.0616,4.2566,4.6187,5.2215,6.2227,7.9998,11.6949,23.0344,200.0000
0.724,0,4153.75,9.09,151.02,1,0.0000,1.0000,0.0000,0.0000,601.4111,529.3521,35.0792,-0.0000,-0.0083,0.0012,8.5874,-0.0366,0.0087,8.6696,8.8468,8.5240,9.2870,-2.0001,8.0001,3.9999,-0.0012,straight,5.45,0.00,0.02,0.00,0.00,0,0.000,0.722,0.000,0.00,26.73,4,200.0000,46.0708,23.3908,16.0002,12.4460,10.4434,9.2377,8.5135,8.1235,3.9999,4.0616,4.2566,4.6187,5.2215,6.2227,7.9998,11.6949,23.0344,200.0000
0.744,0,4153.80,9.61,174.02,1,0.0000,1.0000,0.0000,0.0000,601.4631,529.3521,35.0793,-0.0000,-0.0083,0.0013,8.6856,0.0804,0.0239,10.1006,9.8925,11.6784,9.4776,-2.0001,8.0001,3.9999,-0.0013,straight,5.45,0.00,5.42,0.00,0.00,0,0.000,0.742,0.000,0.00,26.73,4,200.0000,46.0709,23.3908,16.0002,12.4460,10.4434,9.2377,8.5136,8.1235,3.9999,4.0616,4.2566,4.6187,5.2215,6.2227,7.9998,11.6949,23.0344,200.0000
0.764,0,4153.86,10.27,171.61,1,0.0000,1.0000,0.0000,0.0000,601.5185,529.3521,35.0793,-0.0000,-0.0084,0.0012,8.7861,-0.0004,0.0335,10.0056,10.1242,9.9311,10.5187,-2.0001,8.0001,3.9999,-0.0012,straight,5.45,0.00,5.36,0.00,0.00,0,0.000,0.762,0.000,0.00,26.73,4,200.0000,46.0709,23.3908,16.0002,12.4460,10.4434,9.2377,8.5136,8.1235,3.9999,4.0616,4.2566,4.6187,5.2215,6.2227,7.9998,11.6949,23.0344,200.0000
0.784,0,4153.91,10.88,182.48,1,0.0000,1.0000,0.0000,0.0000,601.5774,529.3521,35.0794,-0.0000,-0.0085,0.0013,8.8245,-0.0066,0.0104,10.8013,10.7169,11.2833,10.5700,-2.0001,8.0001,3.9999,-0.0013,straight,5.45,0.00,5.30,0.00,0.00,0,0.000,0.782,0.000,0.00,26.73,4,200.0000,46.0709,23.3908,16.0002,12.4460,10.4434,9.2377,8.5136,8.1235,3.9999,4.0616,4.2566,4.6187,5.2215,6.2227,7.9998,11.6949,23.0344,200.0000
0.804,0,4153.97,11.52,194.64,1,0.0000,1.0000,0.0000,0.0000,601.6398,529.3521,35.0795,-0.0000,-0.0087,0.0012,9.1921,0.0148,-0.0242,11.4932,11.5360,11.4612,11.9019,-2.0001,8.0001,3.9999,-0.0012,straight,5.45,0.00,5.24,0.00,0.00,0,0.000,0.802,0.000,0.00,26.73,4,200.0000,46.0709,23.3908,16.0002,12.4460,10.4434,9.2377,8.5136,8.1235,3.9999,4.0616,4.2566,4.6187,5.2215,6.2227,7.9998,11.6949,23.0344,200.0000
0.824,0,4154.03,12.18,207.86,1,0.0000,1.0000,0.0000,0.0000,601.7057,529.3521,35.0795,-0.0000,-0.0089,0.0013,9.5873,-0.0327,0.0103,12.3339,12.3220,12.6719,12.3475,-2.0001,8.0001,3.9999,-0.0013,straight,5.45,0.00,5.18,0.00,0.00,0,0.000,0.822,0.000,0.00,26.73,4,200.0000,46.0709,23.3908,16.0002,12.4460,10.4434,9.2377,8.5136,8.1235,3.9999,4.0616,4.2566,4.6187,5.2215,6.2227,7.9998,11.6949,23.0344,200.0000
0.844,0,4154.10,12.88,220.67,1,0.0000,1.0000,0.0000,0.0000,601.7755,529.3521,35.0796,-0.0000,-0.0092,0.0012,10.1414,0.0641,0.0120,13.1063,13.0537,13.2128,13.4506,-2.0001,8.0001,3.9999,-0.0012,straight,5.45,0.00,5.11,0.00,0.00,0,0.000,0.842,0.000,0.00,26.73,4,200.0000,46.0709,23.3908,16.0002,12.4460,10.4434,9.2377,8.5136,8.1235,3.9999,4.0616,4.2566,4.6187,5.2215,6.2227,7.9998,11.6949,23.0344,200.0000
0.864,0,4154.17,13.60,229.41,1,0.0000,1.0000,0.0000,0.0000,601.8492,529.3521,35.0797,-0.0000,-0.0095,0.0013,10.3202,-0.0806,0.0093,13.5689,13.6255,14.0427,13.8086,-2.0001,8.0001,3.9999,-0.0013,straight,5.45,0.00,5.03,0.00,0.00,0,0.000,0.862,0.000,0.00,26.73,4,200.0000,46.0709,23.3908,16.0002,12.4460,10.4434,9.2377,8.5136,8.1235,3.9999,4.0616,4.2566,4.6187,5.2215,6.2227,7.9998,11.6949,23.0344,200.0000
0.884,0,4154.24,14.33,238.39,1,0.0000,1.0000,0.0000,0.0000,601.9269,529.3521,35.0798,-0.0000,-0.0099,0.0012,10.4192,0.0842,0.0247,14.2049,14.1036,14.4351,14.6304,-2.0001,8.0001,3.9999,-0.0012,straight,5.45,0.00,4.95,0.00,0.00,0,0.000,0.882,0.000,0.00,26.73,4,200.0000,46.0709,23.3908,16.0002,12.4460,10.4434,9.2377,8.5136,8.1235,3.9999,4.0616,4.2566,4.6187,5.2215,6.2227,7.9998,11.6949,23.0344,200.0000
0.904,0,4154.32,15.07,246.66,1,0.0000,1.0000,0.0000,0.0000,602.0087,529.3521,35.0799,0.0000,-0.0103,0.0013,10.5982,-0.0869,0.0128,14.5480,14.7017,15.2091,15.0214,-2.0001,8.0001,3.9999,-0.0013,straight,5.45,0.00,4.87,0.00,0.00,0,0.000,0.902,0.000,0.00,26.73,4,200.0000,46.0709,23.3908,16.0002,12.4460,10.4434,9.2377,8.5136,8.1235,3.9999,4.0616,4.2566,4.6187,5.2215,6.2227,7.9998,11.6949,23.0344,200.0000
0.924,0,4154.40,15.82,255.29,1,0.0000,1.0000,0.0000,0.0000,602.0948,529.3521,35.0799,0.0000,-0.0106,0.0012,10.7412,0.0786,0.0218,15.2678,14.9859,15.6474,15.8018,-2.0001,8.0001,3.9999,-0.0012,straight,5.45,0.00,4.79,0.00,0.00,0,0.000,0.922,0.000,0.00,26.73,4,200.0000,46.0709,23.3908,16.0002,12.4460,10.4434,9.2377,8.5136,8.1235,3.9999,4.0616,4.2566,4.6187,5.2215,6.2227,7.9998,11.6949,23.0344,200.0000
0.944,0,4154.49,16.58,264.32,1,0.0000,1.0000,0.0000,0.0000,602.1850,529.3521,35.0801,0.0000,-0.0109,0.0012,10.6367,-0.0634,0.0198,15.4093,15.9843,16.4259,16.2851,-2.0001,8.0001,3.9999,-0.0012,straight,5.45,0.00,4.70,0.00,0.00,0,0.000,0.942,0.000,0.00,26.73,4,200.0000,46.0709,23.3908,16.0002,12.4460,10.4434,9.2377,8.5136,8.1235,3.9999,4.0616,4.2566,4.6187,5.2215,6.2227,7.9998,11.6949,23.0344,200.0000
0.964,0,4154.58,17.33,275.57,1,0.0000,1.0000,0.0000,0.0000,602.2794,529.3521,35.0802,0.0000,-0.0112,0.0012,10.7720,0.0483,0.0192,16.3467,16.4684,17.0246,17.1607,-2.0001,8.0001,3.9999,-0.0012,straight,5.45,0.00,4.60,0.00,0.00,0,0.000,0.962,0.000,0.00,26.73,4,200.0000,46.0709,23.3908,16.0002,12.4460,10.4434,9.2377,8.5136,8.1235,3.9999,4.0616,4.2566,4.6187,5.2215,6.2227,7.9998,11.6949,23.0344,200.0000
0.984,0,4154.67,18.10,287.42,1,0.0000,1.0000,0.0000,0.0000,602.3781,529.3521,35.0803,0.0000,-0.0115,0.0012,10.9248,-0.0374,0.0360,17.1410,17.1889,17.9077,17.8177,-2.0001,8.0001,3.9999,-0.0012,straight,5.45,0.00,4.50,0.00,0.00,0,0.000,0.982,0.000,0.00,26.73,4,200.0000,46.0709,23.3908,16.0002,12.4460,10.4434,9.2377,8.5136,8.1235,3.9999,4.0616,4.2566,4.6187,5.2215,6.2227,7.9998,11.6949,23.0344,200.0000
1.006,0,4154.77,18.96,300.70,1,0.0000,1.0000,0.0000,0.0000,602.4915,529.3521,35.0804,0.0000,-0.0117,0.0013,11.1259,0.0238,0.0314,18.0063,18.0301,15.4249,22.0062,-2.0001,8.0001,3.9999,-0.0013,straight,5.45,0.00,4.39,0.00,0.00,0,0.000,1.004,0.000,0.00,26.73,4,200.0000,46.0709,23.3908,16.0002,12.4460,10.4434,9.2377,8.5136,8.1235,3.9999,4.0616,4.2566,4.6187,5.2215,6.2227,7.9998,11.6949,23.0344,200.0000
1.026,0,4154.88,19.12,270.32,1,0.0000,0.2000,0.0000,0.0000,602.5975,529.3521,35.0805,0.0000,-0.0115,0.0013,2.4695,-0.2212,-0.0542,18.3379,17.1724,20.7019,14.7064,-2.0001,8.0001,3.9999,-0.0013,straight,5.45,0.00,4.28,0.00,0.00,0,0.000,1.024,0.000,0.00,26.73,4,200.0000,46.0708,23.3908,16.0002,12.4460,10.4434,9.2377,8.5135,8.1235,3.9999,4.0616,4.2566,4.6187,5.2215,6.2227,7.9998,11.6949,23.0344,200.0000
1.046,0,4154.99,19.37,283.66,1,0.0000,0.4000,0.0000,0.0000,602.7043,529.3521,35.0807,0.0000,-0.0108,0.0013,4.7483,0.0070,-0.0014,15.8201,20.2341,17.3011,19.3270,-2.0001,8.0001,3.9999,-0.0013,straight,5.45,0.00,4.18,0.00,0.00,0,0.000,1.044,0.000,0.00,26.73,4,200.0000,46.0708,23.3908,16.0002,12.4460,10.4434,9.2377,8.5135,8.1235,3.9999,4.0616,4.2566,4.6187,5.2215,6.2227,7.9998,11.6949,23.0344,200.0000
1.066,0,4155.10,19.80,297.93,1,0.0000,0.6000,0.0000,0.0000,602.8131,529.3521,35.0808,0.0000,-0.0101,0.0013,6.7168,-0.0222,0.0337,19.9702,17.7425,18.7928,18.7276,-2.0001,8.0001,3.9999,-0.0013,straight,5.45,0.00,4.07,0.00,0.00,0,0.000,1.064,0.000,0.00,26.73,4,200.0000,46.0708,23.3908,16.0002,12.4460,10.4434,9.2377,8.5135,8.1235,3.9999,4.0616,4.2566,4.6187,5.2215,6.2227,7.9998,11.6949,23.0344,200.0000
1.086,0,4155.21,20.41,315.54,1,0.0000,0.8000,0.0000,0.0000,602.9249,529.3521,35.0810,0.0001,-0.0095,0.0013,9.2850,0.0021,0.0606,19.6610,19.3321,19.8005,19.7633,-2.0001,8.0001,3.9999,-0.0013,straight,5.45,0.00,3.96,0.00,0.00,0,0.000,1.084,0.000,0.00,26.73,4,200.0000,46.0708,23.3908,16.0002,12.4460,10.4434,9.2377,8.5135,8.1235,3.9999,4.0616,4.2566,4.6187,5.2215,6.2227,7.9998,11.6949,23.0344,200.0000
1.106,0,4155.32,21.25,329.12,1,0.0000,1.0000,0.0000,0.0000,603.0407,529.3521,35.0811,0.0001,-0.0093,0.0013,11.9749,0.0140,0.0412,19.5991,20.2610,20.4855,20.2333,-2.0001,8.0001,3.9999,-0.0013,straight,5.45,0.00,3.84,0.00,0.00,0,0.000,1.104,0.000,0.00,26.73,4,200.0000,46.0708,23.3908,16.0002,12.4460,10.4434,9.2377,8.5135,8.1235,3.9999,4.0616,4.2566,4.6187,5.2215,6.2227,7.9998,11.6949,23.0344,200.0000
1.126,0,4155.43,22.05,346.91,1,0.0000,1.0000,0.0000,0.0000,603.1611,529.3521,35.0813,0.0001,-0.0094,0.0013,11.9964,-0.0083,0.0380,20.9066,21.0164,21.7228,21.6340,-2.0001,8.0001,3.9999,-0.0013,straight,5.45,0.00,3.72,0.00,0.00,0,0.000,1.124,0.000,0.00,26.73,4,200.0000,46.0708,23.3908,16.0002,12.4460,10.4434,9.2377,8.5135,8.1235,3.9999,4.0616,4.2566,4.6187,5.2215,6.2227,7.9998,11.6949,23.0344,200.0000
1.146,0,4155.55,22.90,358.99,1,0.0000,1.0000,0.0000,0.0000,603.2862,529.3521,35.0815,0.0001,-0.0098,0.0013,12.0009,0.0174,0.0374,21.7817,21.8235,22.4115,22.4143,-2.0001,8.0001,3.9999,-0.0013,straight,5.45,0.00,3.60,0.00,0.00,0,0.000,1.144,0.000,0.00,26.73,4,200.0000,46.0708,23.3908,16.0002,12.4460,10.4434,9.2377,8.5135,8.1235,3.9999,4.0616,4.2566,4.6187,5.2215,6.2227,7.9998,11.6949,23.0344,200.0000
1.166,0,4155.68,23.76,372.18,1,0.0000,1.0000,0.0000,0.0000,603.4160,529.3521,35.0817,0.0001,-0.0103,0.0013,12.2880,-0.0272,0.0252,22.6861,22.7069,23.1968,23.1908,-2.0001,8.0001,3.9999,-0.0013,straight,5.45,0.00,3.47,0.00,0.00,0,0.000,1.164,0.000,0.00,26.73,4,200.0000,46.0708,23.3908,16.0002,12.4460,10.4434,9.2377,8.5135,8.1235,3.9999,4.0616,4.2566,4.6187,5.2215,6.2227,7.9998,11.6949,23.0344,200.0000
1.186,0,4155.81,24.64,385.53,1,0.0000,1.0000,0.0000,0.0000,603.5507,529.3521,35.0820,0.0000,-0.0110,0.0013,12.5783,0.0345,0.0384,23.5797,23.6131,23.9812,23.9992,-2.0001,8.0001,3.9999,-0.0013,straight,5.45,0.00,3.33,0.00,0.00,0,0.000,1.184,0.000,0.00,26.73,4,200.0000,46.0708,23.3908,16.0002,12.4460,10.4434,9.2377,8.5135,8.1235,3.9999,4.0616,4.2566,4.6187,5.2215,6.2227,7.9998,11.6949,23.0344,200.0000
1.206,0,4155.94,25.54,398.58,1,0.0000,1.0000,0.0000,0.0000,603.6903,529.3521,35.0822,-0.0000,-0.0117,0.0013,12.8543,-0.0367,0.0324,24.4840,24.4912,24.7767,24.7439,-2.0001,8.0001,3.9999,-0.0013,straight,5.45,0.00,3.19,0.00,0.00,0,0.000,1.204,0.000,0.00,26.73,4,200.0000,46.0708,23.3908,16.0002,12.4460,10.4434,9.2377,8.5135,8.1235,3.9999,4.0616,4.2566,4.6187,5.2215,6.2227,7.9998,11.6949,23.0344,200.0000
1.226,0,4156.08,26.46,410.93,1,0.0000,1.0000,0.0000,0.0000,603.8350,529.3521,35.0825,-0.0001,-0.0124,0.0013,13.0773,0.0348,0.0293,25.3406,25.3276,25.4768,25.4998,-2.0001,8.0001,3.9999,-0.0013,straight,5.45,0.00,3.05,0.00,0.00,0,0.000,1.224,0.000,0.00,26.73,4,200.0000,46.0708,23.3908,16.0002,12.4460,10.4434,9.2377,8.5135,8.1235,3.9999,4.0616,4.2566,4.6187,5.2215,6.2227,7.9998,11.6949,23.0344,200.0000
1.246,0,4156.23,27.39,423.46,1,0.0000,1.0000,0.0000,0.0000,603.9848,529.3521,35.0828,-0.0001,-0.0130,0.0013,13.3568,-0.0291,0.0390,26.2053,26.1580,26.2566,26.2067,-2.0001,8.0001,3.9999,-0.0013,straight,5.45,0.00,2.90,0.00,0.00,0,0.000,1.244,0.000,0.00,26.73,4,200.0000,46.0708,23.3908,16.0002,12.4460,10.4434,9.2377,8.5135,8.1235,3.9999,4.0616,4.2566,4.6187,5.2215,6.2227,7.9998,11.6949,23.0344,200.0000
1.266,0,4156.38,28.34,435.40,1,0.0000,1.0000,0.0000,0.0000,604.1399,529.3521,35.0830,-0.0001,-0.0136,0.0013,13.4271,0.0196,-0.0023,27.0747,27.0151,26.8871,26.9599,-2.0001,8.0001,3.9999,-0.0013,straight,5.45,0.00,2.74,0.00,0.00,0,0.000,1.264,0.000,0.00,26.73,4,200.0000,46.0708,23.3908,16.0002,12.4460,10.4434,9.2377,8.5135,8.1235,3.9999,4.0616,4.2566,4.6187,5.2215,6.2227,7.9998,11.6949,23.0344,200.0000
1.286,0,4156.53,29.29,448.44,1,0.0000,1.0000,0.0000,0.0000,604.3003,529.3521,35.0833,-0.0001,-0.0140,0.0013,13.4098,-0.0161,0.0188,28.0419,27.9592,27.7324,27.6612,-2.0001,8.0001,3.9999,-0.0013,straight,5.45,0.00,2.58,0.00,0.00,0,0.000,1.284,0.000,0.00,26.73,4,200.0000,46.0708,23.3908,16.0002,12.4460,10.4434,9.2377,8.5135,8.1235,3.9999,4.0616,4.2566,4.6187,5.2215,6.2227,7.9998,11.6949,23.0344,200.0000
1.306,0,4156.69,30.25,461.71,1,0.0000,1.0000,0.0000,0.0000,604.4659,529.3521,35.0836,-0.0001,-0.0144,0.0013,13.4435,0.0090,0.0181,28.9722,28.9006,28.4424,28.5845,-2.0001,8.0001,3.9999,-0.0013,straight,5.45,0.00,2.42,0.00,0.00,0,0.000,1.304,0.000,0.00,26.73,4,200.0000,46.0708,23.3908,16.0002,12.4460,10.4434,9.2377,8.5135,8.1235,3.9999,4.0616,4.2566,4.6187,5.2215,6.2227,7.9998,11.6949,23.0344,200.0000
1.326,0,4156.86,31.20,475.10,1,0.0000,1.0000,0.0000,0.0000,604.6369,529.3521,35.0840,-0.0001,-0.0146,0.0013,13.4460,-0.0013,0.0016,29.8731,29.8321,29.5188,29.2159,-2.0001,8.0001,3.9999,-0.0013,straight,5.45,0.00,2.24,0.00,0.00,0,0.000,1.324,0.000,0.00,26.72,4,200.0000,46.0708,23.3908,16.0002,12.4460,10.4434,9.2377,8.5135,8.1235,3.9999,4.0616,4.2566,4.6187,5.2215,6.2227,7.9998,11.6949,23.0344,200.0000
1.346,0,4157.03,32.15,488.76,1,0.0000,1.0000,0.0000,0.0000,604.8132,529.3521,35.0843,-0.0000,-0.0147,0.0013,13.4700,-0.0049,-0.0074,30.7525,30.7553,30.2130,30.3229,-2.0001,8.0001,3.9999,-0.0013,straight,5.45,0.00,2.07,0.00,0.00,0,0.000,1.344,0.000,0.00,26.72,4,200.0000,46.0708,23.3908,16.0002,12.4460,10.4434,9.2377,8.5135,8.1235,3.9999,4.0616,4.2566,4.6187,5.2215,6.2227,7.9998,11.6949,23.0344,200.0000
1.366,0,4157.21,33.11,502.34,1,0.0000,1.0000,0.0000,0.0000,604.9948,529.3521,35.0846,0.0000,-0.0147,0.0013,13.5161,-0.0006,0.0299,31.5763,31.6856,31.1806,31.1808,-2.0001,8.0001,3.9999,-0.0013,straight,5.45,0.00,1.89,0.00,0.00,0,0.000,1.364,0.000,0.00,26.72,4,200.0000,46.0708,23.3908,16.0002,12.4460,10.4434,9.2377,8.5135,8.1235,3.9999,4.0616,4.2566,4.6187,5.2215,6.2227,7.9998,11.6949,23.0344,200.0000
1.386,0,4157.39,34.07,515.98,1,0.0000,1.0000,0.0000,0.0000,605.1816,529.3521,35.0849,0.0001,-0.0147,0.0013,13.5212,0.0012,0.0124,32.4427,32.5880,32.1098,32.0955,-2.0001,8.0001,3.9999,-0.0013,straight,5.45,0.00,1.70,0.00,0.00,0,0.000,1.384,0.000,0.00,26.72,4,200.0000,46.0708,23.3908,16.0002,12.4460,10.4434,9.2377,8.5135,8.1235,3.9999,4.0616,4.2566,4.6187,5.2215,6.2227,7.9998,11.6949,23.0344,200.0000
1.406,0,4157.57,35.03,529.71,1,0.0000,1.0000,0.0000,0.0000,605.3739,529.3521,35.0852,0.0001,-0.0146,0.0013,13.5323,0.0004,-0.0151,33.3498,33.4600,33.0259,33.0271,-2.0001,8.0001,3.9999,-0.0013,straight,5.45,0.00,1.51,0.00,0.00,0,0.000,1.404,0.000,0.00,26.72,4,200.0000,46.0708,23.3908,16.0002,12.4460,10.4434,9.2377,8.5135,8.1235,3.9999,4.0616,4.2566,4.6187,5.2215,6.2227,7.9998,11.6949,23.0344,200.0000
1.426,0,4157.77,36.00,543.62,1,0.0000,1.0000,0.0000,0.0000,605.5715,529.3521,35.0855,0.0000,-0.0145,0.0013,13.5817,-0.0005,-0.0193,34.2956,34.3370,33.9499,33.9548,-2.0001,8.0001,3.9999,-0.0013,straight,5.45,0.00,1.31,0.00,0.00,0,0.000,1.424,0.000,0.00,26.72,4,200.0000,46.0708,23.3908,16.0002,12.4460,10.4434,9.2377,8.5135,8.1235,3.9999,4.0616,4.2566,4.6187,5.2215,6.2227,7.9998,11.6949,23.0344,200.0000
1.446,0,4157.96,36.97,556.71,1,0.0000,1.0000,0.0000,0.0000,605.7745,529.3521,35.0859,0.0000,-0.0144,0.0013,13.6255,-0.0000,0.1183,35.1713,35.0999,34.8507,34.8700,-2.0001,8.0001,3.9999,-0.0013,straight,5.45,0.00,1.11,0.00,0.00,0,0.000,1.444,0.000,0.00,26.72,4,200.0000,46.0708,23.3908,16.0002,12.4460,10.4434,9.2377,8.5135,8.1235,3.9999,4.0616,4.2566,4.6187,5.2215,6.2227,7.9998,11.6949,23.0344,200.0000
1.466,0,4158.17,37.93,570.45,1,0.0000,1.0000,0.0000,0.0000,605.9828,529.3521,35.0862,0.0000,-0.0144,0.0013,13.5979,-0.0000,0.0965,36.0996,36.0059,35.7587,35.7852,-2.0001,8.0001,3.9999,-0.0013,straight,5.45,0.00,0.90,0.00,0.00,0,0.000,1.464,0.000,0.00,26.72,4,200.0000,46.0708,23.3908,16.0002,12.4460,10.4434,9.2377,8.5135,8.1235,3.9999,4.0616,4.2566,4.6187,5.2215,6.2227,7.9998,11.6949,23.0344,200.0000
1.486,0,4158.38,38.90,584.33,1,0.0000,1.0000,0.0000,0.0000,606.1965,529.3521,35.0867,0.0000,-0.0144,0.0013,13.5994,0.0010,0.0969,36.9963,36.9713,36.6723,36.6944,-2.0001,8.0001,3.9999,-0.0013,straight,5.45,0.00,0.69,0.00,0.00,0,0.000,1.484,0.000,0.00,26.72,4,200.0000,46.0708,23.3908,16.0002,12.4460,10.4434,9.2377,8.5135,8.1235,3.9999,4.0616,4.2566,4.6187,5.2215,6.2227,7.9998,11.6949,23.0344,200.0000
1.506,0,4158.59,39.86,598.28,1,0.0000,1.0000,0.0000,0.0000,606.4155,529.3521,35.0871,-0.0000,-0.0144,0.0013,13.6140,0.0009,0.0655,37.9076,37.9328,37.6012,37.5888,-2.0001,8.0001,3.9999,-0.0013,straight,5.45,0.00,0.47,0.00,0.00,0,0.000,1.504,0.000,0.00,26.72,4,200.0000,46.0708,23.3908,16.0002,12.4460,10.4434,9.2377,8.5135,8.1235,3.9999,4.0616,4.2566,4.6187,5.2215,6.2227,7.9998,11.6949,23.0344,200.0000
1.526,0,4158.81,40.82,612.07,1,0.0000,1.0000,0.0000,0.0000,606.6400,529.3521,35.0876,-0.0000,-0.0144,0.0013,13.6059,0.0012,0.0498,38.7904,38.8940,38.5187,38.4860,-2.0001,8.0001,3.9999,-0.0013,straight,5.45,0.00,0.24,0.00,0.00,0,0.000,1.524,0.000,0.00,26.72,4,200.0000,46.0708,23.3908,16.0002,12.4460,10.4434,9.2377,8.5135,8.1235,3.9999,4.0616,4.2566,4.6187,5.2215,6.2227,7.9998,11.6949,23.0344,200.0000
1.546,0,4159.03,41.79,625.88,1,0.0000,1.0000,0.0000,0.0000,606.8696,529.3521,35.0881,-0.0000,-0.0145,0.0013,13.6001,0.0005,0.0464,39.7239,39.8258,39.4273,39.3855,-2.0001,8.0001,3.9999,-0.0013,straight,5.45,0.00,0.01,0.00,0.00,0,0.000,1.544,0.000,0.00,26.72,4,200.0000,46.0708,23.3908,16.0002,12.4460,10.4434,9.2377,8.5135,8.1235,3.9999,4.0616,4.2566,4.6187,5.2215,6.2227,7.9998,11.6949,23.0344,200.0000
1.566,0,4159.26,42.75,639.31,1,0.0000,1.0000,0.0000,0.0000,607.1047,529.3521,35.0886,-0.0001,-0.0146,0.0013,13.5406,0.0001,0.0386,40.6513,40.7182,40.3082,40.2762,-2.0001,8.0001,3.9999,-0.0013,straight,5.45,0.00,5.23,0.00,0.00,0,0.000,1.564,0.000,0.00,26.72,4,200.0000,46.0709,23.3908,16.0002,12.4460,10.4434,9.2377,8.5136,8.1235,3.9999,4.0616,4.2566,4.6187,5.2215,6.2227,7.9998,11.6949,23.0344,200.0000
1.586,0,4159.50,43.71,652.63,1,0.0000,1.0000,0.0000,0.0000,607.3452,529.3524,35.0891,-0.0000,-0.0147,0.0013,13.5065,-0.0013,0.0782,41.5929,41.5514,41.1845,41.1829,-1.9998,7.9998,4.0002,-0.0013,straight,5.45,0.00,4.99,0.00,0.00,0,0.000,1.584,0.000,0.00,26.72,4,200.0000,46.0687,23.3897,15.9995,12.4454,10.4429,9.2373,8.5132,8.1232,4.0002,4.0620,4.2570,4.6191,5.2219,6.2233,8.0005,11.6959,23.0365,200.0000
1.606,0,4159.74,44.67,666.05,1,0.0000,1.0000,0.0000,0.0000,607.5909,529.3530,35.0896,-0.0000,-0.0147,0.0013,13.4574,-0.0014,0.0388,42.5171,42.4283,42.0659,42.0891,-1.9991,7.9991,4.0009,-0.0013,straight,5.45,0.00,4.75,0.00,0.00,0,0.000,1.604,0.000,0.00,26.72,4,200.0000,46.0652,23.3879,15.9983,12.4445,10.4421,9.2366,8.5125,8.1225,4.0009,4.0626,4.2576,4.6198,5.2227,6.2242,8.0017,11.6977,23.0400,200.0000
1.626,0,4159.98,45.62,679.32,1,0.0000,1.0000,0.0000,0.0000,607.8419,529.3536,35.0901,-0.0000,-0.0148,0.0013,13.4098,-0.0009,0.0120,43.4162,43.3034,42.9411,42.9823,-1.9985,7.9985,4.0015,-0.0013,straight,5.45,0.00,4.49,0.00,0.00,0,0.000,1.624,0.000,0.00,26.72,4,200.0000,46.0617,23.3861,15.9971,12.4435,10.4413,9.2359,8.5119,8.1219,4.0015,4.0632,4.2583,4.6205,5.2235,6.2252,8.0029,11.6995,23.0435,200.0000
1.646,0,4160.23,46.57,692.48,1,0.0000,1.0000,0.0000,0.0000,608.0983,529.3542,35.0907,0.0000,-0.0149,0.0013,13.3727,-0.0002,0.0507,44.2763,44.2076,43.8218,43.8547,-1.9979,7.9979,4.0021,-0.0013,straight,5.45,0.00,4.24,0.00,0.00,0,0.000,1.644,0.000,0.00,26.72,4,200.0000,46.0582,23.3844,15.9958,12.4426,10.4405,9.2352,8.5112,8.1213,4.0021,4.0638,4.2589,4.6212,5.2243,6.2261,8.0042,11.7013,23.0470,200.0000
1.666,0,4160.49,47.52,705.29,1,0.0000,1.0000,0.0000,0.0000,608.3599,529.3549,35.0912,0.0000,-0.0150,0.0013,13.3318,0.0020,0.1259,45.0661,45.1519,44.6638,44.6963,-1.9973,7.9973,4.0027,-0.0013,straight,5.45,0.00,3.98,0.00,0.00,0,0.000,1.664,0.000,0.00,26.71,4,200.0000,46.0547,23.3826,15.9946,12.4416,10.4398,9.2345,8.5106,8.1207,4.0027,4.0644,4.2596,4.6219,5.2251,6.2271,8.0054,11.7031,23.0506,200.0000
1.686,0,4160.75,48.46,718.36,1,0.0000,1.0000,0.0000,0.0000,608.6267,529.3555,35.0918,0.0001,-0.0151,0.0013,13.2773,0.0016,0.1276,45.8982,46.0595,45.5677,45.5546,-1.9967,7.9967,4.0033,-0.0013,straight,5.45,0.00,3.71,0.00,0.00,0,0.000,1.684,0.000,0.00,26.71,4,200.0000,46.0512,23.3808,15.9934,12.4407,10.4390,9.2338,8.5099,8.1201,4.0033,4.0651,4.2602,4.6226,5.2259,6.2280,8.0066,11.7049,23.0541,200.0000
1.706,0,4161.02,49.40,731.43,1,0.0000,1.0000,0.0000,0.0000,608.8989,529.3561,35.0924,0.0001,-0.0151,0.0013,13.2538,0.0015,0.1054,46.7736,46.9218,46.4344,46.4316,-1.9961,7.9961,4.0039,-0.0013,straight,5.45,0.00,3.44,0.00,0.00,0,0.000,1.704,0.000,0.00,26.71,4,200.0000,46.0476,23.3790,15.9922,12.4397,10.4382,9.2331,8.5093,8.1194,4.0039,4.0657,4.2609,4.6233,5.2267,6.2290,8.0078,11.7066,23.0576,200.0000
1.726,0,4161.29,50.33,744.48,1,0.0000,1.0000,0.0000,0.0000,609.1761,529.3567,35.0931,0.0000,-0.0151,0.0013,13.1924,-0.0000,0.0703,47.7165,47.7213,47.2979,47.3188,-1.9955,7.9955,4.0045,-0.0013,straight,5.45,0.00,3.16,0.00,0.00,0,0.000,1.724,0.000,0.00,26.71,4,200.0000,46.0441,23.3772,15.9910,12.4388,10.4374,9.2324,8.5086,8.1188,4.0045,4.0663,4.2615,4.6240,5.2275,6.2299,8.0090,11.7084,23.0611,200.0000
1.746,0,4161.57,51.27,756.74,1,0.0000,1.0000,0.0000,0.0000,609.4586,529.3573,35.0938,-0.0000,-0.0151,0.0013,13.1164,-0.0020,0.0741,48.6126,48.4629,48.1355,48.1593,-1.9949,7.9949,4.0051,-0.0013,straight,5.45,0.00,2.88,0.00,0.00,0,0.000,1.744,0.000,0.00,26.71,4,200.0000,46.0406,23.3754,15.9897,12.4378,10.4366,9.2317,8.5080,8.1182,4.0051,4.0669,4.2622,4.6247,5.2283,6.2309,8.0103,11.7102,23.0646,200.0000
1.766,0,4161.85,52.18,767.57,1,0.0000,1.0000,0.0000,0.0000,609.7462,529.3579,35.0946,-0.0001,-0.0151,0.0013,12.7889,-0.0027,0.0282,49.3660,49.1873,48.9345,48.9383,-1.9943,7.9943,4.0057,-0.0013,straight,5.45,0.00,2.59,0.00,0.00,0,0.000,1.764,0.000,0.00,26.71,4,200.0000,46.0371,23.3736,15.9885,12.4369,10.4358,9.2310,8.5073,8.1176,4.0057,4.0675,4.2628,4.6254,5.2291,6.2318,8.0115,11.7120,23.0681,200.0000
1.786,0,4162.14,53.08,778.01,1,0.0000,1.0000,0.0000,0.0000,610.0389,529.3585,35.0953,-0.0000,-0.0150,0.0013,12.5054,-0.0016,0.0707,50.0203,49.9512,49.7105,49.6807,-1.9936,7.9936,4.0064,-0.0013,straight,5.45,0.00,2.30,0.00,0.00,0,0.000,1.784,0.000,0.00,26.71,4,200.0000,46.0336,23.3719,15.9873,12.4359,10.4350,9.2303,8.5067,8.1170,4.0064,4.0682,4.2635,4.6261,5.2299,6.2328,8.0127,11.7138,23.0716,200.0000
1.806,0,4162.43,53.95,788.26,1,0.0000,1.0000,0.0000,0.0000,610.3365,529.3591,35.0961,0.0000,-0.0149,0.0013,12.1887,0.0005,0.0170,50.6280,50.7117,50.4716,50.4457,-1.9930,7.9930,4.0070,-0.0013,straight,5.45,0.00,2.00,0.00,0.00,0,0.000,1.804,0.000,0.00,26.71,4,200.0000,46.0301,23.3701,15.9861,12.4350,10.4342,9.2296,8.5060,8.1163,4.0070,4.0688,4.2641,4.6268,5.2307,6.2337,8.0139,11.7156,23.0752,200.0000
1.826,0,4162.73,54.81,798.19,1,0.0000,1.0000,0.0000,0.0000,610.6389,529.3597,35.0969,0.0001,-0.0147,0.0013,11.9042,0.0019,0.0067,51.2548,51.4244,51.1906,51.1825,-1.9924,7.9924,4.0076,-0.0013,straight,5.45,0.00,1.70,0.00,0.00,0,0.000,1.824,0.000,0.00,26.71,4,200.0000,46.0265,23.3683,15.9849,12.4340,10.4334,9.2289,8.5054,8.1157,4.0076,4.0694,4.2648,4.6275,5.2315,6.2347,8.0151,11.7174,23.0787,200.0000
1.846,0,4163.03,55.64,807.90,1,0.0000,1.0000,0.0000,0.0000,610.9459,529.3604,35.0977,0.0000,-0.0146,0.0013,11.6322,0.0021,-0.0008,51.9462,52.0383,51.8897,51.9091,-1.9918,7.9918,4.0082,-0.0013,straight,5.45,0.00,1.39,0.00,0.00,0,0.000,1.844,0.000,0.00,26.71,4,200.0000,46.0230,23.3665,15.9836,12.4331,10.4326,9.2282,8.5047,8.1151,4.0082,4.0700,4.2654,4.6283,5.2323,6.2356,8.0164,11.7191,23.0822,200.0000
1.866,0,4163.34,56.45,817.03,1,0.0000,1.0000,0.0000,0.0000,611.2574,529.3610,35.0985,0.0000,-0.0144,0.0013,11.2969,-0.0031,0.1139,52.6349,52.5594,52.5660,52.6213,-1.9912,7.9912,4.0088,-0.0013,straight,5.45,0.00,1.08,0.00,0.00,0,0.000,1.864,0.000,0.00,26.71,4,200.0000,46.0195,23.3647,15.9824,12.4321,10.4318,9.2275,8.5041,8.1145,4.0088,4.0706,4.2661,4.6290,5.2331,6.2366,8.0176,11.7209,23.0857,200.0000
1.886,0,4163.65,57.24,826.56,1,0.0000,1.0000,0.0000,0.0000,611.5735,529.3616,35.0994,0.0000,-0.0142,0.0013,11.0701,-0.0004,0.0665,53.2819,53.2313,53.2540,53.2806,-1.9906,7.9906,4.0094,-0.0013,straight,5.45,0.00,0.76,0.00,0.00,0,0.000,1.884,0.000,0.00,26.71,4,200.0000,46.0160,23.3629,15.9812,12.4312,10.4310,9.2267,8.5034,8.1139,4.0094,4.0713,4.2667,4.6297,5.2339,6.2375,8.0188,11.7227,23.0892,200.0000
1.906,0,4163.97,58.02,835.76,1,0.0000,1.0000,0.0000,0.0000,611.8939,529.3622,35.1003,-0.0000,-0.0141,0.0013,10.7906,0.0005,0.0711,53.8773,53.9254,53.9312,53.9088,-1.9900,7.9900,4.0100,-0.0013,straight,5.45,0.00,0.44,0.00,0.00,0,0.000,1.904,0.000,0.00,26.71,4,200.0000,46.0125,23.3612,15.9800,12.4302,10.4302,9.2260,8.5028,8.1132,4.0100,4.0719,4.2674,4.6304,5.2347,6.2385,8.0200,11.7245,23.0928,200.0000
1.926,0,4164.29,58.77,844.77,1,0.0000,1.0000,0.0000,0.0000,612.2185,529.3628,35.1012,-0.0000,-0.0139,0.0013,10.5589,0.0007,0.0937,54.4861,54.5679,54.5850,54.5327,-1.9894,7.9894,4.0106,-0.0013,straight,5.45,0.00,0.12,0.00,0.00,0,0.000,1.924,0.000,0.00,26.70,4,200.0000,46.0090,23.3594,15.9787,12.4293,10.4294,9.2253,8.5021,8.1126,4.0106,4.0725,4.2680,4.6311,5.2355,6.2394,8.0213,11.7263,23.0963,200.0000
1.946,0,4164.61,59.50,853.65,1,0.0000,1.0000,0.0000,0.0000,612.5473,529.3634,35.1021,-0.0000,-0.0138,0.0013,10.2972,0.0001,0.0104,55.1357,55.1646,55.2019,55.1704,-1.9888,7.9888,4.0112,-0.0013,straight,5.45,0.00,5.24,0.00,0.00,0,0.000,1.944,0.000,0.00,26.70,4,200.0000,46.0055,23.3576,15.9775,12.4283,10.4286,9.2246,8.5015,8.1120,4.0112,4.0731,4.2687,4.6318,5.2363,6.2404,8.0225,11.7281,23.0998,200.0000
1.966,0,4164.94,60.14,860.21,1,0.0000,1.0000,0.0000,0.0000,612.8800,529.3640,35.1031,-0.0000,-0.0136,0.0013,6.7216,-0.0004,0.0413,55.7001,55.6852,56.0525,56.0592,-1.9882,7.9882,4.0118,-0.0013,straight,5.45,0.00,4.91,0.00,0.00,0,0.000,1.964,0.000,0.00,26.70,4,200.0000,46.0020,23.3558,15.9763,12.4274,10.4278,9.2239,8.5008,8.1114,4.0118,4.0737,4.2693,4.6325,5.2371,6.2413,8.0237,11.7298,23.1033,200.0000
