Time,Lap,DistFromStart,Speed,RPM,Gear,SteerCmd,AccelCmd,BrakeCmd,ClutchCmd,X,Y,Z,Roll,Pitch,Yaw,AccelX,AccelY,AccelZ,WheelSpinVel_FL,WheelSpinVel_FR,WheelSpinVel_RL,WheelSpinVel_RR,ToMiddle,ToLeft,ToRight,AngleToTrack,TrackSegType,SegmentLength,Radius,DistToSegEnd,NextCornerDist,NextCornerRadius,NextCornerDir,LapBestTime,CurrentLapTime,LastLapTime,DamageLevel,FuelLevel,RacePos,TrackSensor1,TrackSensor2,TrackSensor3,TrackSensor4,TrackSensor5,TrackSensor6,TrackSensor7,TrackSensor8,TrackSensor9,TrackSensor10,TrackSensor11,TrackSensor12,TrackSensor13,TrackSensor14,TrackSensor15,TrackSensor16,TrackSensor17,TrackSensor18,TrackSensor19
-0.980,0,0.00,-0.02,115.19,0,0.0000,0.0000,1.0000,0.0000,535.0127,10.0662,5.6906,-0.2747,-0.0096,-0.0349,4.3080,0.2159,-0.0727,0.0000,0.0000,-3.2532,3.5082,-4.9343,19.9343,10.0657,0.0349,straight,9.38,0.00,8.11,0.00,0.00,0,0.000,-0.982,0.000,0.00,24.76,4,200.0000,114.7969,58.2839,39.8686,31.0122,26.0223,23.0181,21.2136,20.2418,10.0657,10.2210,10.7117,11.6229,13.1399,15.6595,20.1314,29.4302,57.9662,200.0000
-0.960,0,2922.61,-0.02,115.19,0,0.0000,0.0000,0.0000,0.5932,535.0127,10.0662,5.6906,-0.2747,-0.0096,-0.0349,4.3080,0.2159,-0.0727,0.0000,0.0000,-3.2532,3.5082,-4.9343,19.9343,10.0657,0.0349,straight,9.38,0.00,8.11,0.00,0.00,0,0.000,-0.962,0.000,0.00,24.76,4,200.0000,114.7969,58.2839,39.8686,31.0122,26.0223,23.0181,21.2136,20.2418,10.0657,10.2210,10.7117,11.6229,13.1399,15.6595,20.1314,29.4302,57.9662,200.0000
-0.940,0,2922.61,-0.02,115.19,0,0.0000,0.0000,0.0000,0.5932,535.0127,10.0662,5.6906,-0.2747,-0.0096,-0.0349,4.3080,0.2159,-0.0727,0.0000,0.0000,-3.2532,3.5082,-4.9343,19.9343,10.0657,0.0349,straight,9.38,0.00,8.11,0.00,0.00,0,0.000,-0.942,0.000,0.00,24.76,4,200.0000,114.7969,58.2839,39.8686,31.0122,26.0223,23.0181,21.2136,20.2418,10.0657,10.2210,10.7117,11.6229,13.1399,15.6595,20.1314,29.4302,57.9662,200.0000
-0.920,0,2922.61,-0.02,115.19,0,0.0000,0.0000,0.0000,0.5932,535.0127,10.0662,5.6906,-0.2747,-0.0096,-0.0349,4.3080,0.2159,-0.0727,0.0000,0.0000,-3.2532,3.5082,-4.9343,19.9343,10.0657,0.0349,straight,9.38,0.00,8.11,0.00,0.00,0,0.000,-0.922,0.000,0.00,24.76,4,200.0000,114.7969,58.2839,39.8686,31.0122,26.0223,23.0181,21.2136,20.2418,10.0657,10.2210,10.7117,11.6229,13.1399,15.6595,20.1314,29.4302,57.9662,200.0000
-0.900,0,2922.61,-0.02,115.19,0,0.0000,0.0000,0.0000,0.5932,535.0127,10.0662,5.6906,-0.2747,-0.0096,-0.0349,4.3080,0.2159,-0.0727,0.0000,0.0000,-3.2532,3.5082,-4.9343,19.9343,10.0657,0.0349,straight,9.38,0.00,8.11,0.00,0.00,0,0.000,-0.902,0.000,0.00,24.76,4,200.0000,114.7969,58.2839,39.8686,31.0122,26.0223,23.0181,21.2136,20.2418,10.0657,10.2210,10.7117,11.6229,13.1399,15.6595,20.1314,29.4302,57.9662,200.0000
-0.880,0,2922.61,-0.02,115.19,0,0.0000,0.0000,0.0000,0.5932,535.0127,10.0662,5.6906,-0.2747,-0.0096,-0.0349,4.3080,0.2159,-0.0727,0.0000,0.0000,-3.2532,3.5082,-4.9343,19.9343,10.0657,0.0349,straight,9.38,0.00,8.11,0.00,0.00,0,0.000,-0.882,0.000,0.00,24.76,4,200.0000,114.7969,58.2839,39.8686,31.0122,26.0223,23.0181,21.2136,20.2418,10.0657,10.2210,10.7117,11.6229,13.1399,15.6595,20.1314,29.4302,57.9662,200.0000
-0.860,0,2922.61,-0.02,115.19,0,0.0000,0.0000,0.0000,0.5932,535.0127,10.0662,5.6906,-0.2747,-0.0096,-0.0349,4.3080,0.2159,-0.0727,0.0000,0.0000,-3.2532,3.5082,-4.9343,19.9343,10.0657,0.0349,straight,9.38,0.00,8.11,0.00,0.00,0,0.000,-0.862,0.000,0.00,24.76,4,200.0000,114.7969,58.2839,39.8686,31.0122,26.0223,23.0181,21.2136,20.2418,10.0657,10.2210,10.7117,11.6229,13.1399,15.6595,20.1314,29.4302,57.9662,200.0000
-0.840,0,2922.61,-0.02,115.19,0,0.0000,0.0000,0.0000,0.5932,535.0127,10.0662,5.6906,-0.2747,-0.0096,-0.0349,4.3080,0.2159,-0.0727,0.0000,0.0000,-3.2532,3.5082,-4.9343,19.9343,10.0657,0.0349,straight,9.38,0.00,8.11,0.00,0.00,0,0.000,-0.842,0.000,0.00,24.76,4,200.0000,114.7969,58.2839,39.8686,31.0122,26.0223,23.0181,21.2136,20.2418,10.0657,10.2210,10.7117,11.6229,13.1399,15.6595,20.1314,29.4302,57.9662,200.0000
-0.820,0,2922.61,-0.02,115.19,0,0.0000,0.0000,0.0000,0.5932,535.0127,10.0662,5.6906,-0.2747,-0.0096,-0.0349,4.3080,0.2159,-0.0727,0.0000,0.0000,-3.2532,3.5082,-4.9343,19.9343,10.0657,0.0349,straight,9.38,0.00,8.11,0.00,0.00,0,0.000,-0.822,0.000,0.00,24.76,4,200.0000,114.7969,58.2839,39.8686,31.0122,26.0223,23.0181,21.2136,20.2418,10.0657,10.2210,10.7117,11.6229,13.1399,15.6595,20.1314,29.4302,57.9662,200.0000
-0.800,0,2922.61,-0.02,115.19,0,0.0000,0.0000,0.0000,0.5932,535.0127,10.0662,5.6906,-0.2747,-0.0096,-0.0349,4.3080,0.2159,-0.0727,0.0000,0.0000,-3.2532,3.5082,-4.9343,19.9343,10.0657,0.0349,straight,9.38,0.00,8.11,0.00,0.00,0,0.000,-0.802,0.000,0.00,24.76,4,200.0000,114.7969,58.2839,39.8686,31.0122,26.0223,23.0181,21.2136,20.2418,10.0657,10.2210,10.7117,11.6229,13.1399,15.6595,20.1314,29.4302,57.9662,200.0000
-0.780,0,2922.61,-0.02,115.19,0,0.0000,0.0000,0.0000,0.5932,535.0127,10.0662,5.6906,-0.2747,-0.0096,-0.0349,4.3080,0.2159,-0.0727,0.0000,0.0000,-3.2532,3.5082,-4.9343,19.9343,10.0657,0.0349,straight,9.38,0.00,8.11,0.00,0.00,0,0.000,-0.782,0.000,0.00,24.76,4,200.0000,114.7969,58.2839,39.8686,31.0122,26.0223,23.0181,21.2136,20.2418,10.0657,10.2210,10.7117,11.6229,13.1399,15.6595,20.1314,29.4302,57.9662,200.0000
-0.760,0,2922.61,-0.02,115.19,0,0.0000,0.0000,0.0000,0.5932,535.0127,10.0662,5.6906,-0.2747,-0.0096,-0.0349,4.3080,0.2159,-0.0727,0.0000,0.0000,-3.2532,3.5082,-4.9343,19.9343,10.0657,0.0349,straight,9.38,0.00,8.11,0.00,0.00,0,0.000,-0.762,0.000,0.00,24.76,4,200.0000,114.7969,58.2839,39.8686,31.0122,26.0223,23.0181,21.2136,20.2418,10.0657,10.2210,10.7117,11.6229,13.1399,15.6595,20.1314,29.4302,57.9662,200.0000
-0.740,0,2922.61,-0.02,115.19,0,0.0000,0.0000,0.0000,0.5932,535.0127,10.0662,5.6906,-0.2747,-0.0096,-0.0349,4.3080,0.2159,-0.0727,0.0000,0.0000,-3.2532,3.5082,-4.9343,19.9343,10.0657,0.0349,straight,9.38,0.00,8.11,0.00,0.00,0,0.000,-0.742,0.000,0.00,24.76,4,200.0000,114.7969,58.2839,39.8686,31.0122,26.0223,23.0181,21.2136,20.2418,10.0657,10.2210,10.7117,11.6229,13.1399,15.6595,20.1314,29.4302,57.9662,200.0000
-0.720,0,2922.61,-0.02,115.19,0,0.0000,0.0000,0.0000,0.5932,535.0127,10.0662,5.6906,-0.2747,-0.0096,-0.0349,4.3080,0.2159,-0.0727,0.0000,0.0000,-3.2532,3.5082,-4.9343,19.9343,10.0657,0.0349,straight,9.38,0.00,8.11,0.00,0.00,0,0.000,-0.722,0.000,0.00,24.76,4,200.0000,114.7969,58.2839,39.8686,31.0122,26.0223,23.0181,21.2136,20.2418,10.0657,10.2210,10.7117,11.6229,13.1399,15.6595,20.1314,29.4302,57.9662,200.0000
-0.700,0,2922.61,-0.02,115.19,0,0.0000,0.0000,0.0000,0.5932,535.0127,10.0662,5.6906,-0.2747,-0.0096,-0.0349,4.3080,0.2159,-0.0727,0.0000,0.0000,-3.2532,3.5082,-4.9343,19.9343,10.0657,0.0349,straight,9.38,0.00,8.11,0.00,0.00,0,0.000,-0.702,0.000,0.00,24.76,4,200.0000,114.7969,58.2839,39.8686,31.0122,26.0223,23.0181,21.2136,20.2418,10.0657,10.2210,10.7117,11.6229,13.1399,15.6595,20.1314,29.4302,57.9662,200.0000
-0.680,0,2922.61,-0.02,115.19,0,0.0000,0.0000,0.0000,0.5932,535.0127,10.0662,5.6906,-0.2747,-0.0096,-0.0349,4.3080,0.2159,-0.0727,0.0000,0.0000,-3.2532,3.5082,-4.9343,19.9343,10.0657,0.0349,straight,9.38,0.00,8.11,0.00,0.00,0,0.000,-0.682,0.000,0.00,24.76,4,200.0000,114.7969,58.2839,39.8686,31.0122,26.0223,23.0181,21.2136,20.2418,10.0657,10.2210,10.7117,11.6229,13.1399,15.6595,20.1314,29.4302,57.9662,200.0000
-0.660,0,2922.61,-0.02,115.19,0,0.0000,0.0000,0.0000,0.5932,535.0127,10.0662,5.6906,-0.2747,-0.0096,-0.0349,4.3080,0.2159,-0.0727,0.0000,0.0000,-3.2532,3.5082,-4.9343,19.9343,10.0657,0.0349,straight,9.38,0.00,8.11,0.00,0.00,0,0.000,-0.662,0.000,0.00,24.76,4,200.0000,114.7969,58.2839,39.8686,31.0122,26.0223,23.0181,21.2136,20.2418,10.0657,10.2210,10.7117,11.6229,13.1399,15.6595,20.1314,29.4302,57.9662,200.0000
-0.640,0,2922.61,-0.02,115.19,0,0.0000,0.0000,0.0000,0.5932,535.0127,10.0662,5.6906,-0.2747,-0.0096,-0.0349,4.3080,0.2159,-0.0727,0.0000,0.0000,-3.2532,3.5082,-4.9343,19.9343,10.0657,0.0349,straight,9.38,0.00,8.11,0.00,0.00,0,0.000,-0.642,0.000,0.00,24.76,4,200.0000,114.7969,58.2839,39.8686,31.0122,26.0223,23.0181,21.2136,20.2418,10.0657,10.2210,10.7117,11.6229,13.1399,15.6595,20.1314,29.4302,57.9662,200.0000
-0.620,0,2922.61,-0.02,115.19,0,0.0000,0.0000,0.0000,0.5932,535.0127,10.0662,5.6906,-0.2747,-0.0096,-0.0349,4.3080,0.2159,-0.0727,0.0000,0.0000,-3.2532,3.5082,-4.9343,19.9343,10.0657,0.0349,straight,9.38,0.00,8.11,0.00,0.00,0,0.000,-0.622,0.000,0.00,24.76,4,200.0000,114.7969,58.2839,39.8686,31.0122,26.0223,23.0181,21.2136,20.2418,10.0657,10.2210,10.7117,11.6229,13.1399,15.6595,20.1314,29.4302,57.9662,200.0000
-0.600,0,2922.61,-0.02,115.19,0,0.0000,0.0000,0.0000,0.5932,535.0127,10.0662,5.6906,-0.2747,-0.0096,-0.0349,4.3080,0.2159,-0.0727,0.0000,0.0000,-3.2532,3.5082,-4.9343,19.9343,10.0657,0.0349,straight,9.38,0.00,8.11,0.00,0.00,0,0.000,-0.602,0.000,0.00,24.76,4,200.0000,114.7969,58.2839,39.8686,31.0122,26.0223,23.0181,21.2136,20.2418,10.0657,10.2210,10.7117,11.6229,13.1399,15.6595,20.1314,29.4302,57.9662,200.0000
-0.580,0,2922.61,-0.02,115.19,0,0.0000,0.0000,0.0000,0.5932,535.0127,10.0662,5.6906,-0.2747,-0.0096,-0.0349,4.3080,0.2159,-0.0727,0.0000,0.0000,-3.2532,3.5082,-4.9343,19.9343,10.0657,0.0349,straight,9.38,0.00,8.11,0.00,0.00,0,0.000,-0.582,0.000,0.00,24.76,4,200.0000,114.7969,58.2839,39.8686,31.0122,26.0223,23.0181,21.2136,20.2418,10.0657,10.2210,10.7117,11.6229,13.1399,15.6595,20.1314,29.4302,57.9662,200.0000
-0.560,0,2922.61,-0.02,115.19,0,0.0000,0.0000,0.0000,0.5932,535.0127,10.0662,5.6906,-0.2747,-0.0096,-0.0349,4.3080,0.2159,-0.0727,0.0000,0.0000,-3.2532,3.5082,-4.9343,19.9343,10.0657,0.0349,straight,9.38,0.00,8.11,0.00,0.00,0,0.000,-0.562,0.000,0.00,24.76,4,200.0000,114.7969,58.2839,39.8686,31.0122,26.0223,23.0181,21.2136,20.2418,10.0657,10.2210,10.7117,11.6229,13.1399,15.6595,20.1314,29.4302,57.9662,200.0000
-0.540,0,2922.61,-0.02,115.19,0,0.0000,0.0000,0.0000,0.5932,535.0127,10.0662,5.6906,-0.2747,-0.0096,-0.0349,4.3080,0.2159,-0.0727,0.0000,0.0000,-3.2532,3.5082,-4.9343,19.9343,10.0657,0.0349,straight,9.38,0.00,8.11,0.00,0.00,0,0.000,-0.542,0.000,0.00,24.76,4,200.0000,114.7969,58.2839,39.8686,31.0122,26.0223,23.0181,21.2136,20.2418,10.0657,10.2210,10.7117,11.6229,13.1399,15.6595,20.1314,29.4302,57.9662,200.0000
-0.520,0,2922.61,-0.02,115.19,0,0.0000,0.0000,0.0000,0.5932,535.0127,10.0662,5.6906,-0.2747,-0.0096,-0.0349,4.3080,0.2159,-0.0727,0.0000,0.0000,-3.2532,3.5082,-4.9343,19.9343,10.0657,0.0349,straight,9.38,0.00,8.11,0.00,0.00,0,0.000,-0.522,0.000,0.00,24.76,4,200.0000,114.7969,58.2839,39.8686,31.0122,26.0223,23.0181,21.2136,20.2418,10.0657,10.2210,10.7117,11.6229,13.1399,15.6595,20.1314,29.4302,57.9662,200.0000
-0.500,0,2922.61,-0.02,115.19,0,0.0000,0.0000,0.0000,0.5932,535.0127,10.0662,5.6906,-0.2747,-0.0096,-0.0349,4.3080,0.2159,-0.0727,0.0000,0.0000,-3.2532,3.5082,-4.9343,19.9343,10.0657,0.0349,straight,9.38,0.00,8.11,0.00,0.00,0,0.000,-0.502,0.000,0.00,24.76,4,200.0000,114.7969,58.2839,39.8686,31.0122,26.0223,23.0181,21.2136,20.2418,10.0657,10.2210,10.7117,11.6229,13.1399,15.6595,20.1314,29.4302,57.9662,200.0000
-0.480,0,2922.61,-0.02,115.19,0,0.0000,0.0000,0.0000,0.5932,535.0127,10.0662,5.6906,-0.2747,-0.0096,-0.0349,4.3080,0.2159,-0.0727,0.0000,0.0000,-3.2532,3.5082,-4.9343,19.9343,10.0657,0.0349,straight,9.38,0.00,8.11,0.00,0.00,0,0.000,-0.482,0.000,0.00,24.76,4,200.0000,114.7969,58.2839,39.8686,31.0122,26.0223,23.0181,21.2136,20.2418,10.0657,10.2210,10.7117,11.6229,13.1399,15.6595,20.1314,29.4302,57.9662,200.0000
-0.460,0,2922.61,-0.02,115.19,0,0.0000,0.0000,0.0000,0.5932,535.0127,10.0662,5.6906,-0.2747,-0.0096,-0.0349,4.3080,0.2159,-0.0727,0.0000,0.0000,-3.2532,3.5082,-4.9343,19.9343,10.0657,0.0349,straight,9.38,0.00,8.11,0.00,0.00,0,0.000,-0.462,0.000,0.00,24.76,4,200.0000,114.7969,58.2839,39.8686,31.0122,26.0223,23.0181,21.2136,20.2418,10.0657,10.2210,10.7117,11.6229,13.1399,15.6595,20.1314,29.4302,57.9662,200.0000
-0.440,0,2922.61,-0.02,115.19,0,0.0000,0.0000,0.0000,0.5932,535.0127,10.0662,5.6906,-0.2747,-0.0096,-0.0349,4.3080,0.2159,-0.0727,0.0000,0.0000,-3.2532,3.5082,-4.9343,19.9343,10.0657,0.0349,straight,9.38,0.00,8.11,0.00,0.00,0,0.000,-0.442,0.000,0.00,24.76,4,200.0000,114.7969,58.2839,39.8686,31.0122,26.0223,23.0181,21.2136,20.2418,10.0657,10.2210,10.7117,11.6229,13.1399,15.6595,20.1314,29.4302,57.9662,200.0000
-0.420,0,2922.61,-0.02,115.19,0,0.0000,0.0000,0.0000,0.5932,535.0127,10.0662,5.6906,-0.2747,-0.0096,-0.0349,4.3080,0.2159,-0.0727,0.0000,0.0000,-3.2532,3.5082,-4.9343,19.9343,10.0657,0.0349,straight,9.38,0.00,8.11,0.00,0.00,0,0.000,-0.422,0.000,0.00,24.76,4,200.0000,114.7969,58.2839,39.8686,31.0122,26.0223,23.0181,21.2136,20.2418,10.0657,10.2210,10.7117,11.6229,13.1399,15.6595,20.1314,29.4302,57.9662,200.0000
-0.400,0,2922.61,-0.02,115.19,0,0.0000,0.0000,0.0000,0.5932,535.0127,10.0662,5.6906,-0.2747,-0.0096,-0.0349,4.3080,0.2159,-0.0727,0.0000,0.0000,-3.2532,3.5082,-4.9343,19.9343,10.0657,0.0349,straight,9.38,0.00,8.11,0.00,0.00,0,0.000,-0.402,0.000,0.00,24.76,4,200.0000,114.7969,58.2839,39.8686,31.0122,26.0223,23.0181,21.2136,20.2418,10.0657,10.2210,10.7117,11.6229,13.1399,15.6595,20.1314,29.4302,57.9662,200.0000
-0.380,0,2922.61,-0.02,115.19,0,0.0000,0.0000,0.0000,0.5932,535.0127,10.0662,5.6906,-0.2747,-0.0096,-0.0349,4.3080,0.2159,-0.0727,0.0000,0.0000,-3.2532,3.5082,-4.9343,19.9343,10.0657,0.0349,straight,9.38,0.00,8.11,0.00,0.00,0,0.000,-0.382,0.000,0.00,24.76,4,200.0000,114.7969,58.2839,39.8686,31.0122,26.0223,23.0181,21.2136,20.2418,10.0657,10.2210,10.7117,11.6229,13.1399,15.6595,20.1314,29.4302,57.9662,200.0000
-0.360,0,2922.61,-0.02,115.19,0,0.0000,0.0000,0.0000,0.5932,535.0127,10.0662,5.6906,-0.2747,-0.0096,-0.0349,4.3080,0.2159,-0.0727,0.0000,0.0000,-3.2532,3.5082,-4.9343,19.9343,10.0657,0.0349,straight,9.38,0.00,8.11,0.00,0.00,0,0.000,-0.362,0.000,0.00,24.76,4,200.0000,114.7969,58.2839,39.8686,31.0122,26.0223,23.0181,21.2136,20.2418,10.0657,10.2210,10.7117,11.6229,13.1399,15.6595,20.1314,29.4302,57.9662,200.0000
-0.340,0,2922.61,-0.02,115.19,0,0.0000,0.0000,0.0000,0.5932,535.0127,10.0662,5.6906,-0.2747,-0.0096,-0.0349,4.3080,0.2159,-0.0727,0.0000,0.0000,-3.2532,3.5082,-4.9343,19.9343,10.0657,0.0349,straight,9.38,0.00,8.11,0.00,0.00,0,0.000,-0.342,0.000,0.00,24.76,4,200.0000,114.7969,58.2839,39.8686,31.0122,26.0223,23.0181,21.2136,20.2418,10.0657,10.2210,10.7117,11.6229,13.1399,15.6595,20.1314,29.4302,57.9662,200.0000
-0.320,0,2922.61,-0.02,115.19,0,0.0000,0.0000,0.0000,0.5932,535.0127,10.0662,5.6906,-0.2747,-0.0096,-0.0349,4.3080,0.2159,-0.0727,0.0000,0.0000,-3.2532,3.5082,-4.9343,19.9343,10.0657,0.0349,straight,9.38,0.00,8.11,0.00,0.00,0,0.000,-0.322,0.000,0.00,24.76,4,200.0000,114.7969,58.2839,39.8686,31.0122,26.0223,23.0181,21.2136,20.2418,10.0657,10.2210,10.7117,11.6229,13.1399,15.6595,20.1314,29.4302,57.9662,200.0000
-0.300,0,2922.61,-0.02,115.19,0,0.0000,0.0000,0.0000,0.5932,535.0127,10.0662,5.6906,-0.2747,-0.0096,-0.0349,4.3080,0.2159,-0.0727,0.0000,0.0000,-3.2532,3.5082,-4.9343,19.9343,10.0657,0.0349,straight,9.38,0.00,8.11,0.00,0.00,0,0.000,-0.302,0.000,0.00,24.76,4,200.0000,114.7969,58.2839,39.8686,31.0122,26.0223,23.0181,21.2136,20.2418,10.0657,10.2210,10.7117,11.6229,13.1399,15.6595,20.1314,29.4302,57.9662,200.0000
-0.280,0,2922.61,-0.02,115.19,0,0.0000,0.0000,0.0000,0.5932,535.0127,10.0662,5.6906,-0.2747,-0.0096,-0.0349,4.3080,0.2159,-0.0727,0.0000,0.0000,-3.2532,3.5082,-4.9343,19.9343,10.0657,0.0349,straight,9.38,0.00,8.11,0.00,0.00,0,0.000,-0.282,0.000,0.00,24.76,4,200.0000,114.7969,58.2839,39.8686,31.0122,26.0223,23.0181,21.2136,20.2418,10.0657,10.2210,10.7117,11.6229,13.1399,15.6595,20.1314,29.4302,57.9662,200.0000
-0.260,0,2922.61,-0.02,115.19,0,0.0000,0.0000,0.0000,0.5932,535.0127,10.0662,5.6906,-0.2747,-0.0096,-0.0349,4.3080,0.2159,-0.0727,0.0000,0.0000,-3.2532,3.5082,-4.9343,19.9343,10.0657,0.0349,straight,9.38,0.00,8.11,0.00,0.00,0,0.000,-0.262,0.000,0.00,24.76,4,200.0000,114.7969,58.2839,39.8686,31.0122,26.0223,23.0181,21.2136,20.2418,10.0657,10.2210,10.7117,11.6229,13.1399,15.6595,20.1314,29.4302,57.9662,200.0000
-0.240,0,2922.61,-0.02,115.19,0,0.0000,0.0000,0.0000,0.5932,535.0127,10.0662,5.6906,-0.2747,-0.0096,-0.0349,4.3080,0.2159,-0.0727,0.0000,0.0000,-3.2532,3.5082,-4.9343,19.9343,10.0657,0.0349,straight,9.38,0.00,8.11,0.00,0.00,0,0.000,-0.242,0.000,0.00,24.76,4,200.0000,114.7969,58.2839,39.8686,31.0122,26.0223,23.0181,21.2136,20.2418,10.0657,10.2210,10.7117,11.6229,13.1399,15.6595,20.1314,29.4302,57.9662,200.0000
-0.220,0,2922.61,-0.02,115.19,0,0.0000,0.0000,0.0000,0.5932,535.0127,10.0662,5.6906,-0.2747,-0.0096,-0.0349,4.3080,0.2159,-0.0727,0.0000,0.0000,-3.2532,3.5082,-4.9343,19.9343,10.0657,0.0349,straight,9.38,0.00,8.11,0.00,0.00,0,0.000,-0.222,0.000,0.00,24.76,4,200.0000,114.7969,58.2839,39.8686,31.0122,26.0223,23.0181,21.2136,20.2418,10.0657,10.2210,10.7117,11.6229,13.1399,15.6595,20.1314,29.4302,57.9662,200.0000
-0.200,0,2922.61,-0.02,115.19,0,0.0000,0.0000,0.0000,0.5932,535.0127,10.0662,5.6906,-0.2747,-0.0096,-0.0349,4.3080,0.2159,-0.0727,0.0000,0.0000,-3.2532,3.5082,-4.9343,19.9343,10.0657,0.0349,straight,9.38,0.00,8.11,0.00,0.00,0,0.000,-0.202,0.000,0.00,24.76,4,200.0000,114.7969,58.2839,39.8686,31.0122,26.0223,23.0181,21.2136,20.2418,10.0657,10.2210,10.7117,11.6229,13.1399,15.6595,20.1314,29.4302,57.9662,200.0000
-0.180,0,2922.61,-0.02,115.19,0,0.0000,0.0000,0.0000,0.5932,535.0127,10.0662,5.6906,-0.2747,-0.0096,-0.0349,4.3080,0.2159,-0.0727,0.0000,0.0000,-3.2532,3.5082,-4.9343,19.9343,10.0657,0.0349,straight,9.38,0.00,8.11,0.00,0.00,0,0.000,-0.182,0.000,0.00,24.76,4,200.0000,114.7969,58.2839,39.8686,31.0122,26.0223,23.0181,21.2136,20.2418,10.0657,10.2210,10.7117,11.6229,13.1399,15.6595,20.1314,29.4302,57.9662,200.0000
-0.160,0,2922.61,-0.02,115.19,0,0.0000,0.0000,0.0000,0.5932,535.0127,10.0662,5.6906,-0.2747,-0.0096,-0.0349,4.3080,0.2159,-0.0727,0.0000,0.0000,-3.2532,3.5082,-4.9343,19.9343,10.0657,0.0349,straight,9.38,0.00,8.11,0.00,0.00,0,0.000,-0.162,0.000,0.00,24.76,4,200.0000,114.7969,58.2839,39.8686,31.0122,26.0223,23.0181,21.2136,20.2418,10.0657,10.2210,10.7117,11.6229,13.1399,15.6595,20.1314,29.4302,57.9662,200.0000
-0.140,0,2922.61,-0.02,115.19,0,0.0000,0.0000,0.0000,0.5932,535.0127,10.0662,5.6906,-0.2747,-0.0096,-0.0349,4.3080,0.2159,-0.0727,0.0000,0.0000,-3.2532,3.5082,-4.9343,19.9343,10.0657,0.0349,straight,9.38,0.00,8.11,0.00,0.00,0,0.000,-0.142,0.000,0.00,24.76,4,200.0000,114.7969,58.2839,39.8686,31.0122,26.0223,23.0181,21.2136,20.2418,10.0657,10.2210,10.7117,11.6229,13.1399,15.6595,20.1314,29.4302,57.9662,200.0000
-0.120,0,2922.61,-0.02,115.19,0,0.0000,0.0000,0.0000,0.5932,535.0127,10.0662,5.6906,-0.2747,-0.0096,-0.0349,4.3080,0.2159,-0.0727,0.0000,0.0000,-3.2532,3.5082,-4.9343,19.9343,10.0657,0.0349,straight,9.38,0.00,8.11,0.00,0.00,0,0.000,-0.122,0.000,0.00,24.76,4,200.0000,114.7969,58.2839,39.8686,31.0122,26.0223,23.0181,21.2136,20.2418,10.0657,10.2210,10.7117,11.6229,13.1399,15.6595,20.1314,29.4302,57.9662,200.0000
-0.100,0,2922.61,-0.02,115.19,0,0.0000,0.0000,0.0000,0.5932,535.0127,10.0662,5.6906,-0.2747,-0.0096,-0.0349,4.3080,0.2159,-0.0727,0.0000,0.0000,-3.2532,3.5082,-4.9343,19.9343,10.0657,0.0349,straight,9.38,0.00,8.11,0.00,0.00,0,0.000,-0.102,0.000,0.00,24.76,4,200.0000,114.7969,58.2839,39.8686,31.0122,26.0223,23.0181,21.2136,20.2418,10.0657,10.2210,10.7117,11.6229,13.1399,15.6595,20.1314,29.4302,57.9662,200.0000
-0.080,0,2922.61,-0.02,115.19,0,0.0000,0.0000,0.0000,0.5932,535.0127,10.0662,5.6906,-0.2747,-0.0096,-0.0349,4.3080,0.2159,-0.0727,0.0000,0.0000,-3.2532,3.5082,-4.9343,19.9343,10.0657,0.0349,straight,9.38,0.00,8.11,0.00,0.00,0,0.000,-0.082,0.000,0.00,24.76,4,200.0000,114.7969,58.2839,39.8686,31.0122,26.0223,23.0181,21.2136,20.2418,10.0657,10.2210,10.7117,11.6229,13.1399,15.6595,20.1314,29.4302,57.9662,200.0000
-0.060,0,2922.61,-0.02,115.19,0,0.0000,0.0000,0.0000,0.5932,535.0127,10.0662,5.6906,-0.2747,-0.0096,-0.0349,4.3080,0.2159,-0.0727,0.0000,0.0000,-3.2532,3.5082,-4.9343,19.9343,10.0657,0.0349,straight,9.38,0.00,8.11,0.00,0.00,0,0.000,-0.062,0.000,0.00,24.76,4,200.0000,114.7969,58.2839,39.8686,31.0122,26.0223,23.0181,21.2136,20.2418,10.0657,10.2210,10.7117,11.6229,13.1399,15.6595,20.1314,29.4302,57.9662,200.0000
-0.040,0,2922.61,-0.02,115.19,0,0.0000,0.0000,0.0000,0.5932,535.0127,10.0662,5.6906,-0.2747,-0.0096,-0.0349,4.3080,0.2159,-0.0727,0.0000,0.0000,-3.2532,3.5082,-4.9343,19.9343,10.0657,0.0349,straight,9.38,0.00,8.11,0.00,0.00,0,0.000,-0.042,0.000,0.00,24.76,4,200.0000,114.7969,58.2839,39.8686,31.0122,26.0223,23.0181,21.2136,20.2418,10.0657,10.2210,10.7117,11.6229,13.1399,15.6595,20.1314,29.4302,57.9662,200.0000
-0.020,0,2922.61,-0.02,115.19,0,0.0000,0.0000,0.0000,0.5932,535.0127,10.0662,5.6906,-0.2747,-0.0096,-0.0349,4.3080,0.2159,-0.0727,0.0000,0.0000,-3.2532,3.5082,-4.9343,19.9343,10.0657,0.0349,straight,9.38,0.00,8.11,0.00,0.00,0,0.000,-0.022,0.000,0.00,24.76,4,200.0000,114.7969,58.2839,39.8686,31.0122,26.0223,23.0181,21.2136,20.2418,10.0657,10.2210,10.7117,11.6229,13.1399,15.6595,20.1314,29.4302,57.9662,200.0000
0.020,0,2922.61,-0.06,115.19,0,0.0000,0.0000,0.0000,0.5932,535.0126,10.0673,5.6904,-0.2746,-0.0097,-0.0357,-0.1001,2.2688,-0.1481,5.8169,-3.2933,4.2123,-4.2230,-4.9331,19.9331,10.0669,0.0357,straight,9.38,0.00,8.11,0.00,0.00,0,0.000,0.018,0.000,0.00,24.76,4,200.0000,114.7904,58.2806,39.8663,31.0105,26.0209,23.0168,21.2124,20.2406,10.0669,10.2221,10.7129,11.6242,13.1413,15.6612,20.1337,29.4335,57.9727,200.0000
0.040,0,2922.61,-0.07,115.19,1,0.0000,0.0000,0.0000,0.5932,535.0126,10.0693,5.6900,-0.2743,-0.0098,-0.0363,-0.1139,1.9997,-0.3659,-2.4141,5.1549,-3.4122,3.5951,-4.9312,19.9312,10.0688,0.0363,straight,9.38,0.00,8.11,0.00,0.00,0,0.000,0.038,0.000,0.00,24.76,4,200.0000,114.7791,58.2749,39.8624,31.0074,26.0183,23.0145,21.2103,20.2386,10.0688,10.2241,10.7150,11.6265,13.1439,15.6643,20.1376,29.4393,57.9840,200.0000
0.060,0,2922.61,-0.07,115.19,1,0.0000,0.0000,0.0000,0.5532,535.0126,10.0720,5.6896,-0.2738,-0.0099,-0.0370,-0.0999,1.9373,-0.2510,5.1090,-2.5160,3.5424,-3.4910,-4.9284,19.9284,10.0716,0.0370,straight,9.38,0.00,8.11,0.00,0.00,0,0.000,0.058,0.000,0.00,24.76,4,200.0000,114.7632,58.2668,39.8568,31.0031,26.0147,23.0114,21.2074,20.2358,10.0716,10.2270,10.7180,11.6297,13.1475,15.6686,20.1432,29.4473,57.9999,200.0000
0.080,0,2922.61,-0.08,115.19,1,0.0000,0.0000,0.0000,0.5132,535.0125,10.0755,5.6890,-0.2734,-0.0101,-0.0376,0.0340,1.9154,-0.6119,-2.3787,5.0980,-3.3473,3.4805,-4.9249,19.9249,10.0751,0.0375,straight,9.38,0.00,8.11,0.00,0.00,0,0.000,0.078,0.000,0.00,24.76,4,200.0000,114.7428,58.2565,39.8498,30.9976,26.0101,23.0073,21.2036,20.2323,10.0751,10.2305,10.7217,11.6337,13.1521,15.6741,20.1502,29.4577,58.0202,200.0000
0.100,0,2922.61,-0.09,115.19,1,0.0000,0.0000,0.0000,0.4732,535.0123,10.0798,5.6882,-0.2729,-0.0104,-0.0383,-0.0028,1.8835,-0.6914,4.8624,-2.3154,3.5813,-3.5069,-4.9206,19.9206,10.0794,0.0383,straight,9.38,0.00,8.11,0.00,0.00,0,0.000,0.098,0.000,0.00,24.76,4,200.0000,114.7181,58.2439,39.8412,30.9910,26.0045,23.0023,21.1991,20.2279,10.0794,10.2349,10.7263,11.6387,13.1577,15.6808,20.1588,29.4702,58.0449,200.0000
0.120,0,2922.61,-0.10,115.19,1,0.0000,0.0000,0.0000,0.4332,535.0121,10.0849,5.6872,-0.2726,-0.0106,-0.0388,-0.0251,1.8676,-0.5501,-2.4857,5.0045,-3.2669,3.5238,-4.9156,19.9156,10.0844,0.0388,straight,9.38,0.00,8.11,0.00,0.00,0,0.000,0.118,0.000,0.00,24.76,4,200.0000,114.6891,58.2292,39.8311,30.9831,25.9979,22.9965,21.1937,20.2228,10.0844,10.2400,10.7316,11.6445,13.1643,15.6886,20.1689,29.4849,58.0740,200.0000
0.140,0,2922.61,-0.10,115.19,1,0.0000,0.0000,0.0000,0.3932,535.0118,10.0907,5.6859,-0.2723,-0.0109,-0.0395,-0.1278,1.8688,-0.9053,4.8171,-2.3507,3.5639,-3.2819,-4.9098,19.9098,10.0902,0.0395,straight,9.38,0.00,8.11,0.00,0.00,0,0.000,0.138,0.000,0.00,24.76,4,200.0000,114.6558,58.2123,39.8196,30.9741,25.9904,22.9898,21.1875,20.2169,10.0902,10.2459,10.7378,11.6512,13.1718,15.6976,20.1804,29.5018,58.1072,200.0000
0.160,0,2922.61,-0.11,115.19,1,0.0000,0.0000,0.0000,0.3532,535.0112,10.0972,5.6843,-0.2721,-0.0111,-0.0401,-0.2356,1.8202,-0.5837,-2.3367,4.9491,-3.5765,3.7201,-4.9033,19.9033,10.0967,0.0401,straight,9.38,0.00,8.11,0.00,0.00,0,0.000,0.158,0.000,0.00,24.76,4,200.0000,114.6183,58.1933,39.8065,30.9640,25.9819,22.9823,21.1806,20.2103,10.0967,10.2525,10.7447,11.6587,13.1804,15.7077,20.1935,29.5209,58.1448,200.0000
0.180,0,2922.61,-0.12,115.19,1,0.0000,0.0000,0.0000,0.3132,535.0106,10.1044,5.6825,-0.2720,-0.0113,-0.0408,-0.2388,1.8296,-0.4072,4.9677,-2.3922,3.6965,-3.6732,-4.8960,19.8960,10.1040,0.0407,straight,9.38,0.00,8.11,0.00,0.00,0,0.000,0.178,0.000,0.00,24.76,4,200.0000,114.5766,58.1721,39.7920,30.9527,25.9724,22.9740,21.1729,20.2030,10.1040,10.2598,10.7524,11.6671,13.1898,15.7190,20.2080,29.5420,58.1865,200.0000
0.200,0,2922.61,-0.13,115.19,1,0.0000,0.0000,0.0000,0.2732,535.0099,10.1124,5.6805,-0.2720,-0.0116,-0.0413,-0.1370,1.7646,0.0992,-2.5114,4.9343,-3.5449,3.6817,-4.8881,19.8881,10.1119,0.0412,straight,9.38,0.00,8.11,0.00,0.00,0,0.000,0.198,0.000,0.00,24.76,4,200.0000,114.5308,58.1488,39.7761,30.9403,25.9620,22.9648,21.1644,20.1949,10.1119,10.2679,10.7609,11.6763,13.2002,15.7314,20.2239,29.5653,58.2323,200.0000
0.220,0,2922.61,-0.13,115.19,1,0.0000,0.0000,0.0000,0.2332,535.0093,10.1210,5.6782,-0.2720,-0.0118,-0.0419,-0.0981,1.7163,0.0267,4.8355,-2.5837,3.5565,-3.4773,-4.8794,19.8794,10.1206,0.0419,straight,9.38,0.00,8.11,0.00,0.00,0,0.000,0.218,0.000,0.00,24.76,4,200.0000,114.4808,58.1234,39.7588,30.9268,25.9507,22.9547,21.1552,20.1861,10.1206,10.2767,10.7701,11.6863,13.2115,15.7449,20.2412,29.5907,58.2823,200.0000
0.240,0,2922.61,-0.15,115.19,1,0.0000,0.0000,0.0000,0.1932,535.0087,10.1304,5.6756,-0.2720,-0.0120,-0.0424,0.0819,1.7011,0.1602,-2.2811,4.9986,-3.3501,3.6235,-4.8700,19.8700,10.1300,0.0424,straight,9.38,0.00,8.11,0.00,0.00,0,0.000,0.238,0.000,0.00,24.76,4,200.0000,114.4268,58.0960,39.7400,30.9122,25.9384,22.9439,21.1452,20.1765,10.1300,10.2863,10.7801,11.6971,13.2238,15.7595,20.2600,29.6181,58.3363,200.0000
0.262,0,2922.61,-0.16,115.19,1,0.0000,0.0000,0.0000,0.1532,535.0081,10.1415,5.6726,-0.2720,-0.0122,-0.0430,-1.1774,1.8573,0.3400,-2.6060,5.3280,-3.4311,3.7351,-4.8589,19.8589,10.1411,0.0430,straight,9.38,0.00,8.11,0.00,0.00,0,0.000,0.260,0.000,0.00,24.76,4,200.0000,114.3628,58.0635,39.7178,30.8949,25.9239,22.9311,21.1334,20.1652,10.1411,10.2976,10.7919,11.7099,13.2383,15.7768,20.2822,29.6506,58.4003,200.0000
0.282,0,2922.61,-0.16,115.19,1,0.0000,0.0000,0.0000,0.1132,535.0074,10.1524,5.6697,-0.2721,-0.0124,-0.0436,0.6673,1.4255,0.5250,5.1559,-2.9057,3.8080,-3.4459,-4.8481,19.8481,10.1519,0.0436,straight,9.38,0.00,8.12,0.00,0.00,0,0.000,0.280,0.000,0.00,24.76,4,200.0000,114.3005,58.0319,39.6961,30.8781,25.9098,22.9186,21.1219,20.1543,10.1519,10.3085,10.8035,11.7224,13.2524,15.7936,20.3039,29.6823,58.4626,200.0000
0.302,0,2922.61,-0.19,115.19,1,0.0000,0.0000,0.0000,0.0732,535.0068,10.1638,5.6666,-0.2722,-0.0126,-0.0442,-0.1820,1.6982,0.1359,-2.4625,5.5213,-3.3467,3.7320,-4.8366,19.8366,10.1634,0.0442,straight,9.38,0.00,8.12,0.00,0.00,0,0.000,0.300,0.000,0.00,24.76,4,200.0000,114.2344,57.9983,39.6732,30.8603,25.8948,22.9053,21.1097,20.1426,10.1634,10.3202,10.8157,11.7357,13.2674,15.8114,20.3268,29.7158,58.5287,200.0000
0.322,0,2922.61,-0.20,115.19,1,0.0000,0.0000,0.0000,0.0332,535.0062,10.1759,5.6633,-0.2722,-0.0128,-0.0448,0.6315,1.2683,-0.5045,5.0990,-2.4034,3.6660,-2.6851,-4.8245,19.8245,10.1755,0.0448,straight,9.38,0.00,8.12,0.00,0.00,0,0.000,0.320,0.000,0.00,24.76,4,200.0000,114.1649,57.9631,39.6491,30.8415,25.8791,22.8914,21.0968,20.1304,10.1755,10.3324,10.8285,11.7496,13.2831,15.8302,20.3509,29.7511,58.5981,200.0000
0.342,0,2922.60,0.25,115.19,1,0.0000,1.0000,0.0000,0.0000,535.0067,10.1882,5.6598,-0.2724,-0.0132,-0.0453,-5.4289,-4.5557,-0.2964,-2.4162,3.1581,-1.5531,7.8870,-4.8123,19.8123,10.1877,0.0453,straight,9.38,0.00,8.12,0.00,0.00,0,0.000,0.340,0.000,0.00,24.76,4,200.0000,114.0943,57.9272,39.6245,30.8224,25.8631,22.8772,21.0838,20.1179,10.1877,10.3449,10.8416,11.7638,13.2991,15.8493,20.3755,29.7869,58.6688,200.0000
0.362,0,2922.61,0.66,115.19,1,0.0000,1.0000,0.0000,0.0000,535.0101,10.1993,5.6562,-0.2732,-0.0141,-0.0454,0.7901,-3.1394,0.2197,6.5089,0.3500,7.2876,0.1360,-4.8011,19.8011,10.1989,0.0454,straight,9.38,0.00,8.11,0.00,0.00,0,0.000,0.360,0.000,0.00,24.76,4,200.0000,114.0300,57.8946,39.6022,30.8051,25.8485,22.8643,21.0719,20.1066,10.1989,10.3562,10.8534,11.7767,13.3137,15.8667,20.3978,29.8196,58.7331,200.0000
0.382,0,2922.61,1.25,115.19,1,0.0000,1.0000,0.0000,0.0000,535.0161,10.2080,5.6528,-0.2747,-0.0151,-0.0451,5.5522,-8.6430,0.9722,6.4319,-0.9929,1.0187,4.3301,-4.7925,19.7925,10.2075,0.0451,straight,9.38,0.00,8.11,0.00,0.00,0,0.000,0.380,0.000,0.00,24.76,4,200.0000,113.9803,57.8693,39.5850,30.7916,25.8372,22.8544,21.0627,20.0978,10.2075,10.3650,10.8626,11.7866,13.3250,15.8801,20.4150,29.8448,58.7827,200.0000
0.402,0,2922.61,1.80,115.19,1,0.0000,1.0000,0.0000,0.0000,535.0247,10.2133,5.6498,-0.2769,-0.0163,-0.0446,6.7870,-6.7817,1.5546,-1.1358,6.4408,1.4166,1.8102,-4.7871,19.7871,10.2129,0.0446,straight,9.38,0.00,8.10,0.00,0.00,0,0.000,0.400,0.000,0.00,24.76,4,200.0000,113.9493,57.8536,39.5742,30.7833,25.8302,22.8482,21.0570,20.0923,10.2129,10.3705,10.8683,11.7928,13.3320,15.8885,20.4258,29.8605,58.8138,200.0000
0.422,0,2922.62,2.23,115.19,1,0.0000,1.0000,0.0000,0.0000,535.0358,10.2160,5.6474,-0.2790,-0.0174,-0.0443,17.4959,-3.5847,2.6628,6.9369,-1.6077,8.2673,1.5325,-4.7844,19.7844,10.2156,0.0443,straight,9.38,0.00,8.09,0.00,0.00,0,0.000,0.420,0.000,0.00,24.76,4,200.0000,113.9339,57.8458,39.5689,30.7791,25.8267,22.8451,21.0541,20.0896,10.2156,10.3732,10.8712,11.7959,13.3355,15.8926,20.4311,29.8683,58.8291,200.0000
0.442,0,2922.63,2.55,115.19,1,0.0000,1.0000,0.0000,0.0000,535.0496,10.2170,5.6457,-0.2805,-0.0183,-0.0438,2.0114,0.2610,1.8674,3.1268,9.4843,2.3683,11.4663,-4.7835,19.7835,10.2165,0.0438,straight,9.38,0.00,8.07,0.00,0.00,0,0.000,0.440,0.000,0.00,24.76,4,200.0000,113.9284,57.8430,39.5669,30.7776,25.8255,22.8440,21.0531,20.0886,10.2165,10.3741,10.8722,11.7970,13.3367,15.8941,20.4331,29.8712,58.8347,200.0000
0.462,0,2922.65,3.14,115.19,1,0.0000,1.0000,0.0000,0.0000,535.0660,10.2173,5.6449,-0.2811,-0.0190,-0.0435,4.8759,-0.0044,1.2442,7.1153,2.9722,9.7138,2.2803,-4.7831,19.7831,10.2169,0.0435,straight,9.38,0.00,8.06,0.00,0.00,0,0.000,0.460,0.000,0.00,24.76,4,200.0000,113.9265,57.8420,39.5663,30.7771,25.8250,22.8436,21.0528,20.0883,10.2169,10.3745,10.8726,11.7974,13.3372,15.8946,20.4337,29.8721,58.8366,200.0000
0.482,0,2922.66,3.61,115.19,1,0.0000,1.0000,0.0000,0.0000,535.0851,10.2173,5.6447,-0.2809,-0.0195,-0.0432,5.0288,0.1787,0.8621,9.4578,2.1121,2.9061,11.1297,-4.7832,19.7832,10.2168,0.0432,straight,9.38,0.00,8.04,0.00,0.00,0,0.000,0.480,0.000,0.00,24.76,4,200.0000,113.9267,57.8421,39.5664,30.7772,25.8251,22.8436,21.0528,20.0884,10.2168,10.3744,10.8725,11.7974,13.3371,15.8946,20.4336,29.8720,58.8363,200.0000
0.504,0,2922.68,4.13,121.87,1,0.0000,1.0000,0.0000,0.0000,535.1093,10.2170,5.6451,-0.2801,-0.0197,-0.0433,7.2053,-0.1357,0.7742,4.4694,10.0087,4.3536,10.1912,-4.7834,19.7834,10.2166,0.0433,straight,9.38,0.00,8.01,0.00,0.00,0,0.000,0.502,0.000,0.00,24.76,4,200.0000,113.9281,57.8428,39.5668,30.7775,25.8254,22.8439,21.0531,20.0886,10.2166,10.3742,10.8723,11.7971,13.3368,15.8942,20.4332,29.8713,58.8349,200.0000
0.524,0,2922.71,4.77,115.30,1,0.0000,1.0000,0.0000,0.0000,535.1342,10.2168,5.6458,-0.2791,-0.0199,-0.0432,18.4506,-0.8024,1.0652,6.7547,3.8712,8.2761,3.8076,-4.7837,19.7837,10.2163,0.0432,straight,9.38,0.00,7.99,0.00,0.00,0,0.000,0.522,0.000,0.00,24.76,4,200.0000,113.9296,57.8436,39.5674,30.7779,25.8258,22.8442,21.0533,20.0889,10.2163,10.3739,10.8720,11.7968,13.3365,15.8938,20.4326,29.8705,58.8335,200.0000
0.544,0,2922.73,5.19,120.00,1,0.0000,1.0000,0.0000,0.0000,535.1619,10.2164,5.6468,-0.2780,-0.0200,-0.0430,6.8981,-0.9967,1.6099,5.3408,7.2024,3.6461,12.2114,-4.7840,19.7840,10.2160,0.0430,straight,9.38,0.00,7.96,0.00,0.00,0,0.000,0.542,0.000,0.00,24.76,4,200.0000,113.9316,57.8446,39.5680,30.7785,25.8262,22.8446,21.0537,20.0892,10.2160,10.3736,10.8716,11.7964,13.3360,15.8933,20.4320,29.8695,58.8315,200.0000
0.564,0,2922.76,5.78,115.19,1,0.0000,1.0000,0.0000,0.0000,535.1927,10.2160,5.6477,-0.2771,-0.0201,-0.0431,5.0837,-0.9858,1.5808,5.3788,6.7536,10.6097,1.1068,-4.7845,19.7845,10.2155,0.0431,straight,9.38,0.00,7.93,0.00,0.00,0,0.000,0.562,0.000,0.00,24.76,4,200.0000,113.9343,57.8460,39.5690,30.7792,25.8268,22.8452,21.0542,20.0897,10.2155,10.3731,10.8711,11.7959,13.3354,15.8925,20.4310,29.8682,58.8288,200.0000
0.584,0,2922.79,6.25,125.37,1,0.0000,1.0000,0.0000,0.0000,535.2261,10.2154,5.6487,-0.2763,-0.0202,-0.0431,9.6263,0.3649,-0.2446,8.5202,6.4923,2.4934,10.5881,-4.7851,19.7851,10.2149,0.0430,straight,9.38,0.00,7.90,0.00,0.00,0,0.000,0.582,0.000,0.00,24.76,4,200.0000,113.9376,57.8477,39.5701,30.7801,25.8276,22.8458,21.0548,20.0903,10.2149,10.3725,10.8705,11.7952,13.3346,15.8916,20.4299,29.8665,58.8254,200.0000
0.604,0,2922.82,6.80,118.55,1,0.0000,1.0000,0.0000,0.0000,535.2626,10.2147,5.6495,-0.2756,-0.0202,-0.0431,8.3437,-0.6403,0.3993,7.0794,7.0747,9.6613,2.9147,-4.7857,19.7857,10.2143,0.0430,straight,9.38,0.00,7.86,0.00,0.00,0,0.000,0.602,0.000,0.00,24.76,4,200.0000,113.9412,57.8495,39.5714,30.7811,25.8284,22.8466,21.0555,20.0909,10.2143,10.3719,10.8698,11.7945,13.3338,15.8906,20.4286,29.8646,58.8218,200.0000
0.624,0,2922.86,7.26,128.28,1,0.0000,1.0000,0.0000,0.0000,535.3019,10.2140,5.6503,-0.2750,-0.0201,-0.0430,5.2483,0.3823,0.0005,6.8297,7.7660,4.6128,11.8187,-4.7865,19.7865,10.2135,0.0430,straight,9.38,0.00,7.82,0.00,0.00,0,0.000,0.622,0.000,0.00,24.76,4,200.0000,113.9456,57.8517,39.5729,30.7823,25.8294,22.8474,21.0563,20.0917,10.2135,10.3711,10.8690,11.7936,13.3328,15.8895,20.4271,29.8624,58.8175,200.0000
0.644,0,2922.90,7.77,136.30,1,0.0000,1.0000,0.0000,0.0000,535.3440,10.2132,5.6510,-0.2744,-0.0200,-0.0429,2.8616,-0.2124,-1.1637,11.0099,6.7291,10.4959,5.0119,-4.7873,19.7873,10.2127,0.0429,straight,9.38,0.00,7.78,0.00,0.00,0,0.000,0.642,0.000,0.00,24.76,4,200.0000,113.9503,57.8541,39.5745,30.7835,25.8304,22.8484,21.0572,20.0925,10.2127,10.3703,10.8682,11.7927,13.3318,15.8882,20.4255,29.8600,58.8128,200.0000
0.664,0,2922.94,8.40,140.27,1,0.0000,1.0000,0.0000,0.0000,535.3889,10.2123,5.6516,-0.2741,-0.0199,-0.0429,7.2206,-0.6282,0.4778,6.1814,10.7082,5.1776,10.6390,-4.7881,19.7881,10.2119,0.0429,straight,9.38,0.00,7.73,0.00,0.00,0,0.000,0.662,0.000,0.00,24.76,4,200.0000,113.9553,57.8566,39.5763,30.7849,25.8316,22.8494,21.0581,20.0934,10.2119,10.3694,10.8672,11.7916,13.3306,15.8868,20.4237,29.8575,58.8078,200.0000
0.684,0,2922.99,8.84,174.93,1,0.0000,1.0000,0.0000,0.0000,535.4370,10.2113,5.6521,-0.2741,-0.0200,-0.0428,5.9241,0.3814,-2.0901,14.2717,6.4127,14.6484,7.1810,-4.7891,19.7891,10.2109,0.0428,straight,9.38,0.00,7.69,0.00,0.00,0,0.000,0.682,0.000,0.00,24.76,4,200.0000,113.9610,57.8595,39.5782,30.7864,25.8329,22.8505,21.0591,20.0944,10.2109,10.3684,10.8662,11.7905,13.3294,15.8853,20.4218,29.8546,58.8021,200.0000
0.704,0,2923.04,9.53,180.87,1,0.0000,1.0000,0.0000,0.0000,535.4881,10.2104,5.6526,-0.2741,-0.0202,-0.0427,10.4059,0.6715,-1.3338,8.1689,12.9771,7.3993,13.8313,-4.7900,19.7900,10.2100,0.0427,straight,9.38,0.00,7.63,0.00,0.00,0,0.000,0.702,0.000,0.00,24.76,4,200.0000,113.9663,57.8622,39.5801,30.7878,25.8341,22.8516,21.0601,20.0953,10.2100,10.3675,10.8652,11.7894,13.3282,15.8839,20.4199,29.8519,58.7968,200.0000
0.724,0,2923.09,10.24,170.63,1,0.0000,1.0000,0.0000,0.0000,535.5432,10.2094,5.6530,-0.2741,-0.0204,-0.0428,10.6998,-0.2748,0.5326,11.7457,7.9142,13.0306,6.6538,-4.7910,19.7910,10.2090,0.0428,straight,9.38,0.00,7.58,0.00,0.00,0,0.000,0.722,0.000,0.00,24.76,4,200.0000,113.9718,57.8650,39.5820,30.7893,25.8353,22.8527,21.0611,20.0963,10.2090,10.3665,10.8642,11.7883,13.3269,15.8824,20.4180,29.8491,58.7913,200.0000
0.744,0,2923.14,10.82,187.54,1,0.0000,1.0000,0.0000,0.0000,535.6018,10.2083,5.6533,-0.2741,-0.0207,-0.0427,7.8882,0.3777,-1.0260,9.2437,12.7806,7.3483,15.6114,-4.7922,19.7922,10.2078,0.0427,straight,9.38,0.00,7.52,0.00,0.00,0,0.000,0.742,0.000,0.00,24.76,4,200.0000,113.9785,57.8684,39.5843,30.7911,25.8368,22.8540,21.0624,20.0975,10.2078,10.3653,10.8630,11.7870,13.3254,15.8806,20.4157,29.8457,58.7846,200.0000
0.764,0,2923.20,11.48,198.20,1,0.0000,1.0000,0.0000,0.0000,535.6640,10.2070,5.6536,-0.2742,-0.0209,-0.0427,9.1091,-0.0792,-1.6983,13.6640,9.5660,16.2991,7.7075,-4.7934,19.7934,10.2066,0.0427,straight,9.38,0.00,7.46,0.00,0.00,0,0.000,0.762,0.000,0.00,24.76,4,200.0000,113.9858,57.8721,39.5869,30.7931,25.8385,22.8555,21.0637,20.0988,10.2066,10.3640,10.8616,11.7855,13.3237,15.8786,20.4131,29.8420,58.7773,200.0000
0.784,0,2923.26,12.15,211.92,1,0.0000,1.0000,0.0000,0.0000,535.7299,10.2056,5.6539,-0.2743,-0.0211,-0.0427,9.3275,0.5460,1.8902,10.8185,14.5531,9.8467,15.9437,-4.7949,19.7949,10.2051,0.0427,straight,9.38,0.00,7.39,0.00,0.00,0,0.000,0.782,0.000,0.00,24.76,4,200.0000,113.9940,57.8763,39.5897,30.7953,25.8403,22.8571,21.0652,20.1002,10.2051,10.3626,10.8601,11.7839,13.3219,15.8764,20.4103,29.8378,58.7691,200.0000
0.804,0,2923.33,12.89,214.57,1,0.0000,1.0000,0.0000,0.0000,535.7997,10.2040,5.6542,-0.2743,-0.0214,-0.0428,9.6440,-0.0274,0.3830,14.9728,10.7508,16.5489,9.1330,-4.7964,19.7964,10.2036,0.0428,straight,9.38,0.00,7.32,0.00,0.00,0,0.000,0.802,0.000,0.00,24.76,4,200.0000,114.0031,57.8809,39.5929,30.7978,25.8424,22.8589,21.0669,20.1018,10.2036,10.3610,10.8584,11.7821,13.3198,15.8739,20.4071,29.8333,58.7600,200.0000
0.824,0,2923.40,13.62,227.27,1,0.0000,1.0000,0.0000,0.0000,535.8734,10.2023,5.6545,-0.2744,-0.0216,-0.0428,12.1412,-0.2715,0.6744,12.3269,13.6315,10.2745,17.4829,-4.7981,19.7981,10.2019,0.0428,straight,9.38,0.00,7.25,0.00,0.00,0,0.000,0.822,0.000,0.00,24.76,4,200.0000,114.0129,57.8859,39.5963,30.8004,25.8446,22.8609,21.0687,20.1036,10.2019,10.3592,10.8566,11.7801,13.3176,15.8713,20.4037,29.8283,58.7502,200.0000
0.844,0,2923.47,14.34,232.36,1,0.0000,1.0000,0.0000,0.0000,535.9513,10.2004,5.6548,-0.2745,-0.0218,-0.0429,8.8055,-0.0910,-0.9798,15.1929,12.7935,18.0283,10.2225,-4.8001,19.8001,10.1999,0.0429,straight,9.38,0.00,7.17,0.00,0.00,0,0.000,0.842,0.000,0.00,24.76,4,200.0000,114.0240,57.8915,39.6001,30.8034,25.8472,22.8631,21.0708,20.1055,10.1999,10.3573,10.8545,11.7779,13.3151,15.8683,20.3999,29.8226,58.7391,200.0000
0.864,0,2923.55,15.09,244.79,1,0.0000,1.0000,0.0000,0.0000,536.0331,10.1982,5.6552,-0.2745,-0.0220,-0.0431,10.8149,-0.0121,0.4549,14.6488,14.0664,11.4696,18.6686,-4.8022,19.8022,10.1978,0.0431,straight,9.38,0.00,7.09,0.00,0.00,0,0.000,0.862,0.000,0.00,24.76,4,200.0000,114.0363,57.8978,39.6044,30.8068,25.8499,22.8656,21.0731,20.1077,10.1978,10.3551,10.8523,11.7754,13.3123,15.8650,20.3956,29.8164,58.7268,200.0000
0.884,0,2923.63,15.84,251.34,1,0.0000,1.0000,0.0000,0.0000,536.1193,10.1959,5.6557,-0.2746,-0.0221,-0.0433,9.3841,-0.4530,0.1718,15.2229,15.1927,19.0992,11.6361,-4.8046,19.8046,10.1954,0.0433,straight,9.38,0.00,7.00,0.00,0.00,0,0.000,0.882,0.000,0.00,24.76,4,200.0000,114.0499,57.9047,39.6091,30.8104,25.8530,22.8683,21.0756,20.1101,10.1954,10.3527,10.8498,11.7727,13.3092,15.8613,20.3909,29.8095,58.7132,200.0000
0.904,0,2923.72,16.59,264.66,1,0.0000,1.0000,0.0000,0.0000,536.2095,10.1933,5.6563,-0.2747,-0.0222,-0.0434,10.5447,0.1202,0.3390,15.7293,15.5611,12.9908,19.9423,-4.8071,19.8071,10.1929,0.0434,straight,9.38,0.00,6.91,0.00,0.00,0,0.000,0.902,0.000,0.00,24.76,4,200.0000,114.0646,57.9121,39.6142,30.8144,25.8564,22.8713,21.0783,20.1127,10.1929,10.3501,10.8470,11.7697,13.3059,15.8573,20.3858,29.8020,58.6985,200.0000
0.924,0,2923.81,17.36,276.95,1,0.0000,1.0000,0.0000,0.0000,536.3040,10.1906,5.6569,-0.2747,-0.0222,-0.0436,11.2203,0.1672,0.1019,16.7085,16.2797,20.7030,13.4451,-4.8099,19.8099,10.1901,0.0435,straight,9.38,0.00,6.82,0.00,0.00,0,0.000,0.922,0.000,0.00,24.76,4,200.0000,114.0804,57.9202,39.6197,30.8187,25.8599,22.8745,21.0812,20.1155,10.1901,10.3473,10.8441,11.7666,13.3023,15.8530,20.3803,29.7940,58.6826,200.0000
0.944,0,2923.90,18.13,287.67,1,0.0000,1.0000,0.0000,0.0000,536.4027,10.1877,5.6577,-0.2747,-0.0222,-0.0436,10.7238,0.1271,0.1425,17.2497,17.0701,14.6440,21.2099,-4.8128,19.8128,10.1872,0.0436,straight,9.38,0.00,6.72,0.00,0.00,0,0.000,0.942,0.000,0.00,24.76,4,200.0000,114.0971,57.9286,39.6255,30.8232,25.8637,22.8778,21.0843,20.1184,10.1872,10.3444,10.8410,11.7632,13.2985,15.8485,20.3745,29.7855,58.6660,200.0000
0.964,0,2924.00,18.92,300.78,1,0.0000,1.0000,0.0000,0.0000,536.5058,10.1846,5.6584,-0.2747,-0.0222,-0.0437,11.6551,0.0491,0.2309,18.2795,17.7590,21.9786,15.2081,-4.8158,19.8158,10.1842,0.0437,straight,9.38,0.00,6.62,0.00,0.00,0,0.000,0.962,0.000,0.00,24.76,4,200.0000,114.1147,57.9376,39.6316,30.8279,25.8677,22.8813,21.0875,20.1215,10.1842,10.3413,10.8378,11.7597,13.2945,15.8438,20.3684,29.7766,58.6484,200.0000
0.984,0,2924.10,19.71,313.71,1,0.0000,1.0000,0.0000,0.0000,536.6133,10.1814,5.6593,-0.2746,-0.0222,-0.0438,10.7427,0.1990,0.2472,19.1337,18.5973,16.5562,22.7652,-4.8190,19.8190,10.1810,0.0438,straight,9.38,0.00,6.51,0.00,0.00,0,0.000,0.982,0.000,0.00,24.76,4,200.0000,114.1331,57.9469,39.6380,30.8329,25.8719,22.8850,21.0910,20.1248,10.1810,10.3380,10.8344,11.7560,13.2903,15.8388,20.3620,29.7672,58.6299,200.0000
1.006,0,2924.21,20.62,323.99,1,0.0000,1.0000,0.0000,0.0000,536.7367,10.1777,5.6603,-0.2746,-0.0222,-0.0439,11.0972,0.1036,-0.1572,19.7038,19.7188,19.7303,20.3011,-4.8227,19.8227,10.1773,0.0438,straight,9.38,0.00,6.39,0.00,0.00,0,0.000,1.004,0.000,0.00,24.76,4,200.0000,114.1545,57.9578,39.6455,30.8387,25.8767,22.8893,21.0949,20.1285,10.1773,10.3343,10.8304,11.7517,13.2855,15.8330,20.3545,29.7564,58.6086,200.0000
1.026,0,2924.34,20.78,292.95,1,0.0000,0.2000,0.0000,0.0000,536.8519,10.1741,5.6613,-0.2746,-0.0220,-0.0438,2.3981,-0.0507,-0.4243,20.5873,17.6828,17.1995,21.2098,-4.8263,19.8263,10.1737,0.0438,straight,9.38,0.00,6.27,0.00,0.00,0,0.000,1.024,0.000,0.00,24.76,4,200.0000,114.1752,57.9683,39.6526,30.8443,25.8814,22.8935,21.0987,20.1322,10.1737,10.3306,10.8266,11.7476,13.2808,15.8274,20.3474,29.7459,58.5879,200.0000
1.046,0,2924.45,21.04,304.79,1,0.0000,0.4000,0.0000,0.0000,536.9680,10.1705,5.6623,-0.2746,-0.0212,-0.0439,3.7511,0.1322,-0.2565,17.9172,21.3318,22.4287,16.8330,-4.8299,19.8299,10.1701,0.0439,straight,9.38,0.00,6.15,0.00,0.00,0,0.000,1.044,0.000,0.00,24.76,4,200.0000,114.1961,57.9789,39.6599,30.8499,25.8862,22.8976,21.1026,20.1359,10.1701,10.3269,10.8227,11.7434,13.2761,15.8218,20.3401,29.7353,58.5670,200.0000
1.066,0,2924.57,21.50,320.59,1,0.0000,0.6000,0.0000,0.0000,537.0861,10.1668,5.6633,-0.2746,-0.0204,-0.0438,8.3778,0.2755,-0.2984,19.3758,20.5827,17.6216,23.2123,-4.8336,19.8336,10.1664,0.0438,straight,9.38,0.00,6.04,0.00,0.00,0,0.000,1.064,0.000,0.00,24.76,4,200.0000,114.2170,57.9895,39.6672,30.8556,25.8909,22.9018,21.1065,20.1395,10.1664,10.3233,10.8189,11.7392,13.2713,15.8161,20.3328,29.7246,58.5461,200.0000
1.086,0,2924.68,22.13,339.85,1,0.0000,0.8000,0.0000,0.0000,537.2073,10.1631,5.6643,-0.2746,-0.0198,-0.0438,10.2813,-0.0157,0.7006,22.6399,19.1840,23.9132,18.9470,-4.8373,19.8373,10.1627,0.0438,straight,9.38,0.00,5.92,0.00,0.00,0,0.000,1.084,0.000,0.00,24.76,4,200.0000,114.2385,58.0004,39.6746,30.8614,25.8958,22.9061,21.1104,20.1433,10.1627,10.3195,10.8149,11.7349,13.2665,15.8103,20.3254,29.7137,58.5246,200.0000
1.106,0,2924.81,22.98,353.55,1,0.0000,1.0000,0.0000,0.0000,537.3327,10.1592,5.6654,-0.2746,-0.0197,-0.0437,10.7104,-0.3503,0.0268,21.1700,22.0322,20.5754,23.6580,-4.8412,19.8412,10.1588,0.0437,straight,9.38,0.00,5.79,0.00,0.00,0,0.000,1.104,0.000,0.00,24.76,4,200.0000,114.2609,58.0118,39.6824,30.8674,25.9009,22.9107,21.1146,20.1473,10.1588,10.3155,10.8108,11.7304,13.2614,15.8043,20.3176,29.7023,58.5021,200.0000
1.126,0,2924.93,23.84,371.44,1,0.0000,1.0000,0.0000,0.0000,537.4630,10.1550,5.6665,-0.2746,-0.0200,-0.0437,12.5638,0.1762,0.4905,22.9943,22.5483,25.2949,20.6603,-4.8454,19.8454,10.1546,0.0437,straight,9.38,0.00,5.66,0.00,0.00,0,0.000,1.124,0.000,0.00,24.76,4,200.0000,114.2849,58.0240,39.6907,30.8739,25.9063,22.9155,21.1190,20.1515,10.1546,10.3113,10.8063,11.7256,13.2559,15.7978,20.3093,29.6902,58.4782,200.0000
1.146,0,2925.06,24.73,383.83,1,0.0000,1.0000,0.0000,0.0000,537.5980,10.1507,5.6676,-0.2745,-0.0205,-0.0436,11.8915,0.0722,0.5846,23.6740,23.3020,22.0197,25.9663,-4.8497,19.8497,10.1503,0.0436,straight,9.38,0.00,5.52,0.00,0.00,0,0.000,1.144,0.000,0.00,24.76,4,200.0000,114.3098,58.0366,39.6994,30.8806,25.9119,22.9205,21.1236,20.1559,10.1503,10.3069,10.8017,11.7206,13.2503,15.7911,20.3006,29.6775,58.4533,200.0000
1.166,0,2925.20,25.64,395.82,1,0.0000,1.0000,0.0000,0.0000,537.7381,10.1462,5.6688,-0.2745,-0.0213,-0.0435,12.8463,0.0687,-0.4054,24.6345,24.3339,25.9202,22.8586,-4.8542,19.8542,10.1458,0.0435,straight,9.38,0.00,5.38,0.00,0.00,0,0.000,1.164,0.000,0.00,24.76,4,200.0000,114.3357,58.0498,39.7084,30.8876,25.9178,22.9257,21.1284,20.1605,10.1458,10.3023,10.7969,11.7154,13.2444,15.7841,20.2916,29.6643,58.4273,200.0000
1.186,0,2925.34,26.56,410.01,1,0.0000,1.0000,0.0000,0.0000,537.8833,10.1416,5.6700,-0.2745,-0.0221,-0.0432,12.8054,0.0903,0.1871,25.6053,25.0484,24.1174,26.7066,-4.8589,19.8589,10.1411,0.0432,straight,9.38,0.00,5.24,0.00,0.00,0,0.000,1.184,0.000,0.00,24.76,4,200.0000,114.3626,58.0634,39.7177,30.8949,25.9239,22.9310,21.1334,20.1652,10.1411,10.2976,10.7920,11.7100,13.2383,15.7768,20.2823,29.6507,58.4005,200.0000
1.206,0,2925.48,27.49,424.88,1,0.0000,1.0000,0.0000,0.0000,538.0336,10.1368,5.6713,-0.2745,-0.0230,-0.0429,13.2094,0.2317,-0.2978,26.5611,26.0069,27.6452,24.9696,-4.8636,19.8636,10.1364,0.0429,straight,9.38,0.00,5.09,0.00,0.00,0,0.000,1.204,0.000,0.00,24.76,4,200.0000,114.3902,58.0774,39.7273,30.9024,25.9302,22.9366,21.1385,20.1701,10.1364,10.2927,10.7869,11.7044,13.2321,15.7694,20.2727,29.6367,58.3729,200.0000
1.226,0,2925.63,28.45,436.21,1,0.0000,1.0000,0.0000,0.0000,538.1891,10.1318,5.6726,-0.2745,-0.0238,-0.0426,13.0461,0.1196,-0.3648,27.6917,26.8462,26.2240,27.3910,-4.8686,19.8686,10.1314,0.0426,straight,9.38,0.00,4.93,0.00,0.00,0,0.000,1.224,0.000,0.00,24.76,4,200.0000,114.4185,58.0918,39.7371,30.9100,25.9366,22.9423,21.1437,20.1751,10.1314,10.2877,10.7816,11.6988,13.2256,15.7617,20.2629,29.6223,58.3445,200.0000
1.246,0,2925.79,29.40,451.80,1,0.0000,1.0000,0.0000,0.0000,538.3500,10.1268,5.6739,-0.2745,-0.0244,-0.0422,13.2497,0.3507,0.5285,28.8407,27.9584,28.1733,27.3750,-4.8736,19.8736,10.1264,0.0422,straight,9.38,0.00,4.77,0.00,0.00,0,0.000,1.244,0.000,0.00,24.76,4,200.0000,114.4476,58.1066,39.7472,30.9179,25.9432,22.9481,21.1491,20.1802,10.1264,10.2826,10.7763,11.6929,13.2190,15.7539,20.2528,29.6076,58.3155,200.0000
1.266,0,2925.95,30.36,465.19,1,0.0000,1.0000,0.0000,0.0000,538.5162,10.1216,5.6753,-0.2744,-0.0249,-0.0418,12.9179,0.3896,-0.0088,29.8326,28.8904,28.9207,28.2980,-4.8788,19.8788,10.1212,0.0418,straight,9.38,0.00,4.61,0.00,0.00,0,0.000,1.264,0.000,0.00,24.76,4,200.0000,114.4772,58.1216,39.7575,30.9259,25.9499,22.9540,21.1545,20.1854,10.1212,10.2774,10.7708,11.6870,13.2123,15.7458,20.2425,29.5925,58.2859,200.0000
1.286,0,2926.11,31.32,480.27,1,0.0000,1.0000,0.0000,0.0000,538.6877,10.1164,5.6768,-0.2743,-0.0252,-0.0413,13.8149,0.3939,0.3234,30.7094,29.7717,29.2235,30.0437,-4.8840,19.8840,10.1160,0.0413,straight,9.38,0.00,4.44,0.00,0.00,0,0.000,1.284,0.000,0.00,24.76,4,200.0000,114.5073,58.1369,39.7680,30.9340,25.9567,22.9601,21.1601,20.1907,10.1160,10.2721,10.7652,11.6810,13.2055,15.7377,20.2320,29.5772,58.2557,200.0000
1.306,0,2926.29,32.28,493.89,1,0.0000,1.0000,0.0000,0.0000,538.8646,10.1111,5.6782,-0.2743,-0.0253,-0.0408,13.4762,0.4543,-0.1510,31.3637,30.7850,31.5592,29.6941,-4.8893,19.8893,10.1107,0.0408,straight,9.38,0.00,4.26,0.00,0.00,0,0.000,1.304,0.000,0.00,24.75,4,200.0000,114.5378,58.1524,39.7786,30.9422,25.9636,22.9662,21.1657,20.1961,10.1107,10.2667,10.7596,11.6748,13.1986,15.7295,20.2214,29.5617,58.2252,200.0000
1.326,0,2926.46,33.25,506.93,1,0.0000,1.0000,0.0000,0.0000,539.0468,10.1058,5.6797,-0.2742,-0.0252,-0.0403,13.2948,0.3186,0.2573,32.6584,31.6999,30.8721,31.6759,-4.8946,19.8946,10.1054,0.0403,straight,9.38,0.00,4.08,0.00,0.00,0,0.000,1.324,0.000,0.00,24.75,4,200.0000,114.5687,58.1681,39.7893,30.9506,25.9706,22.9724,21.1714,20.2016,10.1054,10.2612,10.7539,11.6687,13.1916,15.7211,20.2107,29.5461,58.1944,200.0000
1.346,0,2926.65,34.21,521.39,1,0.0000,1.0000,0.0000,0.0000,539.2344,10.1003,5.6812,-0.2742,-0.0251,-0.0398,13.0507,0.4383,-0.3729,33.6452,32.4140,33.0355,31.7107,-4.9001,19.9001,10.0999,0.0398,straight,9.38,0.00,3.89,0.00,0.00,0,0.000,1.344,0.000,0.00,24.75,4,200.0000,114.6000,58.1840,39.8002,30.9590,25.9777,22.9786,21.1772,20.2071,10.0999,10.2557,10.7481,11.6624,13.1845,15.7127,20.1998,29.5302,58.1631,200.0000
1.366,0,2926.83,35.19,535.34,1,0.0000,1.0000,0.0000,0.0000,539.4274,10.0948,5.6827,-0.2742,-0.0248,-0.0394,13.8131,0.3221,0.2040,34.0806,33.7801,33.2505,33.1349,-4.9056,19.9056,10.0944,0.0393,straight,9.38,0.00,3.70,0.00,0.00,0,0.000,1.364,0.000,0.00,24.75,4,200.0000,114.6318,58.2001,39.8112,30.9676,25.9849,22.9850,21.1831,20.2127,10.0944,10.2501,10.7422,11.6560,13.1773,15.7041,20.1888,29.5141,58.1313,200.0000
1.386,0,2927.03,36.16,548.27,1,0.0000,1.0000,0.0000,0.0000,539.6258,10.0892,5.6842,-0.2742,-0.0245,-0.0389,13.4645,0.3694,0.0203,35.1344,34.5439,34.1954,33.9232,-4.9112,19.9112,10.0888,0.0388,straight,9.38,0.00,3.50,0.00,0.00,0,0.000,1.384,0.000,0.00,24.75,4,200.0000,114.6641,58.2165,39.8224,30.9763,25.9922,22.9915,21.1891,20.2184,10.0888,10.2444,10.7363,11.6495,13.1700,15.6954,20.1776,29.4977,58.0990,200.0000
1.406,0,2927.22,37.14,561.54,1,0.0000,1.0000,0.0000,0.0000,539.8296,10.0835,5.6857,-0.2741,-0.0241,-0.0383,13.9694,0.2951,0.2532,35.8094,35.2130,35.0666,35.0391,-4.9169,19.9169,10.0831,0.0383,straight,9.38,0.00,3.29,0.00,0.00,0,0.000,1.404,0.000,0.00,24.75,4,200.0000,114.6967,58.2331,39.8338,30.9852,25.9996,22.9980,21.1951,20.2241,10.0831,10.2387,10.7302,11.6430,13.1626,15.6866,20.1662,29.4811,58.0664,200.0000
1.426,0,2927.43,38.12,572.80,1,0.0000,1.0000,0.0000,0.0000,540.0388,10.0778,5.6872,-0.2741,-0.0237,-0.0379,13.1386,0.2638,-0.1283,36.1560,36.2938,36.3268,35.5965,-4.9226,19.9226,10.0774,0.0378,straight,9.38,0.00,3.08,0.00,0.00,0,0.000,1.424,0.000,0.00,24.75,4,200.0000,114.7298,58.2499,39.8453,30.9941,26.0071,23.0047,21.2012,20.2300,10.0774,10.2328,10.7241,11.6363,13.1551,15.6776,20.1547,29.4643,58.0332,200.0000
1.446,0,2927.64,39.09,589.58,1,0.0000,1.0000,0.0000,0.0000,540.2535,10.0719,5.6887,-0.2742,-0.0234,-0.0374,13.8812,0.3778,-0.0499,37.3846,37.0639,37.7207,36.3965,-4.9285,19.9285,10.0715,0.0374,straight,9.38,0.00,2.87,0.00,0.00,0,0.000,1.444,0.000,0.00,24.75,4,200.0000,114.7635,58.2670,39.8570,31.0032,26.0148,23.0114,21.2074,20.2359,10.0715,10.2269,10.7179,11.6296,13.1474,15.6685,20.1430,29.4472,57.9996,200.0000
1.466,0,2927.85,40.07,601.58,1,0.0000,1.0000,0.0000,0.0000,540.4737,10.0660,5.6903,-0.2742,-0.0231,-0.0370,13.8799,0.2526,0.6468,38.5242,37.6965,37.5471,38.0278,-4.9344,19.9344,10.0656,0.0370,straight,9.38,0.00,2.65,0.00,0.00,0,0.000,1.464,0.000,0.00,24.75,4,200.0000,114.7976,58.2843,39.8688,31.0124,26.0225,23.0183,21.2137,20.2419,10.0656,10.2209,10.7116,11.6228,13.1397,15.6593,20.1312,29.4298,57.9655,200.0000
1.486,0,2928.07,41.04,616.76,1,0.0000,1.0000,0.0000,0.0000,540.6992,10.0600,5.6919,-0.2742,-0.0230,-0.0366,13.7658,0.3167,0.9832,39.4214,38.7924,38.9545,38.7773,-4.9404,19.9404,10.0596,0.0366,straight,9.38,0.00,2.42,0.00,0.00,0,0.000,1.484,0.000,0.00,24.75,4,200.0000,114.8321,58.3018,39.8808,31.0217,26.0303,23.0252,21.2201,20.2480,10.0596,10.2148,10.7052,11.6158,13.1319,15.6500,20.1192,29.4123,57.9310,200.0000
1.506,0,2928.30,42.01,630.44,1,0.0000,1.0000,0.0000,0.0000,540.9301,10.0539,5.6935,-0.2742,-0.0229,-0.0362,13.7362,0.3932,-0.8992,40.6743,39.5341,39.7924,39.4337,-4.9464,19.9464,10.0536,0.0362,straight,9.38,0.00,2.19,0.00,0.00,0,0.000,1.504,0.000,0.00,24.75,4,200.0000,114.8670,58.3195,39.8929,31.0312,26.0382,23.0322,21.2266,20.2542,10.0536,10.2086,10.6988,11.6088,13.1240,15.6406,20.1071,29.3946,57.8961,200.0000
1.526,0,2928.53,42.98,644.89,1,0.0000,1.0000,0.0000,0.0000,541.1663,10.0478,5.6951,-0.2742,-0.0229,-0.0357,13.5920,0.4202,-1.0293,41.7065,40.4353,40.6758,40.5516,-4.9526,19.9526,10.0474,0.0357,straight,9.38,0.00,1.96,0.00,0.00,0,0.000,1.524,0.000,0.00,24.75,4,200.0000,114.9021,58.3374,39.9051,31.0407,26.0462,23.0392,21.2331,20.2604,10.0474,10.2024,10.6923,11.6018,13.1160,15.6311,20.0949,29.3768,57.8609,200.0000
1.546,0,2928.76,43.95,657.59,1,0.0000,1.0000,0.0000,0.0000,541.4080,10.0417,5.6967,-0.2742,-0.0229,-0.0352,13.7479,0.3354,-0.1264,42.3462,41.5693,41.5011,41.2881,-4.9587,19.9587,10.0413,0.0352,straight,9.38,0.00,1.71,0.00,0.00,0,0.000,1.544,0.000,0.00,24.75,4,200.0000,114.9376,58.3553,39.9174,31.0502,26.0542,23.0463,21.2396,20.2666,10.0413,10.1962,10.6857,11.5947,13.1080,15.6215,20.0826,29.3588,57.8255,200.0000
1.566,0,2929.01,44.91,672.24,1,0.0000,1.0000,0.0000,0.0000,541.6550,10.0355,5.6984,-0.2742,-0.0229,-0.0347,13.4586,0.4697,-2.2918,43.2563,42.4908,42.6958,42.2110,-4.9649,19.9649,10.0351,0.0347,straight,9.38,0.00,1.47,0.00,0.00,0,0.000,1.564,0.000,0.00,24.75,4,200.0000,114.9731,58.3734,39.9298,31.0598,26.0623,23.0535,21.2462,20.2729,10.0351,10.1899,10.6792,11.5876,13.0999,15.6119,20.0702,29.3407,57.7900,200.0000
1.586,0,2929.25,45.87,684.78,1,0.0000,1.0000,0.0000,0.0000,541.9074,10.0293,5.7000,-0.2743,-0.0229,-0.0342,13.0453,0.5133,-0.1221,44.3013,43.4729,43.3167,43.0185,-4.9711,19.9711,10.0289,0.0342,straight,9.38,0.00,1.22,0.00,0.00,0,0.000,1.584,0.000,0.00,24.75,4,200.0000,115.0087,58.3915,39.9421,31.0694,26.0704,23.0606,21.2528,20.2791,10.0289,10.1837,10.6726,11.5804,13.0919,15.6023,20.0579,29.3227,57.7544,200.0000
1.606,0,2929.51,46.83,698.49,1,0.0000,1.0000,0.0000,0.0000,542.1651,10.0231,5.7016,-0.2743,-0.0229,-0.0336,13.6477,0.3999,0.7364,45.3220,44.2738,44.2842,43.8381,-4.9772,19.9772,10.0228,0.0336,straight,9.38,0.00,0.96,0.00,0.00,0,0.000,1.604,0.000,0.00,24.75,4,200.0000,115.0443,58.4095,39.9545,31.0791,26.0784,23.0677,21.2593,20.2854,10.0228,10.1774,10.6660,11.5733,13.0838,15.5927,20.0455,29.3046,57.7188,200.0000
1.626,0,2929.76,47.78,712.08,1,0.0000,1.0000,0.0000,0.0000,542.4281,10.0170,5.7033,-0.2743,-0.0229,-0.0330,13.7649,0.4135,-0.1173,45.9122,45.3416,45.1762,44.8027,-4.9834,19.9834,10.0166,0.0330,straight,9.38,0.00,0.69,0.00,0.00,0,0.000,1.624,0.000,0.00,24.75,4,200.0000,115.0799,58.4276,39.9668,31.0887,26.0865,23.0749,21.2659,20.2917,10.0166,10.1711,10.6594,11.5662,13.0757,15.5830,20.0332,29.2865,57.6832,200.0000
1.646,0,2930.03,48.73,724.76,1,0.0000,1.0000,0.0000,0.0000,542.6964,10.0108,5.7049,-0.2742,-0.0228,-0.0325,13.3558,0.4523,0.8724,47.1273,46.0431,46.0649,45.6364,-4.9896,19.9896,10.0104,0.0324,straight,9.38,0.00,0.43,0.00,0.00,0,0.000,1.644,0.000,0.00,24.74,4,200.0000,115.1154,58.4456,39.9792,31.0983,26.0945,23.0820,21.2725,20.2979,10.0104,10.1648,10.6529,11.5590,13.0677,15.5735,20.0208,29.2685,57.6477,200.0000
1.666,0,2930.30,49.68,738.25,1,0.0000,1.0000,0.0000,0.0000,542.9700,10.0046,5.7066,-0.2742,-0.0227,-0.0319,13.0337,0.4965,-1.0501,47.8896,47.0022,47.3502,46.1071,-4.9957,19.9957,10.0043,0.0319,straight,9.38,0.00,0.15,0.00,0.00,0,0.000,1.664,0.000,0.00,24.74,4,200.0000,115.1508,58.4636,39.9914,31.1078,26.1026,23.0891,21.2790,20.3042,10.0043,10.1586,10.6463,11.5519,13.0597,15.5639,20.0086,29.2505,57.6123,200.0000
1.686,0,2930.57,50.63,751.38,1,0.0000,1.0000,0.0000,0.0000,543.2488,9.9985,5.7082,-0.2742,-0.0225,-0.0313,13.8326,0.4126,0.1963,48.8919,47.6237,47.6075,47.5221,-5.0018,20.0018,9.9982,0.0313,straight,9.38,0.00,9.25,0.00,0.00,0,0.000,1.684,0.000,0.00,24.74,4,200.0000,115.1860,58.4815,40.0037,31.1173,26.1106,23.0961,21.2855,20.3104,9.9982,10.1524,10.6398,11.5449,13.0517,15.5544,19.9963,29.2326,57.5771,200.0000
1.706,0,2930.85,51.56,762.30,1,0.0000,1.0000,0.0000,0.0000,543.5329,9.9924,5.7099,-0.2741,-0.0223,-0.0307,12.4484,0.5166,-0.4827,49.5950,48.5487,48.6414,48.2890,-5.0079,20.0079,9.9921,0.0307,straight,9.38,0.00,8.96,0.00,0.00,0,0.000,1.704,0.000,0.00,24.74,4,200.0000,115.2211,58.4993,40.0159,31.1268,26.1185,23.1032,21.2920,20.3166,9.9921,10.1462,10.6333,11.5378,13.0437,15.5449,19.9841,29.2148,57.5420,200.0000
1.726,0,2931.13,52.48,772.54,1,0.0000,1.0000,0.0000,0.0000,543.8221,9.9864,5.7115,-0.2741,-0.0219,-0.0301,12.2746,0.4160,-0.2627,50.3389,49.0897,49.4196,49.1074,-5.0140,20.0140,9.9860,0.0300,straight,9.38,0.00,8.68,0.00,0.00,0,0.000,1.724,0.000,0.00,24.74,4,200.0000,115.2560,58.5170,40.0280,31.1363,26.1264,23.1102,21.2985,20.3227,9.9860,10.1401,10.6269,11.5308,13.0358,15.5355,19.9720,29.1971,57.5071,200.0000
1.746,0,2931.42,53.38,783.39,1,0.0000,1.0000,0.0000,0.0000,544.1164,9.9803,5.7131,-0.2741,-0.0216,-0.0294,12.9860,0.3743,0.4612,50.8362,49.8870,50.2183,49.6936,-5.0200,20.0200,9.9800,0.0294,straight,9.38,0.00,8.38,0.00,0.00,0,0.000,1.744,0.000,0.00,24.74,4,200.0000,115.2908,58.5347,40.0401,31.1457,26.1343,23.1171,21.3049,20.3289,9.9800,10.1339,10.6205,11.5239,13.0279,15.5261,19.9599,29.1795,57.4723,200.0000
1.766,0,2931.72,54.24,795.40,1,0.0000,1.0000,0.0000,0.0000,544.4156,9.9743,5.7147,-0.2741,-0.0211,-0.0288,12.1925,0.5226,-0.2746,51.9037,50.5728,51.1308,50.5840,-5.0260,20.0260,9.9740,0.0288,straight,9.38,0.00,8.08,0.00,0.00,0,0.000,1.764,0.000,0.00,24.74,4,200.0000,115.3253,58.5522,40.0521,31.1550,26.1421,23.1241,21.3113,20.3350,9.9740,10.1278,10.6141,11.5169,13.0201,15.5167,19.9479,29.1619,57.4377,200.0000
1.786,0,2932.01,55.11,801.33,1,0.0000,1.0000,0.0000,0.0000,544.7195,9.9684,5.7163,-0.2741,-0.0206,-0.0282,11.4377,0.3395,-0.0508,52.2704,51.0533,51.5441,51.1616,-5.0320,20.0320,9.9680,0.0281,straight,9.38,0.00,7.78,0.00,0.00,0,0.000,1.784,0.000,0.00,24.74,4,200.0000,115.3596,58.5696,40.0640,31.1643,26.1499,23.1310,21.3176,20.3410,9.9680,10.1218,10.6077,11.5101,13.0123,15.5075,19.9360,29.1445,57.4034,200.0000
1.806,0,2932.32,55.94,812.62,1,0.0000,1.0000,0.0000,0.0000,545.0282,9.9624,5.7178,-0.2741,-0.0201,-0.0276,11.1491,0.3968,-0.0547,52.4602,52.1831,52.4165,52.2215,-5.0379,20.0379,9.9621,0.0276,straight,9.38,0.00,7.47,0.00,0.00,0,0.000,1.804,0.000,0.00,24.74,4,200.0000,115.3938,58.5870,40.0759,31.1735,26.1577,23.1378,21.3239,20.3470,9.9621,10.1158,10.6014,11.5032,13.0046,15.4982,19.9241,29.1271,57.3693,200.0000
1.826,0,2932.63,56.75,821.48,1,-0.0247,1.0000,0.0000,0.0000,545.3414,9.9563,5.7193,-0.2743,-0.0196,-0.0274,10.9713,-0.8780,-0.0913,53.5625,52.2600,53.2795,52.5589,-5.0441,20.0441,9.9559,0.0273,straight,9.38,0.00,7.16,0.00,0.00,0,0.000,1.824,0.000,0.00,24.74,4,200.0000,115.4292,58.6050,40.0882,31.1831,26.1657,23.1449,21.3305,20.3533,9.9559,10.1095,10.5949,11.4961,12.9965,15.4887,19.9118,29.1092,57.3338,200.0000
1.846,0,2932.94,57.54,831.87,1,-0.0495,1.0000,0.0000,0.0000,545.6590,9.9494,5.7209,-0.2746,-0.0192,-0.0279,11.0187,-2.0359,0.8031,53.7985,53.3981,53.5340,53.7839,-5.0509,20.0509,9.9491,0.0279,straight,9.38,0.00,6.84,0.00,0.00,0,0.000,1.844,0.000,0.00,24.74,4,200.0000,115.4686,58.6250,40.1018,31.1937,26.1746,23.1528,21.3377,20.3602,9.9491,10.1026,10.5876,11.4882,12.9876,15.4780,19.8982,29.0892,57.2945,200.0000
1.866,0,2933.26,58.30,840.04,1,-0.0742,1.0000,0.0000,0.0000,545.9809,9.9415,5.7226,-0.2752,-0.0190,-0.0295,10.4428,-3.1088,0.7128,54.2680,54.2853,54.2235,54.0886,-5.0589,20.0589,9.9411,0.0295,straight,9.38,0.00,6.52,0.00,0.00,0,0.000,1.864,0.000,0.00,24.74,4,200.0000,115.5145,58.6483,40.1178,31.2061,26.1850,23.1620,21.3462,20.3683,9.9411,10.0945,10.5791,11.4790,12.9772,15.4656,19.8822,29.0658,57.2485,200.0000
1.886,0,2933.58,59.04,849.75,1,-0.0989,1.0000,0.0000,0.0000,546.3069,9.9319,5.7246,-0.2760,-0.0191,-0.0324,10.8124,-4.2699,1.8015,54.7126,54.9402,54.5791,55.0640,-5.0685,20.0685,9.9315,0.0324,straight,9.38,0.00,6.19,0.00,0.00,0,0.000,1.884,0.000,0.00,24.74,4,200.0000,115.5697,58.6763,40.1369,31.2210,26.1975,23.1731,21.3564,20.3781,9.9315,10.0847,10.5689,11.4679,12.9647,15.4507,19.8631,29.0379,57.1934,200.0000
