Time,Lap,DistFromStart,Speed,RPM,Gear,SteerCmd,AccelCmd,BrakeCmd,ClutchCmd,X,Y,Z,Roll,Pitch,Yaw,AccelX,AccelY,AccelZ,WheelSpinVel_FL,WheelSpinVel_FR,WheelSpinVel_RL,WheelSpinVel_RR,ToMiddle,ToLeft,ToRight,AngleToTrack,TrackSegType,SegmentLength,Radius,DistToSegEnd,NextCornerDist,NextCornerRadius,NextCornerDir,LapBestTime,CurrentLapTime,LastLapTime,DamageLevel,FuelLevel,RacePos,TrackSensor1,TrackSensor2,TrackSensor3,TrackSensor4,TrackSensor5,TrackSensor6,TrackSensor7,TrackSensor8,TrackSensor9,TrackSensor10,TrackSensor11,TrackSensor12,TrackSensor13,TrackSensor14,TrackSensor15,TrackSensor16,TrackSensor17,TrackSensor18,TrackSensor19
-0.980,0,0.00,-0.00,115.19,0,0.0000,0.0000,1.0000,0.0000,294.9998,18.3332,1.5321,0.0013,0.0033,-0.0003,-0.0003,-0.0013,-0.0029,0.0000,0.0000,-2.1307,2.1449,-1.6668,6.6668,3.3332,0.0003,straight,150.00,0.00,55.00,0.00,43.00,-1,0.000,-0.982,0.000,0.00,22.82,4,200.0000,38.3928,19.4926,13.3337,10.3718,8.7030,7.6982,7.0947,6.7697,3.3332,3.3846,3.5471,3.8488,4.3511,5.1855,6.6663,9.7455,19.1948,200.0000
-0.960,0,1705.94,-0.00,115.19,0,0.0000,0.0000,0.0000,0.5932,294.9998,18.3332,1.5321,0.0013,0.0033,-0.0003,-0.0003,-0.0013,-0.0029,0.0000,0.0000,-2.1307,2.1449,-1.6668,6.6668,3.3332,0.0003,straight,150.00,0.00,55.00,0.00,43.00,-1,0.000,-0.962,0.000,0.00,22.82,4,200.0000,38.3928,19.4926,13.3337,10.3718,8.7030,7.6982,7.0947,6.7697,3.3332,3.3846,3.5471,3.8488,4.3511,5.1855,6.6663,9.7455,19.1948,200.0000
-0.940,0,1705.94,-0.00,115.19,0,0.0000,0.0000,0.0000,0.5932,294.9998,18.3332,1.5321,0.0013,0.0033,-0.0003,-0.0003,-0.0013,-0.0029,0.0000,0.0000,-2.1307,2.1449,-1.6668,6.6668,3.3332,0.0003,straight,150.00,0.00,55.00,0.00,43.00,-1,0.000,-0.942,0.000,0.00,22.82,4,200.0000,38.3928,19.4926,13.3337,10.3718,8.7030,7.6982,7.0947,6.7697,3.3332,3.3846,3.5471,3.8488,4.3511,5.1855,6.6663,9.7455,19.1948,200.0000
-0.920,0,1705.94,-0.00,115.19,0,0.0000,0.0000,0.0000,0.5932,294.9998,18.3332,1.5321,0.0013,0.0033,-0.0003,-0.0003,-0.0013,-0.0029,0.0000,0.0000,-2.1307,2.1449,-1.6668,6.6668,3.3332,0.0003,straight,150.00,0.00,55.00,0.00,43.00,-1,0.000,-0.922,0.000,0.00,22.82,4,200.0000,38.3928,19.4926,13.3337,10.3718,8.7030,7.6982,7.0947,6.7697,3.3332,3.3846,3.5471,3.8488,4.3511,5.1855,6.6663,9.7455,19.1948,200.0000
-0.900,0,1705.94,-0.00,115.19,0,0.0000,0.0000,0.0000,0.5932,294.9998,18.3332,1.5321,0.0013,0.0033,-0.0003,-0.0003,-0.0013,-0.0029,0.0000,0.0000,-2.1307,2.1449,-1.6668,6.6668,3.3332,0.0003,straight,150.00,0.00,55.00,0.00,43.00,-1,0.000,-0.902,0.000,0.00,22.82,4,200.0000,38.3928,19.4926,13.3337,10.3718,8.7030,7.6982,7.0947,6.7697,3.3332,3.3846,3.5471,3.8488,4.3511,5.1855,6.6663,9.7455,19.1948,200.0000
-0.880,0,1705.94,-0.00,115.19,0,0.0000,0.0000,0.0000,0.5932,294.9998,18.3332,1.5321,0.0013,0.0033,-0.0003,-0.0003,-0.0013,-0.0029,0.0000,0.0000,-2.1307,2.1449,-1.6668,6.6668,3.3332,0.0003,straight,150.00,0.00,55.00,0.00,43.00,-1,0.000,-0.882,0.000,0.00,22.82,4,200.0000,38.3928,19.4926,13.3337,10.3718,8.7030,7.6982,7.0947,6.7697,3.3332,3.3846,3.5471,3.8488,4.3511,5.1855,6.6663,9.7455,19.1948,200.0000
-0.860,0,1705.94,-0.00,115.19,0,0.0000,0.0000,0.0000,0.5932,294.9998,18.3332,1.5321,0.0013,0.0033,-0.0003,-0.0003,-0.0013,-0.0029,0.0000,0.0000,-2.1307,2.1449,-1.6668,6.6668,3.3332,0.0003,straight,150.00,0.00,55.00,0.00,43.00,-1,0.000,-0.862,0.000,0.00,22.82,4,200.0000,38.3928,19.4926,13.3337,10.3718,8.7030,7.6982,7.0947,6.7697,3.3332,3.3846,3.5471,3.8488,4.3511,5.1855,6.6663,9.7455,19.1948,200.0000
-0.840,0,1705.94,-0.00,115.19,0,0.0000,0.0000,0.0000,0.5932,294.9998,18.3332,1.5321,0.0013,0.0033,-0.0003,-0.0003,-0.0013,-0.0029,0.0000,0.0000,-2.1307,2.1449,-1.6668,6.6668,3.3332,0.0003,straight,150.00,0.00,55.00,0.00,43.00,-1,0.000,-0.842,0.000,0.00,22.82,4,200.0000,38.3928,19.4926,13.3337,10.3718,8.7030,7.6982,7.0947,6.7697,3.3332,3.3846,3.5471,3.8488,4.3511,5.1855,6.6663,9.7455,19.1948,200.0000
-0.820,0,1705.94,-0.00,115.19,0,0.0000,0.0000,0.0000,0.5932,294.9998,18.3332,1.5321,0.0013,0.0033,-0.0003,-0.0003,-0.0013,-0.0029,0.0000,0.0000,-2.1307,2.1449,-1.6668,6.6668,3.3332,0.0003,straight,150.00,0.00,55.00,0.00,43.00,-1,0.000,-0.822,0.000,0.00,22.82,4,200.0000,38.3928,19.4926,13.3337,10.3718,8.7030,7.6982,7.0947,6.7697,3.3332,3.3846,3.5471,3.8488,4.3511,5.1855,6.6663,9.7455,19.1948,200.0000
-0.800,0,1705.94,-0.00,115.19,0,0.0000,0.0000,0.0000,0.5932,294.9998,18.3332,1.5321,0.0013,0.0033,-0.0003,-0.0003,-0.0013,-0.0029,0.0000,0.0000,-2.1307,2.1449,-1.6668,6.6668,3.3332,0.0003,straight,150.00,0.00,55.00,0.00,43.00,-1,0.000,-0.802,0.000,0.00,22.82,4,200.0000,38.3928,19.4926,13.3337,10.3718,8.7030,7.6982,7.0947,6.7697,3.3332,3.3846,3.5471,3.8488,4.3511,5.1855,6.6663,9.7455,19.1948,200.0000
-0.780,0,1705.94,-0.00,115.19,0,0.0000,0.0000,0.0000,0.5932,294.9998,18.3332,1.5321,0.0013,0.0033,-0.0003,-0.0003,-0.0013,-0.0029,0.0000,0.0000,-2.1307,2.1449,-1.6668,6.6668,3.3332,0.0003,straight,150.00,0.00,55.00,0.00,43.00,-1,0.000,-0.782,0.000,0.00,22.82,4,200.0000,38.3928,19.4926,13.3337,10.3718,8.7030,7.6982,7.0947,6.7697,3.3332,3.3846,3.5471,3.8488,4.3511,5.1855,6.6663,9.7455,19.1948,200.0000
-0.760,0,1705.94,-0.00,115.19,0,0.0000,0.0000,0.0000,0.5932,294.9998,18.3332,1.5321,0.0013,0.0033,-0.0003,-0.0003,-0.0013,-0.0029,0.0000,0.0000,-2.1307,2.1449,-1.6668,6.6668,3.3332,0.0003,straight,150.00,0.00,55.00,0.00,43.00,-1,0.000,-0.762,0.000,0.00,22.82,4,200.0000,38.3928,19.4926,13.3337,10.3718,8.7030,7.6982,7.0947,6.7697,3.3332,3.3846,3.5471,3.8488,4.3511,5.1855,6.6663,9.7455,19.1948,200.0000
-0.740,0,1705.94,-0.00,115.19,0,0.0000,0.0000,0.0000,0.5932,294.9998,18.3332,1.5321,0.0013,0.0033,-0.0003,-0.0003,-0.0013,-0.0029,0.0000,0.0000,-2.1307,2.1449,-1.6668,6.6668,3.3332,0.0003,straight,150.00,0.00,55.00,0.00,43.00,-1,0.000,-0.742,0.000,0.00,22.82,4,200.0000,38.3928,19.4926,13.3337,10.3718,8.7030,7.6982,7.0947,6.7697,3.3332,3.3846,3.5471,3.8488,4.3511,5.1855,6.6663,9.7455,19.1948,200.0000
-0.720,0,1705.94,-0.00,115.19,0,0.0000,0.0000,0.0000,0.5932,294.9998,18.3332,1.5321,0.0013,0.0033,-0.0003,-0.0003,-0.0013,-0.0029,0.0000,0.0000,-2.1307,2.1449,-1.6668,6.6668,3.3332,0.0003,straight,150.00,0.00,55.00,0.00,43.00,-1,0.000,-0.722,0.000,0.00,22.82,4,200.0000,38.3928,19.4926,13.3337,10.3718,8.7030,7.6982,7.0947,6.7697,3.3332,3.3846,3.5471,3.8488,4.3511,5.1855,6.6663,9.7455,19.1948,200.0000
-0.700,0,1705.94,-0.00,135.68,0,0.0000,1.0000,0.0000,0.5932,294.9998,18.3332,1.5321,0.0013,0.0033,-0.0003,-0.0003,-0.0013,-0.0029,0.0000,0.0000,-2.1307,2.1449,-1.6668,6.6668,3.3332,0.0003,straight,150.00,0.00,55.00,0.00,43.00,-1,0.000,-0.702,0.000,0.00,22.82,4,200.0000,38.3928,19.4926,13.3337,10.3718,8.7030,7.6982,7.0947,6.7697,3.3332,3.3846,3.5471,3.8488,4.3511,5.1855,6.6663,9.7455,19.1948,200.0000
-0.680,0,1705.94,-0.00,158.06,0,0.0000,1.0000,0.0000,0.5932,294.9998,18.3332,1.5321,0.0013,0.0033,-0.0003,-0.0003,-0.0013,-0.0029,0.0000,0.0000,-2.1307,2.1449,-1.6668,6.6668,3.3332,0.0003,straight,150.00,0.00,55.00,0.00,43.00,-1,0.000,-0.682,0.000,0.00,22.82,4,200.0000,38.3928,19.4926,13.3337,10.3718,8.7030,7.6982,7.0947,6.7697,3.3332,3.3846,3.5471,3.8488,4.3511,5.1855,6.6663,9.7455,19.1948,200.0000
-0.660,0,1705.94,-0.00,182.51,0,0.0000,1.0000,0.0000,0.5932,294.9998,18.3332,1.5321,0.0013,0.0033,-0.0003,-0.0003,-0.0013,-0.0029,0.0000,0.0000,-2.1307,2.1449,-1.6668,6.6668,3.3332,0.0003,straight,150.00,0.00,55.00,0.00,43.00,-1,0.000,-0.662,0.000,0.00,22.82,4,200.0000,38.3928,19.4926,13.3337,10.3718,8.7030,7.6982,7.0947,6.7697,3.3332,3.3846,3.5471,3.8488,4.3511,5.1855,6.6663,9.7455,19.1948,200.0000
-0.640,0,1705.94,-0.00,209.20,0,0.0000,1.0000,0.0000,0.5932,294.9998,18.3332,1.5321,0.0013,0.0033,-0.0003,-0.0003,-0.0013,-0.0029,0.0000,0.0000,-2.1307,2.1449,-1.6668,6.6668,3.3332,0.0003,straight,150.00,0.00,55.00,0.00,43.00,-1,0.000,-0.642,0.000,0.00,22.82,4,200.0000,38.3928,19.4926,13.3337,10.3718,8.7030,7.6982,7.0947,6.7697,3.3332,3.3846,3.5471,3.8488,4.3511,5.1855,6.6663,9.7455,19.1948,200.0000
-0.620,0,1705.94,-0.00,237.93,0,0.0000,1.0000,0.0000,0.5932,294.9998,18.3332,1.5321,0.0013,0.0033,-0.0003,-0.0003,-0.0013,-0.0029,0.0000,0.0000,-2.1307,2.1449,-1.6668,6.6668,3.3332,0.0003,straight,150.00,0.00,55.00,0.00,43.00,-1,0.000,-0.622,0.000,0.00,22.82,4,200.0000,38.3928,19.4926,13.3337,10.3718,8.7030,7.6982,7.0947,6.7697,3.3332,3.3846,3.5471,3.8488,4.3511,5.1855,6.6663,9.7455,19.1948,200.0000
-0.600,0,1705.94,-0.00,267.82,0,0.0000,1.0000,0.0000,0.5932,294.9998,18.3332,1.5321,0.0013,0.0033,-0.0003,-0.0003,-0.0013,-0.0029,0.0000,0.0000,-2.1307,2.1449,-1.6668,6.6668,3.3332,0.0003,straight,150.00,0.00,55.00,0.00,43.00,-1,0.000,-0.602,0.000,0.00,22.82,4,200.0000,38.3928,19.4926,13.3337,10.3718,8.7030,7.6982,7.0947,6.7697,3.3332,3.3846,3.5471,3.8488,4.3511,5.1855,6.6663,9.7455,19.1948,200.0000
-0.580,0,1705.94,-0.00,298.89,0,0.0000,1.0000,0.0000,0.5932,294.9998,18.3332,1.5321,0.0013,0.0033,-0.0003,-0.0003,-0.0013,-0.0029,0.0000,0.0000,-2.1307,2.1449,-1.6668,6.6668,3.3332,0.0003,straight,150.00,0.00,55.00,0.00,43.00,-1,0.000,-0.582,0.000,0.00,22.82,4,200.0000,38.3928,19.4926,13.3337,10.3718,8.7030,7.6982,7.0947,6.7697,3.3332,3.3846,3.5471,3.8488,4.3511,5.1855,6.6663,9.7455,19.1948,200.0000
-0.560,0,1705.94,-0.00,331.18,0,0.0000,1.0000,0.0000,0.5932,294.9998,18.3332,1.5321,0.0013,0.0033,-0.0003,-0.0003,-0.0013,-0.0029,0.0000,0.0000,-2.1307,2.1449,-1.6668,6.6668,3.3332,0.0003,straight,150.00,0.00,55.00,0.00,43.00,-1,0.000,-0.562,0.000,0.00,22.82,4,200.0000,38.3928,19.4926,13.3337,10.3718,8.7030,7.6982,7.0947,6.7697,3.3332,3.3846,3.5471,3.8488,4.3511,5.1855,6.6663,9.7455,19.1948,200.0000
-0.540,0,1705.94,-0.00,365.03,0,0.0000,1.0000,0.0000,0.5932,294.9998,18.3332,1.5321,0.0013,0.0033,-0.0003,-0.0003,-0.0013,-0.0029,0.0000,0.0000,-2.1307,2.1449,-1.6668,6.6668,3.3332,0.0003,straight,150.00,0.00,55.00,0.00,43.00,-1,0.000,-0.542,0.000,0.00,22.82,4,200.0000,38.3928,19.4926,13.3337,10.3718,8.7030,7.6982,7.0947,6.7697,3.3332,3.3846,3.5471,3.8488,4.3511,5.1855,6.6663,9.7455,19.1948,200.0000
-0.520,0,1705.94,-0.00,400.65,0,0.0000,1.0000,0.0000,0.5932,294.9998,18.3332,1.5321,0.0013,0.0033,-0.0003,-0.0003,-0.0013,-0.0029,0.0000,0.0000,-2.1307,2.1449,-1.6668,6.6668,3.3332,0.0003,straight,150.00,0.00,55.00,0.00,43.00,-1,0.000,-0.522,0.000,0.00,22.82,4,200.0000,38.3928,19.4926,13.3337,10.3718,8.7030,7.6982,7.0947,6.7697,3.3332,3.3846,3.5471,3.8488,4.3511,5.1855,6.6663,9.7455,19.1948,200.0000
-0.500,0,1705.94,-0.00,438.08,0,0.0000,1.0000,0.0000,0.5932,294.9998,18.3332,1.5321,0.0013,0.0033,-0.0003,-0.0003,-0.0013,-0.0029,0.0000,0.0000,-2.1307,2.1449,-1.6668,6.6668,3.3332,0.0003,straight,150.00,0.00,55.00,0.00,43.00,-1,0.000,-0.502,0.000,0.00,22.82,4,200.0000,38.3928,19.4926,13.3337,10.3718,8.7030,7.6982,7.0947,6.7697,3.3332,3.3846,3.5471,3.8488,4.3511,5.1855,6.6663,9.7455,19.1948,200.0000
-0.480,0,1705.94,-0.00,476.34,0,0.0000,1.0000,0.0000,0.5932,294.9998,18.3332,1.5321,0.0013,0.0033,-0.0003,-0.0003,-0.0013,-0.0029,0.0000,0.0000,-2.1307,2.1449,-1.6668,6.6668,3.3332,0.0003,straight,150.00,0.00,55.00,0.00,43.00,-1,0.000,-0.482,0.000,0.00,22.81,4,200.0000,38.3928,19.4926,13.3337,10.3718,8.7030,7.6982,7.0947,6.7697,3.3332,3.3846,3.5471,3.8488,4.3511,5.1855,6.6663,9.7455,19.1948,200.0000
-0.460,0,1705.94,-0.00,514.89,0,0.0000,1.0000,0.0000,0.5932,294.9998,18.3332,1.5321,0.0013,0.0033,-0.0003,-0.0003,-0.0013,-0.0029,0.0000,0.0000,-2.1307,2.1449,-1.6668,6.6668,3.3332,0.0003,straight,150.00,0.00,55.00,0.00,43.00,-1,0.000,-0.462,0.000,0.00,22.81,4,200.0000,38.3928,19.4926,13.3337,10.3718,8.7030,7.6982,7.0947,6.7697,3.3332,3.3846,3.5471,3.8488,4.3511,5.1855,6.6663,9.7455,19.1948,200.0000
-0.440,0,1705.94,-0.00,553.71,0,0.0000,1.0000,0.0000,0.5932,294.9998,18.3332,1.5321,0.0013,0.0033,-0.0003,-0.0003,-0.0013,-0.0029,0.0000,0.0000,-2.1307,2.1449,-1.6668,6.6668,3.3332,0.0003,straight,150.00,0.00,55.00,0.00,43.00,-1,0.000,-0.442,0.000,0.00,22.81,4,200.0000,38.3928,19.4926,13.3337,10.3718,8.7030,7.6982,7.0947,6.7697,3.3332,3.3846,3.5471,3.8488,4.3511,5.1855,6.6663,9.7455,19.1948,200.0000
-0.420,0,1705.94,-0.00,592.63,0,0.0000,1.0000,0.0000,0.5932,294.9998,18.3332,1.5321,0.0013,0.0033,-0.0003,-0.0003,-0.0013,-0.0029,0.0000,0.0000,-2.1307,2.1449,-1.6668,6.6668,3.3332,0.0003,straight,150.00,0.00,55.00,0.00,43.00,-1,0.000,-0.422,0.000,0.00,22.81,4,200.0000,38.3928,19.4926,13.3337,10.3718,8.7030,7.6982,7.0947,6.7697,3.3332,3.3846,3.5471,3.8488,4.3511,5.1855,6.6663,9.7455,19.1948,200.0000
-0.400,0,1705.94,-0.00,631.56,0,0.0000,1.0000,0.0000,0.5932,294.9998,18.3332,1.5321,0.0013,0.0033,-0.0003,-0.0003,-0.0013,-0.0029,0.0000,0.0000,-2.1307,2.1449,-1.6668,6.6668,3.3332,0.0003,straight,150.00,0.00,55.00,0.00,43.00,-1,0.000,-0.402,0.000,0.00,22.81,4,200.0000,38.3928,19.4926,13.3337,10.3718,8.7030,7.6982,7.0947,6.7697,3.3332,3.3846,3.5471,3.8488,4.3511,5.1855,6.6663,9.7455,19.1948,200.0000
-0.380,0,1705.94,-0.00,670.24,0,0.0000,1.0000,0.0000,0.5932,294.9998,18.3332,1.5321,0.0013,0.0033,-0.0003,-0.0003,-0.0013,-0.0029,0.0000,0.0000,-2.1307,2.1449,-1.6668,6.6668,3.3332,0.0003,straight,150.00,0.00,55.00,0.00,43.00,-1,0.000,-0.382,0.000,0.00,22.81,4,200.0000,38.3928,19.4926,13.3337,10.3718,8.7030,7.6982,7.0947,6.7697,3.3332,3.3846,3.5471,3.8488,4.3511,5.1855,6.6663,9.7455,19.1948,200.0000
-0.360,0,1705.94,-0.00,708.59,0,0.0000,1.0000,0.0000,0.5932,294.9998,18.3332,1.5321,0.0013,0.0033,-0.0003,-0.0003,-0.0013,-0.0029,0.0000,0.0000,-2.1307,2.1449,-1.6668,6.6668,3.3332,0.0003,straight,150.00,0.00,55.00,0.00,43.00,-1,0.000,-0.362,0.000,0.00,22.81,4,200.0000,38.3928,19.4926,13.3337,10.3718,8.7030,7.6982,7.0947,6.7697,3.3332,3.3846,3.5471,3.8488,4.3511,5.1855,6.6663,9.7455,19.1948,200.0000
-0.340,0,1705.94,-0.00,746.61,0,0.0000,1.0000,0.0000,0.5932,294.9998,18.3332,1.5321,0.0013,0.0033,-0.0003,-0.0003,-0.0013,-0.0029,0.0000,0.0000,-2.1307,2.1449,-1.6668,6.6668,3.3332,0.0003,straight,150.00,0.00,55.00,0.00,43.00,-1,0.000,-0.342,0.000,0.00,22.81,4,200.0000,38.3928,19.4926,13.3337,10.3718,8.7030,7.6982,7.0947,6.7697,3.3332,3.3846,3.5471,3.8488,4.3511,5.1855,6.6663,9.7455,19.1948,200.0000
-0.320,0,1705.94,-0.00,783.36,0,0.0000,1.0000,0.0000,0.5932,294.9998,18.3332,1.5321,0.0013,0.0033,-0.0003,-0.0003,-0.0013,-0.0029,0.0000,0.0000,-2.1307,2.1449,-1.6668,6.6668,3.3332,0.0003,straight,150.00,0.00,55.00,0.00,43.00,-1,0.000,-0.322,0.000,0.00,22.81,4,200.0000,38.3928,19.4926,13.3337,10.3718,8.7030,7.6982,7.0947,6.7697,3.3332,3.3846,3.5471,3.8488,4.3511,5.1855,6.6663,9.7455,19.1948,200.0000
-0.300,0,1705.94,-0.00,817.30,0,0.0000,1.0000,0.0000,0.5932,294.9998,18.3332,1.5321,0.0013,0.0033,-0.0003,-0.0003,-0.0013,-0.0029,0.0000,0.0000,-2.1307,2.1449,-1.6668,6.6668,3.3332,0.0003,straight,150.00,0.00,55.00,0.00,43.00,-1,0.000,-0.302,0.000,0.00,22.81,4,200.0000,38.3928,19.4926,13.3337,10.3718,8.7030,7.6982,7.0947,6.7697,3.3332,3.3846,3.5471,3.8488,4.3511,5.1855,6.6663,9.7455,19.1948,200.0000
-0.280,0,1705.94,-0.00,848.63,0,0.0000,1.0000,0.0000,0.5932,294.9998,18.3332,1.5321,0.0013,0.0033,-0.0003,-0.0003,-0.0013,-0.0029,0.0000,0.0000,-2.1307,2.1449,-1.6668,6.6668,3.3332,0.0003,straight,150.00,0.00,55.00,0.00,43.00,-1,0.000,-0.282,0.000,0.00,22.81,4,200.0000,38.3928,19.4926,13.3337,10.3718,8.7030,7.6982,7.0947,6.7697,3.3332,3.3846,3.5471,3.8488,4.3511,5.1855,6.6663,9.7455,19.1948,200.0000
-0.260,0,1705.94,-0.00,861.61,0,0.0000,1.0000,0.0000,0.5932,294.9998,18.3332,1.5321,0.0013,0.0033,-0.0003,-0.0003,-0.0013,-0.0029,0.0000,0.0000,-2.1307,2.1449,-1.6668,6.6668,3.3332,0.0003,straight,150.00,0.00,55.00,0.00,43.00,-1,0.000,-0.262,0.000,0.00,22.81,4,200.0000,38.3928,19.4926,13.3337,10.3718,8.7030,7.6982,7.0947,6.7697,3.3332,3.3846,3.5471,3.8488,4.3511,5.1855,6.6663,9.7455,19.1948,200.0000
-0.240,0,1705.94,-0.00,861.61,0,0.0000,1.0000,0.0000,0.5932,294.9998,18.3332,1.5321,0.0013,0.0033,-0.0003,-0.0003,-0.0013,-0.0029,0.0000,0.0000,-2.1307,2.1449,-1.6668,6.6668,3.3332,0.0003,straight,150.00,0.00,55.00,0.00,43.00,-1,0.000,-0.242,0.000,0.00,22.81,4,200.0000,38.3928,19.4926,13.3337,10.3718,8.7030,7.6982,7.0947,6.7697,3.3332,3.3846,3.5471,3.8488,4.3511,5.1855,6.6663,9.7455,19.1948,200.0000
-0.220,0,1705.94,-0.00,861.61,0,0.0000,1.0000,0.0000,0.5932,294.9998,18.3332,1.5321,0.0013,0.0033,-0.0003,-0.0003,-0.0013,-0.0029,0.0000,0.0000,-2.1307,2.1449,-1.6668,6.6668,3.3332,0.0003,straight,150.00,0.00,55.00,0.00,43.00,-1,0.000,-0.222,0.000,0.00,22.81,4,200.0000,38.3928,19.4926,13.3337,10.3718,8.7030,7.6982,7.0947,6.7697,3.3332,3.3846,3.5471,3.8488,4.3511,5.1855,6.6663,9.7455,19.1948,200.0000
-0.200,0,1705.94,-0.00,861.61,0,0.0000,1.0000,0.0000,0.5932,294.9998,18.3332,1.5321,0.0013,0.0033,-0.0003,-0.0003,-0.0013,-0.0029,0.0000,0.0000,-2.1307,2.1449,-1.6668,6.6668,3.3332,0.0003,straight,150.00,0.00,55.00,0.00,43.00,-1,0.000,-0.202,0.000,0.00,22.81,4,200.0000,38.3928,19.4926,13.3337,10.3718,8.7030,7.6982,7.0947,6.7697,3.3332,3.3846,3.5471,3.8488,4.3511,5.1855,6.6663,9.7455,19.1948,200.0000
-0.180,0,1705.94,-0.00,861.61,0,0.0000,1.0000,0.0000,0.5932,294.9998,18.3332,1.5321,0.0013,0.0033,-0.0003,-0.0003,-0.0013,-0.0029,0.0000,0.0000,-2.1307,2.1449,-1.6668,6.6668,3.3332,0.0003,straight,150.00,0.00,55.00,0.00,43.00,-1,0.000,-0.182,0.000,0.00,22.81,4,200.0000,38.3928,19.4926,13.3337,10.3718,8.7030,7.6982,7.0947,6.7697,3.3332,3.3846,3.5471,3.8488,4.3511,5.1855,6.6663,9.7455,19.1948,200.0000
-0.160,0,1705.94,-0.00,861.61,0,0.0000,1.0000,0.0000,0.5932,294.9998,18.3332,1.5321,0.0013,0.0033,-0.0003,-0.0003,-0.0013,-0.0029,0.0000,0.0000,-2.1307,2.1449,-1.6668,6.6668,3.3332,0.0003,straight,150.00,0.00,55.00,0.00,43.00,-1,0.000,-0.162,0.000,0.00,22.81,4,200.0000,38.3928,19.4926,13.3337,10.3718,8.7030,7.6982,7.0947,6.7697,3.3332,3.3846,3.5471,3.8488,4.3511,5.1855,6.6663,9.7455,19.1948,200.0000
-0.140,0,1705.94,-0.00,861.61,0,0.0000,1.0000,0.0000,0.5932,294.9998,18.3332,1.5321,0.0013,0.0033,-0.0003,-0.0003,-0.0013,-0.0029,0.0000,0.0000,-2.1307,2.1449,-1.6668,6.6668,3.3332,0.0003,straight,150.00,0.00,55.00,0.00,43.00,-1,0.000,-0.142,0.000,0.00,22.81,4,200.0000,38.3928,19.4926,13.3337,10.3718,8.7030,7.6982,7.0947,6.7697,3.3332,3.3846,3.5471,3.8488,4.3511,5.1855,6.6663,9.7455,19.1948,200.0000
-0.120,0,1705.94,-0.00,861.61,0,0.0000,1.0000,0.0000,0.5932,294.9998,18.3332,1.5321,0.0013,0.0033,-0.0003,-0.0003,-0.0013,-0.0029,0.0000,0.0000,-2.1307,2.1449,-1.6668,6.6668,3.3332,0.0003,straight,150.00,0.00,55.00,0.00,43.00,-1,0.000,-0.122,0.000,0.00,22.81,4,200.0000,38.3928,19.4926,13.3337,10.3718,8.7030,7.6982,7.0947,6.7697,3.3332,3.3846,3.5471,3.8488,4.3511,5.1855,6.6663,9.7455,19.1948,200.0000
-0.100,0,1705.94,-0.00,861.61,0,0.0000,1.0000,0.0000,0.5932,294.9998,18.3332,1.5321,0.0013,0.0033,-0.0003,-0.0003,-0.0013,-0.0029,0.0000,0.0000,-2.1307,2.1449,-1.6668,6.6668,3.3332,0.0003,straight,150.00,0.00,55.00,0.00,43.00,-1,0.000,-0.102,0.000,0.00,22.80,4,200.0000,38.3928,19.4926,13.3337,10.3718,8.7030,7.6982,7.0947,6.7697,3.3332,3.3846,3.5471,3.8488,4.3511,5.1855,6.6663,9.7455,19.1948,200.0000
-0.080,0,1705.94,-0.00,861.61,0,0.0000,1.0000,0.0000,0.5932,294.9998,18.3332,1.5321,0.0013,0.0033,-0.0003,-0.0003,-0.0013,-0.0029,0.0000,0.0000,-2.1307,2.1449,-1.6668,6.6668,3.3332,0.0003,straight,150.00,0.00,55.00,0.00,43.00,-1,0.000,-0.082,0.000,0.00,22.80,4,200.0000,38.3928,19.4926,13.3337,10.3718,8.7030,7.6982,7.0947,6.7697,3.3332,3.3846,3.5471,3.8488,4.3511,5.1855,6.6663,9.7455,19.1948,200.0000
-0.060,0,1705.94,-0.00,851.77,0,0.0000,0.0000,0.0000,0.5932,294.9998,18.3332,1.5321,0.0013,0.0033,-0.0003,-0.0003,-0.0013,-0.0029,0.0000,0.0000,-2.1307,2.1449,-1.6668,6.6668,3.3332,0.0003,straight,150.00,0.00,55.00,0.00,43.00,-1,0.000,-0.062,0.000,0.00,22.80,4,200.0000,38.3928,19.4926,13.3337,10.3718,8.7030,7.6982,7.0947,6.7697,3.3332,3.3846,3.5471,3.8488,4.3511,5.1855,6.6663,9.7455,19.1948,200.0000
-0.040,0,1705.94,-0.00,843.98,0,0.0000,0.0000,0.0000,0.5932,294.9998,18.3332,1.5321,0.0013,0.0033,-0.0003,-0.0003,-0.0013,-0.0029,0.0000,0.0000,-2.1307,2.1449,-1.6668,6.6668,3.3332,0.0003,straight,150.00,0.00,55.00,0.00,43.00,-1,0.000,-0.042,0.000,0.00,22.80,4,200.0000,38.3928,19.4926,13.3337,10.3718,8.7030,7.6982,7.0947,6.7697,3.3332,3.3846,3.5471,3.8488,4.3511,5.1855,6.6663,9.7455,19.1948,200.0000
-0.020,0,1705.94,-0.00,836.12,0,0.0000,0.0000,0.0000,0.5932,294.9998,18.3332,1.5321,0.0013,0.0033,-0.0003,-0.0003,-0.0013,-0.0029,0.0000,0.0000,-2.1307,2.1449,-1.6668,6.6668,3.3332,0.0003,straight,150.00,0.00,55.00,0.00,43.00,-1,0.000,-0.022,0.000,0.00,22.80,4,200.0000,38.3928,19.4926,13.3337,10.3718,8.7030,7.6982,7.0947,6.7697,3.3332,3.3846,3.5471,3.8488,4.3511,5.1855,6.6663,9.7455,19.1948,200.0000
0.020,0,1705.94,-0.00,820.18,0,0.0000,0.0000,0.0000,0.5932,294.9998,18.3330,1.5321,0.0012,0.0033,-0.0005,0.0347,0.0228,-0.0059,3.3051,-3.2939,3.1501,-3.1167,-1.6670,6.6670,3.3330,0.0005,straight,150.00,0.00,55.00,0.00,43.00,-1,0.000,0.018,0.000,0.00,22.80,4,200.0000,38.3939,19.4931,13.3341,10.3721,8.7032,7.6984,7.0949,6.7699,3.3330,3.3844,3.5469,3.8486,4.3509,5.1852,6.6659,9.7449,19.1938,200.0000
0.040,0,1705.94,-0.10,607.50,1,0.0000,0.0000,0.0000,0.5932,294.9997,18.3328,1.5321,0.0012,0.0034,-0.0005,-8.9629,0.0412,-0.0104,-5.3818,0.1759,-2.6869,0.2213,-1.6672,6.6672,3.3328,0.0005,straight,150.00,0.00,55.00,0.00,43.00,-1,0.000,0.038,0.000,0.00,22.80,4,200.0000,38.3949,19.4936,13.3344,10.3723,8.7034,7.6986,7.0951,6.7701,3.3328,3.3842,3.5467,3.8484,4.3507,5.1849,6.6656,9.7445,19.1928,200.0000
0.060,0,1705.94,-0.24,393.40,1,0.0000,0.0000,0.0000,0.5532,294.9985,18.3328,1.5321,0.0012,0.0036,-0.0006,0.0247,0.0482,-0.0102,2.3903,-3.3561,0.4381,-4.6998,-1.6673,6.6673,3.3327,0.0006,straight,150.00,0.00,55.00,0.00,43.00,-1,0.000,0.058,0.000,0.00,22.80,4,200.0000,38.3952,19.4938,13.3345,10.3724,8.7035,7.6987,7.0951,6.7701,3.3327,3.3842,3.5466,3.8483,4.3506,5.1848,6.6655,9.7443,19.1925,200.0000
0.080,0,1705.94,-0.26,207.83,1,0.0000,0.0000,0.0000,0.5132,294.9972,18.3328,1.5321,0.0013,0.0037,-0.0005,0.0076,0.0634,-0.0044,-4.0952,1.6174,-4.2714,0.4323,-1.6673,6.6673,3.3327,0.0005,straight,150.00,0.00,55.00,0.00,43.00,-1,0.000,0.078,0.000,0.00,22.80,4,200.0000,38.3952,19.4938,13.3345,10.3724,8.7035,7.6987,7.0952,6.7701,3.3327,3.3842,3.5466,3.8483,4.3506,5.1848,6.6655,9.7443,19.1925,200.0000
0.100,0,1705.94,-0.24,115.19,1,0.0000,0.0000,0.0000,0.4732,294.9958,18.3328,1.5321,0.0013,0.0038,-0.0005,0.0143,-0.0142,-0.0022,1.5003,-4.1590,0.5410,-4.6302,-1.6673,6.6673,3.3327,0.0005,straight,150.00,0.00,55.00,0.00,43.00,-1,0.000,0.098,0.000,0.00,22.80,4,200.0000,38.3952,19.4938,13.3345,10.3724,8.7035,7.6987,7.0952,6.7701,3.3327,3.3841,3.5466,3.8483,4.3506,5.1848,6.6655,9.7443,19.1924,200.0000
0.120,0,1705.94,-0.22,115.19,1,0.0000,0.0000,0.0000,0.4332,294.9945,18.3328,1.5321,0.0013,0.0038,-0.0005,0.0169,0.0095,0.0010,-4.1444,1.4805,-4.6128,0.6009,-1.6673,6.6673,3.3327,0.0005,straight,150.00,0.00,55.01,0.00,43.00,-1,0.000,0.118,0.000,0.00,22.80,4,200.0000,38.3952,19.4938,13.3345,10.3724,8.7035,7.6987,7.0952,6.7701,3.3327,3.3841,3.5466,3.8483,4.3506,5.1848,6.6655,9.7443,19.1924,200.0000
0.140,0,1705.94,-0.19,115.19,1,0.0000,0.0000,0.0000,0.3932,294.9933,18.3328,1.5321,0.0013,0.0038,-0.0005,0.0155,-0.0158,0.0005,1.4824,-4.1228,0.6407,-4.5898,-1.6673,6.6673,3.3327,0.0005,straight,150.00,0.00,55.01,0.00,43.00,-1,0.000,0.138,0.000,0.00,22.80,4,200.0000,38.3953,19.4938,13.3345,10.3724,8.7035,7.6987,7.0952,6.7701,3.3327,3.3841,3.5466,3.8483,4.3506,5.1848,6.6655,9.7442,19.1924,200.0000
0.160,0,1705.94,-0.17,115.19,1,0.0000,0.0000,0.0000,0.3532,294.9924,18.3328,1.5321,0.0013,0.0037,-0.0005,0.0158,0.0078,-0.0002,-4.1146,1.4741,-4.5633,0.6859,-1.6673,6.6673,3.3327,0.0005,straight,150.00,0.00,55.01,0.00,43.00,-1,0.000,0.158,0.000,0.00,22.80,4,200.0000,38.3953,19.4938,13.3346,10.3724,8.7035,7.6987,7.0952,6.7701,3.3327,3.3841,3.5466,3.8483,4.3506,5.1848,6.6654,9.7442,19.1924,200.0000
0.180,0,1705.93,-0.15,115.19,1,0.0000,0.0000,0.0000,0.3132,294.9915,18.3328,1.5321,0.0013,0.0037,-0.0005,0.0170,-0.0141,0.0012,1.4788,-4.0946,0.7196,-4.5436,-1.6673,6.6673,3.3327,0.0005,straight,150.00,0.00,55.01,0.00,43.00,-1,0.000,0.178,0.000,0.00,22.80,4,200.0000,38.3954,19.4938,13.3346,10.3725,8.7035,7.6987,7.0952,6.7701,3.3327,3.3841,3.5466,3.8483,4.3505,5.1848,6.6654,9.7442,19.1923,200.0000
0.200,0,1705.93,-0.13,115.19,1,0.0000,0.0000,0.0000,0.2732,294.9907,18.3327,1.5322,0.0013,0.0036,-0.0005,0.0177,0.0057,0.0001,-4.0871,1.4726,-4.5195,0.7595,-1.6673,6.6673,3.3327,0.0005,straight,150.00,0.00,55.01,0.00,43.00,-1,0.000,0.198,0.000,0.00,22.80,4,200.0000,38.3954,19.4939,13.3346,10.3725,8.7035,7.6987,7.0952,6.7702,3.3327,3.3841,3.5466,3.8483,4.3505,5.1848,6.6654,9.7442,19.1922,200.0000
0.220,0,1705.93,-0.10,115.19,1,0.0000,0.0000,0.0000,0.2332,294.9901,18.3327,1.5322,0.0013,0.0035,-0.0005,0.0182,-0.0138,0.0002,1.4799,-4.0699,0.7864,-4.5017,-1.6673,6.6673,3.3327,0.0005,straight,150.00,0.00,55.01,0.00,43.00,-1,0.000,0.218,0.000,0.00,22.80,4,200.0000,38.3955,19.4939,13.3346,10.3725,8.7036,7.6987,7.0952,6.7702,3.3327,3.3841,3.5466,3.8483,4.3505,5.1847,6.6654,9.7441,19.1922,200.0000
0.240,0,1705.93,-0.08,115.19,1,0.0000,0.0000,0.0000,0.1932,294.9895,18.3327,1.5322,0.0013,0.0034,-0.0005,0.0194,0.0029,-0.0006,-4.0653,1.4769,-4.4781,0.8198,-1.6673,6.6673,3.3327,0.0005,straight,150.00,0.00,55.01,0.00,43.00,-1,0.000,0.238,0.000,0.00,22.80,4,200.0000,38.3956,19.4939,13.3346,10.3725,8.7036,7.6988,7.0952,6.7702,3.3327,3.3841,3.5466,3.8482,4.3505,5.1847,6.6654,9.7441,19.1921,200.0000
0.262,0,1705.93,-0.06,115.19,1,0.0000,0.0000,0.0000,0.1532,294.9892,18.3327,1.5322,0.0013,0.0033,-0.0005,0.0239,-0.1246,-0.0003,-3.9736,1.4024,-4.3803,0.7683,-1.6673,6.6673,3.3327,0.0005,straight,150.00,0.00,55.01,0.00,43.00,-1,0.000,0.260,0.000,0.00,22.80,4,200.0000,38.3956,19.4940,13.3347,10.3725,8.7036,7.6988,7.0952,6.7702,3.3327,3.3841,3.5466,3.8482,4.3505,5.1847,6.6653,9.7441,19.1921,200.0000
0.282,0,1705.93,-0.05,115.19,1,0.0000,0.0000,0.0000,0.1132,294.9889,18.3327,1.5322,0.0013,0.0033,-0.0005,0.0191,0.1049,-0.0013,1.4109,-3.9647,0.7857,-4.3627,-1.6673,6.6673,3.3327,0.0005,straight,150.00,0.00,55.01,0.00,43.00,-1,0.000,0.280,0.000,0.00,22.80,4,200.0000,38.3957,19.4940,13.3347,10.3725,8.7036,7.6988,7.0952,6.7702,3.3327,3.3841,3.5465,3.8482,4.3505,5.1847,6.6653,9.7440,19.1920,200.0000
0.302,0,1705.93,-0.04,115.19,1,0.0000,0.0000,0.0000,0.0732,294.9886,18.3327,1.5322,0.0013,0.0032,-0.0005,0.0245,-0.1138,-0.0018,-3.9621,1.4145,-4.3429,0.8059,-1.6673,6.6673,3.3327,0.0005,straight,150.00,0.00,55.01,0.00,43.00,-1,0.000,0.300,0.000,0.00,22.80,4,200.0000,38.3957,19.4940,13.3347,10.3726,8.7036,7.6988,7.0952,6.7702,3.3327,3.3841,3.5465,3.8482,4.3505,5.1847,6.6653,9.7440,19.1920,200.0000
0.322,0,1705.93,-0.04,115.19,1,0.0000,0.0000,0.0000,0.0332,294.9883,18.3327,1.5322,0.0013,0.0032,-0.0005,0.0211,0.0945,-0.0019,1.4242,-3.9554,0.8183,-4.3268,-1.6674,6.6674,3.3326,0.0005,straight,150.00,0.00,55.01,0.00,43.00,-1,0.000,0.320,0.000,0.00,22.80,4,200.0000,38.3958,19.4941,13.3347,10.3726,8.7036,7.6988,7.0953,6.7702,3.3326,3.3840,3.5465,3.8482,4.3504,5.1847,6.6653,9.7440,19.1919,200.0000
0.342,0,1705.93,-0.03,115.19,1,0.0000,0.0000,0.0000,0.0000,294.9880,18.3327,1.5322,0.0013,0.0032,-0.0005,0.0254,-0.1008,-0.0010,-3.9553,1.4284,-4.3079,0.8348,-1.6674,6.6674,3.3326,0.0005,straight,150.00,0.00,55.01,0.00,43.00,-1,0.000,0.340,0.000,0.00,22.80,4,200.0000,38.3959,19.4941,13.3348,10.3726,8.7036,7.6988,7.0953,6.7702,3.3326,3.3840,3.5465,3.8482,4.3504,5.1846,6.6652,9.7439,19.1918,200.0000
0.362,0,1705.93,-0.03,115.19,1,0.0000,0.0000,0.0000,0.0000,294.9877,18.3326,1.5322,0.0013,0.0032,-0.0005,0.0224,0.0838,-0.0028,1.4389,-3.9511,0.8419,-4.2941,-1.6674,6.6674,3.3326,0.0005,straight,150.00,0.00,55.01,0.00,43.00,-1,0.000,0.360,0.000,0.00,22.80,4,200.0000,38.3960,19.4942,13.3348,10.3726,8.7037,7.6989,7.0953,6.7703,3.3326,3.3840,3.5465,3.8482,4.3504,5.1846,6.6652,9.7439,19.1917,200.0000
0.382,0,1705.93,-0.02,115.19,1,0.0000,0.0000,0.0000,0.0000,294.9876,18.3326,1.5322,0.0013,0.0032,-0.0005,0.0280,-0.0912,-0.0015,-3.9516,1.4418,-4.2775,0.8545,-1.6674,6.6674,3.3326,0.0005,straight,150.00,0.00,55.01,0.00,43.00,-1,0.000,0.380,0.000,0.00,22.80,4,200.0000,38.3961,19.4942,13.3348,10.3727,8.7037,7.6989,7.0953,6.7703,3.3326,3.3840,3.5465,3.8481,4.3504,5.1846,6.6652,9.7438,19.1916,200.0000
0.402,0,1705.93,-0.02,115.19,1,0.0000,0.0000,0.0000,0.0000,294.9876,18.3326,1.5322,0.0013,0.0033,-0.0005,0.0233,0.0752,-0.0005,1.4502,-3.9473,0.8625,-4.2671,-1.6674,6.6674,3.3326,0.0005,straight,150.00,0.00,55.01,0.00,43.00,-1,0.000,0.400,0.000,0.00,22.80,4,200.0000,38.3962,19.4943,13.3349,10.3727,8.7037,7.6989,7.0953,6.7703,3.3326,3.3840,3.5464,3.8481,4.3503,5.1845,6.6651,9.7438,19.1914,200.0000
0.422,0,1705.93,-0.02,115.19,1,0.0000,0.0000,0.0000,0.0000,294.9876,18.3326,1.5322,0.0013,0.0033,-0.0005,0.0296,-0.0829,0.0000,-3.9474,1.4512,-4.2536,0.8755,-1.6675,6.6675,3.3325,0.0005,straight,150.00,0.00,55.01,0.00,43.00,-1,0.000,0.420,0.000,0.00,22.80,4,200.0000,38.3964,19.4943,13.3349,10.3727,8.7037,7.6989,7.0954,6.7703,3.3325,3.3840,3.5464,3.8481,4.3503,5.1845,6.6651,9.7437,19.1913,200.0000
0.442,0,1705.93,-0.02,115.19,1,0.0000,0.0000,0.0000,0.0000,294.9876,18.3326,1.5322,0.0013,0.0033,-0.0005,0.0238,0.0678,0.0006,1.4572,-3.9423,0.8823,-4.2458,-1.6675,6.6675,3.3325,0.0005,straight,150.00,0.00,55.01,0.00,43.00,-1,0.000,0.440,0.000,0.00,22.80,4,200.0000,38.3965,19.4944,13.3350,10.3728,8.7038,7.6989,7.0954,6.7703,3.3325,3.3839,3.5464,3.8481,4.3503,5.1845,6.6650,9.7436,19.1912,200.0000
0.462,0,1705.93,-0.01,115.19,1,0.0000,0.0000,0.0000,0.0000,294.9876,18.3325,1.5322,0.0013,0.0033,-0.0005,0.0304,-0.0757,-0.0006,-3.9428,1.4575,-4.2343,0.8947,-1.6675,6.6675,3.3325,0.0005,straight,150.00,0.00,55.01,0.00,43.00,-1,0.000,0.460,0.000,0.00,22.80,4,200.0000,38.3966,19.4945,13.3350,10.3728,8.7038,7.6990,7.0954,6.7704,3.3325,3.3839,3.5464,3.8480,4.3503,5.1845,6.6650,9.7436,19.1911,200.0000
0.482,0,1705.93,-0.01,115.19,1,0.0000,0.0000,0.0000,0.0000,294.9876,18.3325,1.5322,0.0013,0.0033,-0.0005,0.0247,0.0614,0.0010,1.4631,-3.9370,0.9007,-4.2271,-1.6675,6.6675,3.3325,0.0005,straight,150.00,0.00,55.01,0.00,43.00,-1,0.000,0.480,0.000,0.00,22.80,4,200.0000,38.3967,19.4945,13.3350,10.3728,8.7038,7.6990,7.0954,6.7704,3.3325,3.3839,3.5464,3.8480,4.3502,5.1844,6.6650,9.7435,19.1910,200.0000
0.504,0,1705.93,-0.01,115.19,1,0.0000,0.0000,0.0000,0.0000,294.9876,18.3325,1.5322,0.0013,0.0033,-0.0005,0.0295,-0.0014,-0.0009,-4.0199,1.5429,-4.2932,0.9912,-1.6675,6.6675,3.3325,0.0005,straight,150.00,0.00,55.01,0.00,43.00,-1,0.000,0.502,0.000,0.00,22.80,4,200.0000,38.3968,19.4946,13.3351,10.3728,8.7039,7.6990,7.0954,6.7704,3.3325,3.3839,3.5463,3.8480,4.3502,5.1844,6.6649,9.7435,19.1909,200.0000
0.524,0,1705.93,-0.01,115.19,1,0.0000,0.0000,0.0000,0.0000,294.9876,18.3325,1.5322,0.0013,0.0033,-0.0006,0.0292,-0.0092,-0.0021,1.5506,-4.0117,0.9940,-4.2904,-1.6676,6.6676,3.3324,0.0006,straight,150.00,0.00,55.01,0.00,43.00,-1,0.000,0.522,0.000,0.00,22.80,4,200.0000,38.3969,19.4946,13.3351,10.3729,8.7039,7.6990,7.0955,6.7704,3.3324,3.3839,3.5463,3.8480,4.3502,5.1844,6.6649,9.7434,19.1908,200.0000
0.544,0,1705.93,-0.00,115.19,1,0.0000,0.0000,0.0000,0.0000,294.9876,18.3325,1.5322,0.0013,0.0033,-0.0005,0.0276,-0.0016,-0.0014,-4.0145,1.5469,-4.2785,1.0059,-1.6676,6.6676,3.3324,0.0005,straight,150.00,0.00,55.01,0.00,43.00,-1,0.000,0.542,0.000,0.00,22.80,4,200.0000,38.3970,19.4947,13.3352,10.3729,8.7039,7.6991,7.0955,6.7704,3.3324,3.3838,3.5463,3.8479,4.3502,5.1843,6.6648,9.7433,19.1906,200.0000
0.564,0,1705.93,-0.00,115.19,1,0.0000,0.0000,0.0000,0.0000,294.9876,18.3324,1.5322,0.0013,0.0033,-0.0006,0.0303,-0.0087,-0.0020,1.5553,-4.0067,1.0080,-4.2768,-1.6676,6.6676,3.3324,0.0006,straight,150.00,0.00,55.01,0.00,43.00,-1,0.000,0.562,0.000,0.00,22.80,4,200.0000,38.3972,19.4948,13.3352,10.3730,8.7039,7.6991,7.0955,6.7705,3.3324,3.3838,3.5463,3.8479,4.3501,5.1843,6.6648,9.7433,19.1905,200.0000
0.584,0,1705.93,0.00,115.19,1,0.0000,0.0000,0.0000,0.0000,294.9876,18.3324,1.5322,0.0013,0.0033,-0.0005,0.0287,-0.0018,-0.0009,-4.0100,1.5513,-4.2667,1.0195,-1.6676,6.6676,3.3324,0.0005,straight,150.00,0.00,55.01,0.00,43.00,-1,0.000,0.582,0.000,0.00,22.80,4,200.0000,38.3974,19.4949,13.3353,10.3730,8.7040,7.6991,7.0956,6.7705,3.3324,3.3838,3.5462,3.8479,4.3501,5.1842,6.6647,9.7432,19.1903,200.0000
0.604,0,1705.93,0.00,115.19,1,0.0000,0.0000,0.0000,0.0000,294.9876,18.3324,1.5322,0.0013,0.0033,-0.0006,0.0297,-0.0083,-0.0014,1.5582,-4.0026,1.0197,-4.2660,-1.6677,6.6677,3.3323,0.0006,straight,150.00,0.00,55.01,0.00,43.00,-1,0.000,0.602,0.000,0.00,22.80,4,200.0000,38.3976,19.4950,13.3354,10.3731,8.7040,7.6992,7.0956,6.7705,3.3323,3.3837,3.5462,3.8478,4.3500,5.1842,6.6646,9.7431,19.1901,200.0000
0.624,0,1705.93,0.43,115.19,1,0.0000,1.0000,0.0000,0.0000,294.9882,18.3323,1.5322,0.0013,0.0032,-0.0005,13.8947,0.3152,0.0017,1.5896,-1.1736,0.1104,0.2897,-1.6677,6.6677,3.3323,0.0005,straight,150.00,0.00,55.01,0.00,43.00,-1,0.000,0.622,0.000,0.00,22.80,4,200.0000,38.3979,19.4951,13.3354,10.3731,8.7041,7.6992,7.0956,6.7706,3.3323,3.3837,3.5461,3.8478,4.3500,5.1841,6.6646,9.7429,19.1898,200.0000
0.644,0,1705.93,0.86,115.19,1,0.0000,1.0000,0.0000,0.0000,294.9915,18.3323,1.5322,0.0013,0.0026,-0.0004,4.4313,0.1522,0.0041,-0.1330,1.7161,0.9662,2.4196,-1.6677,6.6677,3.3323,0.0004,straight,150.00,0.00,55.01,0.00,43.00,-1,0.000,0.642,0.000,0.00,22.80,4,200.0000,38.3980,19.4952,13.3355,10.3732,8.7041,7.6992,7.0957,6.7706,3.3323,3.3837,3.5461,3.8478,4.3500,5.1841,6.6645,9.7429,19.1897,200.0000
0.664,0,1705.93,1.26,115.19,1,0.0000,1.0000,0.0000,0.0000,294.9974,18.3323,1.5322,0.0013,0.0016,-0.0005,5.7618,0.0221,0.0016,5.7430,1.4287,5.0791,0.1419,-1.6678,6.6678,3.3322,0.0005,straight,150.00,0.00,55.00,0.00,43.00,-1,0.000,0.662,0.000,0.00,22.80,4,200.0000,38.3981,19.4952,13.3355,10.3732,8.7042,7.6993,7.0957,6.7706,3.3322,3.3836,3.5461,3.8477,4.3499,5.1840,6.6645,9.7428,19.1896,200.0000
0.684,0,1705.94,1.80,115.19,1,0.0000,1.0000,0.0000,0.0000,295.0061,18.3322,1.5322,0.0013,0.0004,-0.0005,12.0867,-0.0479,-0.0027,3.4386,1.7315,1.2564,4.8303,-1.6678,6.6678,3.3322,0.0005,straight,150.00,0.00,54.99,0.00,43.00,-1,0.000,0.682,0.000,0.00,22.80,4,200.0000,38.3983,19.4953,13.3356,10.3733,8.7042,7.6993,7.0957,6.7707,3.3322,3.3836,3.5461,3.8477,4.3499,5.1840,6.6644,9.7427,19.1894,200.0000
0.704,0,1705.95,2.25,115.19,1,0.0000,1.0000,0.0000,0.0000,295.0175,18.3322,1.5322,0.0013,-0.0008,-0.0005,5.8263,0.0928,-0.0083,1.6842,3.9492,1.3617,7.0126,-1.6678,6.6678,3.3322,0.0005,straight,150.00,0.00,54.98,0.00,43.00,-1,0.000,0.702,0.000,0.00,22.80,4,200.0000,38.3984,19.4954,13.3356,10.3733,8.7042,7.6993,7.0957,6.7707,3.3322,3.3836,3.5460,3.8477,4.3499,5.1840,6.6644,9.7427,19.1893,200.0000
0.724,0,1705.96,2.73,115.19,1,0.0000,1.0000,0.0000,0.0000,295.0315,18.3322,1.5322,0.0013,-0.0019,-0.0005,7.6033,0.2347,-0.0173,5.8204,1.1364,7.1452,2.1413,-1.6678,6.6678,3.3322,0.0005,straight,150.00,0.00,54.97,0.00,43.00,-1,0.000,0.722,0.000,0.00,22.80,4,200.0000,38.3984,19.4954,13.3356,10.3733,8.7042,7.6993,7.0957,6.7707,3.3322,3.3836,3.5460,3.8477,4.3499,5.1840,6.6644,9.7426,19.1893,200.0000
0.744,0,1705.97,3.21,115.19,1,0.0000,1.0000,0.0000,0.0000,295.0483,18.3322,1.5322,0.0013,-0.0028,-0.0004,4.0878,-0.0931,-0.0268,1.5938,5.9805,2.6322,7.6503,-1.6678,6.6678,3.3322,0.0004,straight,150.00,0.00,54.95,0.00,43.00,-1,0.000,0.742,0.000,0.00,22.80,4,200.0000,38.3985,19.4954,13.3357,10.3733,8.7042,7.6994,7.0958,6.7707,3.3322,3.3836,3.5460,3.8477,4.3498,5.1839,6.6643,9.7426,19.1892,200.0000
0.764,0,1705.99,3.73,115.19,1,0.0000,1.0000,0.0000,0.0000,295.0677,18.3322,1.5321,0.0013,-0.0036,-0.0004,7.9939,0.0810,-0.0335,6.5149,2.3148,4.1855,4.6206,-1.6678,6.6678,3.3322,0.0004,straight,150.00,0.00,54.93,0.00,43.00,-1,0.000,0.762,0.000,0.00,22.80,4,200.0000,38.3986,19.4955,13.3357,10.3733,8.7043,7.6994,7.0958,6.7707,3.3322,3.3836,3.5460,3.8476,4.3498,5.1839,6.6643,9.7426,19.1891,200.0000
0.784,0,1706.01,4.22,115.19,1,0.0000,1.0000,0.0000,0.0000,295.0900,18.3322,1.5321,0.0013,-0.0041,-0.0004,6.2210,-0.2239,-0.0411,2.5806,6.6237,6.1554,3.8611,-1.6679,6.6679,3.3321,0.0004,straight,150.00,0.00,54.91,0.00,43.00,-1,0.000,0.782,0.000,0.00,22.80,4,200.0000,38.3987,19.4956,13.3357,10.3734,8.7043,7.6994,7.0958,6.7707,3.3321,3.3835,3.5460,3.8476,4.3498,5.1839,6.6643,9.7425,19.1890,200.0000
0.804,0,1706.03,4.71,115.19,1,0.0000,1.0000,0.0000,0.0000,295.1149,18.3322,1.5321,0.0013,-0.0044,-0.0004,7.3374,0.1346,-0.0454,7.0375,3.0655,4.7068,5.6148,-1.6679,6.6679,3.3321,0.0004,straight,150.00,0.00,54.89,0.00,43.00,-1,0.000,0.802,0.000,0.00,22.80,4,200.0000,38.3988,19.4956,13.3358,10.3734,8.7043,7.6994,7.0958,6.7708,3.3321,3.3835,3.5460,3.8476,4.3498,5.1838,6.6642,9.7424,19.1888,200.0000
0.824,0,1706.06,5.19,115.19,1,0.0000,1.0000,0.0000,0.0000,295.1425,18.3321,1.5320,0.0013,-0.0044,-0.0004,6.8791,-0.1560,-0.0535,3.4919,7.3799,5.9767,5.1465,-1.6679,6.6679,3.3321,0.0004,straight,150.00,0.00,54.86,0.00,43.00,-1,0.000,0.822,0.000,0.00,22.80,4,200.0000,38.3990,19.4957,13.3358,10.3734,8.7043,7.6994,7.0958,6.7708,3.3321,3.3835,3.5459,3.8476,4.3497,5.1838,6.6642,9.7424,19.1887,200.0000
0.844,0,1706.08,5.68,115.19,1,0.0000,1.0000,0.0000,0.0000,295.1729,18.3321,1.5319,0.0013,-0.0043,-0.0004,7.1305,0.1373,-0.0519,7.8403,3.8626,5.7060,6.3514,-1.6679,6.6679,3.3321,0.0004,straight,150.00,0.00,54.83,0.00,43.00,-1,0.000,0.842,0.000,0.00,22.80,4,200.0000,38.3991,19.4957,13.3359,10.3735,8.7044,7.6995,7.0959,6.7708,3.3321,3.3835,3.5459,3.8475,4.3497,5.1838,6.6641,9.7423,19.1886,200.0000
0.864,0,1706.11,6.16,115.19,1,0.0000,1.0000,0.0000,0.0000,295.2058,18.3321,1.5318,0.0012,-0.0041,-0.0004,6.8237,-0.1212,-0.0430,4.4186,8.2512,6.6838,6.2932,-1.6679,6.6679,3.3321,0.0004,straight,150.00,0.00,54.79,0.00,43.00,-1,0.000,0.862,0.000,0.00,22.80,4,200.0000,38.3992,19.4958,13.3359,10.3735,8.7044,7.6995,7.0959,6.7708,3.3321,3.3835,3.5459,3.8475,4.3497,5.1838,6.6641,9.7423,19.1885,200.0000
0.884,0,1706.15,6.64,118.90,1,0.0000,1.0000,0.0000,0.0000,295.2415,18.3321,1.5317,0.0012,-0.0039,-0.0004,7.1592,0.1048,-0.0346,8.7500,4.7834,6.8197,7.1852,-1.6680,6.6680,3.3320,0.0004,straight,150.00,0.00,54.76,0.00,43.00,-1,0.000,0.882,0.000,0.00,22.80,4,200.0000,38.3993,19.4958,13.3359,10.3735,8.7044,7.6995,7.0959,6.7708,3.3320,3.3834,3.5459,3.8475,4.3497,5.1837,6.6641,9.7422,19.1884,200.0000
0.904,0,1706.18,7.13,128.85,1,0.0000,1.0000,0.0000,0.0000,295.2799,18.3321,1.5315,0.0012,-0.0036,-0.0004,6.9852,-0.0614,-0.0270,5.5833,9.2984,7.7236,7.5653,-1.6680,6.6680,3.3320,0.0004,straight,150.00,0.00,54.72,0.00,43.00,-1,0.000,0.902,0.000,0.00,22.80,4,200.0000,38.3994,19.4959,13.3360,10.3735,8.7044,7.6995,7.0959,6.7709,3.3320,3.3834,3.5459,3.8475,4.3496,5.1837,6.6640,9.7422,19.1883,200.0000
0.924,0,1706.22,7.64,140.85,1,0.0000,1.0000,0.0000,0.0000,295.3210,18.3320,1.5314,0.0012,-0.0034,-0.0004,7.8049,-0.0033,-0.0187,9.9209,6.2440,8.2766,8.5525,-1.6680,6.6680,3.3320,0.0004,straight,150.00,0.00,54.68,0.00,43.00,-1,0.000,0.922,0.000,0.00,22.80,4,200.0000,38.3995,19.4959,13.3360,10.3736,8.7045,7.6996,7.0959,6.7709,3.3320,3.3834,3.5458,3.8475,4.3496,5.1837,6.6640,9.7421,19.1882,200.0000
0.944,0,1706.26,8.18,149.76,1,0.0000,1.0000,0.0000,0.0000,295.3651,18.3320,1.5312,0.0011,-0.0032,-0.0004,7.8533,0.0479,-0.0161,7.2434,10.0136,9.0203,8.9803,-1.6680,6.6680,3.3320,0.0004,straight,150.00,0.00,54.63,0.00,43.00,-1,0.000,0.942,0.000,0.00,22.80,4,200.0000,38.3996,19.4960,13.3361,10.3736,8.7045,7.6996,7.0960,6.7709,3.3320,3.3834,3.5458,3.8474,4.3496,5.1836,6.6639,9.7420,19.1881,200.0000
0.964,0,1706.31,8.76,156.44,1,0.0000,1.0000,0.0000,0.0000,295.4122,18.3320,1.5311,0.0011,-0.0031,-0.0004,8.3344,-0.0242,-0.0149,10.3515,7.5709,9.3502,9.5762,-1.6681,6.6681,3.3319,0.0004,straight,150.00,0.00,54.59,0.00,43.00,-1,0.000,0.962,0.000,0.00,22.80,4,200.0000,38.3998,19.4961,13.3361,10.3737,8.7045,7.6996,7.0960,6.7709,3.3319,3.3833,3.5458,3.8474,4.3495,5.1836,6.6639,9.7419,19.1879,200.0000
0.984,0,1706.35,9.36,160.15,1,0.0000,1.0000,0.0000,0.0000,295.4626,18.3319,1.5309,0.0010,-0.0030,-0.0004,8.6004,-0.0206,-0.0113,8.6955,9.2529,9.8524,9.8162,-1.6681,6.6681,3.3319,0.0004,straight,150.00,0.00,54.54,0.00,43.00,-1,0.000,0.982,0.000,0.00,22.80,4,200.0000,38.4000,19.4962,13.3362,10.3737,8.7046,7.6997,7.0960,6.7710,3.3319,3.3833,3.5457,3.8473,4.3495,5.1835,6.6638,9.7418,19.1877,200.0000
1.006,0,1706.40,10.02,168.54,1,0.0000,1.0000,0.0000,0.0000,295.5221,18.3319,1.5307,0.0009,-0.0031,-0.0004,8.7915,0.0509,-0.0109,9.7371,9.3021,7.9532,12.7883,-1.6681,6.6681,3.3319,0.0004,straight,150.00,0.00,54.48,0.00,43.00,-1,0.000,1.004,0.000,0.00,22.80,4,200.0000,38.4002,19.4963,13.3363,10.3738,8.7046,7.6997,7.0961,6.7710,3.3319,3.3833,3.5457,3.8473,4.3494,5.1835,6.6637,9.7417,19.1874,200.0000
1.026,0,1706.46,10.16,145.00,1,0.0000,0.2000,0.0000,0.0000,295.5783,18.3319,1.5305,0.0009,-0.0029,-0.0004,3.6265,-0.1862,-0.0065,8.8008,9.4545,11.5481,7.3384,-1.6682,6.6682,3.3318,0.0004,straight,150.00,0.00,54.42,0.00,43.00,-1,0.000,1.024,0.000,0.00,22.80,4,200.0000,38.4004,19.4964,13.3363,10.3738,8.7047,7.6997,7.0961,6.7710,3.3318,3.3832,3.5457,3.8473,4.3494,5.1834,6.6637,9.7416,19.1873,200.0000
1.046,0,1706.52,10.30,164.86,1,0.0000,0.4000,0.0000,0.0000,295.6351,18.3319,1.5303,0.0008,-0.0024,-0.0004,2.9876,0.0123,-0.0073,11.3924,9.1833,8.6591,12.7736,-1.6682,6.6682,3.3318,0.0004,straight,150.00,0.00,54.36,0.00,43.00,-1,0.000,1.044,0.000,0.00,22.80,4,200.0000,38.4005,19.4965,13.3364,10.3738,8.7047,7.6998,7.0961,6.7710,3.3318,3.3832,3.5456,3.8473,4.3494,5.1834,6.6636,9.7416,19.1872,200.0000
1.066,0,1706.58,10.70,162.33,1,0.0000,0.6000,0.0000,0.0000,295.6935,18.3318,1.5302,0.0007,-0.0019,-0.0004,4.9492,-0.0037,-0.0028,10.1696,9.7855,10.1378,10.1619,-1.6682,6.6682,3.3318,0.0004,straight,150.00,0.00,54.31,0.00,43.00,-1,0.000,1.064,0.000,0.00,22.80,4,200.0000,38.4006,19.4965,13.3364,10.3739,8.7047,7.6998,7.0961,6.7711,3.3318,3.3832,3.5456,3.8472,4.3494,5.1834,6.6636,9.7415,19.1871,200.0000
1.086,0,1706.64,11.15,183.79,1,0.0000,0.8000,0.0000,0.0000,295.7542,18.3318,1.5300,0.0006,-0.0015,-0.0003,7.5988,-0.0009,0.0011,11.0136,10.9860,11.2694,11.3739,-1.6682,6.6682,3.3318,0.0003,straight,150.00,0.00,54.25,0.00,43.00,-1,0.000,1.084,0.000,0.00,22.80,4,200.0000,38.4007,19.4966,13.3364,10.3739,8.7047,7.6998,7.0962,6.7711,3.3318,3.3832,3.5456,3.8472,4.3493,5.1833,6.6636,9.7415,19.1870,200.0000
1.106,0,1706.70,11.86,186.08,1,0.0000,1.0000,0.0000,0.0000,295.8182,18.3318,1.5298,0.0004,-0.0014,-0.0003,9.2105,0.0065,-0.0035,11.1440,10.7727,10.8747,11.2491,-1.6682,6.6682,3.3318,0.0003,straight,150.00,0.00,54.18,0.00,43.00,-1,0.000,1.104,0.000,0.00,22.80,4,200.0000,38.4008,19.4966,13.3365,10.3739,8.7048,7.6998,7.0962,6.7711,3.3318,3.3832,3.5456,3.8472,4.3493,5.1833,6.6635,9.7414,19.1869,200.0000
1.126,0,1706.76,12.48,201.63,1,0.0000,1.0000,0.0000,0.0000,295.8860,18.3318,1.5296,0.0003,-0.0016,-0.0003,8.8403,0.0067,-0.0014,11.6688,12.1720,13.5046,11.0814,-1.6683,6.6683,3.3317,0.0003,straight,150.00,0.00,54.11,0.00,43.00,-1,0.000,1.124,0.000,0.00,22.80,4,200.0000,38.4009,19.4967,13.3365,10.3740,8.7048,7.6998,7.0962,6.7711,3.3317,3.3831,3.5456,3.8472,4.3493,5.1833,6.6635,9.7414,19.1867,200.0000
1.146,0,1706.83,13.17,216.97,1,0.0000,1.0000,0.0000,0.0000,295.9574,18.3318,1.5294,0.0002,-0.0020,-0.0003,10.9457,-0.0239,-0.0010,12.8605,12.6291,11.9936,14.0146,-1.6683,6.6683,3.3317,0.0003,straight,150.00,0.00,54.04,0.00,43.00,-1,0.000,1.144,0.000,0.00,22.80,4,200.0000,38.4011,19.4967,13.3365,10.3740,8.7048,7.6999,7.0962,6.7711,3.3317,3.3831,3.5455,3.8471,4.3493,5.1832,6.6635,9.7413,19.1866,200.0000
1.166,0,1706.90,13.90,220.93,1,0.0000,1.0000,0.0000,0.0000,296.0328,18.3317,1.5292,-0.0000,-0.0026,-0.0003,10.0138,0.0132,-0.0024,13.2294,13.0587,13.6476,13.0097,-1.6683,6.6683,3.3317,0.0003,straight,150.00,0.00,53.97,0.00,43.00,-1,0.000,1.164,0.000,0.00,22.80,4,200.0000,38.4012,19.4968,13.3366,10.3740,8.7048,7.6999,7.0962,6.7712,3.3317,3.3831,3.5455,3.8471,4.3492,5.1832,6.6634,9.7413,19.1865,200.0000
1.186,0,1706.97,14.61,231.49,1,0.0000,1.0000,0.0000,0.0000,296.1122,18.3317,1.5290,-0.0002,-0.0033,-0.0003,10.3618,-0.0021,-0.0070,13.9767,13.8152,13.9527,13.8692,-1.6683,6.6683,3.3317,0.0003,straight,150.00,0.00,53.89,0.00,43.00,-1,0.000,1.184,0.000,0.00,22.80,4,200.0000,38.4013,19.4968,13.3366,10.3741,8.7049,7.6999,7.0963,6.7712,3.3317,3.3831,3.5455,3.8471,4.3492,5.1832,6.6634,9.7412,19.1864,200.0000
1.206,0,1707.05,15.34,242.33,1,0.0000,1.0000,0.0000,0.0000,296.1956,18.3317,1.5288,-0.0003,-0.0039,-0.0003,10.4617,-0.0012,-0.0128,14.6813,14.5087,14.5617,14.6586,-1.6683,6.6683,3.3317,0.0003,straight,150.00,0.00,53.80,0.00,43.00,-1,0.000,1.204,0.000,0.00,22.80,4,200.0000,38.4014,19.4969,13.3367,10.3741,8.7049,7.6999,7.0963,6.7712,3.3317,3.3831,3.5455,3.8471,4.3492,5.1832,6.6633,9.7411,19.1863,200.0000
1.226,0,1707.14,16.07,253.62,1,0.0000,1.0000,0.0000,0.0000,296.2831,18.3317,1.5287,-0.0005,-0.0046,-0.0003,10.5655,0.0002,-0.0201,15.4247,15.2382,15.2990,15.3782,-1.6684,6.6684,3.3316,0.0003,straight,150.00,0.00,53.72,0.00,43.00,-1,0.000,1.224,0.000,0.00,22.80,4,200.0000,38.4015,19.4970,13.3367,10.3741,8.7049,7.6999,7.0963,6.7712,3.3316,3.3830,3.5455,3.8471,4.3492,5.1831,6.6633,9.7411,19.1862,200.0000
1.246,0,1707.22,16.82,265.21,1,0.0000,1.0000,0.0000,0.0000,296.3746,18.3317,1.5285,-0.0007,-0.0052,-0.0003,10.7066,0.0017,-0.0287,16.1792,15.9885,16.0381,16.1257,-1.6684,6.6684,3.3316,0.0003,straight,150.00,0.00,53.63,0.00,43.00,-1,0.000,1.244,0.000,0.00,22.80,4,200.0000,38.4016,19.4970,13.3367,10.3741,8.7049,7.7000,7.0963,6.7712,3.3316,3.3830,3.5454,3.8470,4.3491,5.1831,6.6633,9.7410,19.1861,200.0000
1.266,0,1707.32,17.57,277.08,1,0.0000,1.0000,0.0000,0.0000,296.4703,18.3317,1.5282,-0.0009,-0.0057,-0.0003,10.8586,0.0023,-0.0384,16.9535,16.7693,16.7955,16.8751,-1.6684,6.6684,3.3316,0.0003,straight,150.00,0.00,53.53,0.00,43.00,-1,0.000,1.264,0.000,0.00,22.80,4,200.0000,38.4017,19.4971,13.3368,10.3742,8.7050,7.7000,7.0964,6.7713,3.3316,3.3830,3.5454,3.8470,4.3491,5.1831,6.6632,9.7410,19.1860,200.0000
1.286,0,1707.41,18.34,289.21,1,0.0000,1.0000,0.0000,0.0000,296.5703,18.3316,1.5280,-0.0010,-0.0061,-0.0003,11.0154,0.0028,-0.0480,17.7321,17.5717,17.5813,17.6392,-1.6684,6.6684,3.3316,0.0003,straight,150.00,0.00,53.43,0.00,43.00,-1,0.000,1.284,0.000,0.00,22.80,4,200.0000,38.4018,19.4971,13.3368,10.3742,8.7050,7.7000,7.0964,6.7713,3.3316,3.3830,3.5454,3.8470,4.3491,5.1830,6.6632,9.7409,19.1859,200.0000
1.306,0,1707.51,19.12,301.65,1,0.0000,1.0000,0.0000,0.0000,296.6745,18.3316,1.5278,-0.0012,-0.0064,-0.0003,11.1702,0.0030,-0.0713,18.5131,18.3985,18.4044,18.4192,-1.6684,6.6684,3.3316,0.0003,straight,150.00,0.00,53.33,0.00,43.00,-1,0.000,1.304,0.000,0.00,22.80,4,200.0000,38.4019,19.4972,13.3369,10.3742,8.7050,7.7000,7.0964,6.7713,3.3316,3.3830,3.5454,3.8470,4.3491,5.1830,6.6631,9.7409,19.1858,200.0000
1.326,0,1707.62,19.91,314.35,1,0.0000,1.0000,0.0000,0.0000,296.7831,18.3316,1.5275,-0.0013,-0.0067,-0.0003,11.3383,0.0036,-0.0755,19.2699,19.2603,19.2629,19.2160,-1.6684,6.6684,3.3316,0.0003,straight,150.00,0.00,53.22,0.00,43.00,-1,0.000,1.324,0.000,0.00,22.80,4,200.0000,38.4020,19.4972,13.3369,10.3743,8.7050,7.7001,7.0964,6.7713,3.3316,3.3829,3.5454,3.8469,4.3490,5.1830,6.6631,9.7408,19.1857,200.0000
1.346,0,1707.72,20.71,327.49,1,0.0000,1.0000,0.0000,0.0000,296.8962,18.3316,1.5272,-0.0014,-0.0069,-0.0003,11.5003,0.0037,-0.0799,20.0433,20.1636,20.1585,20.0317,-1.6685,6.6685,3.3315,0.0003,straight,150.00,0.00,53.10,0.00,43.00,-1,0.000,1.344,0.000,0.00,22.80,4,200.0000,38.4021,19.4973,13.3369,10.3743,8.7051,7.7001,7.0964,6.7713,3.3315,3.3829,3.5453,3.8469,4.3490,5.1829,6.6631,9.7408,19.1855,200.0000
1.366,0,1707.84,21.52,341.64,1,0.0000,1.0000,0.0000,0.0000,297.0137,18.3316,1.5268,-0.0014,-0.0072,-0.0003,11.7136,0.0036,-0.0847,20.8685,21.1491,21.1194,20.8870,-1.6685,6.6685,3.3315,0.0003,straight,150.00,0.00,52.99,0.00,43.00,-1,0.000,1.364,0.000,0.00,22.80,4,200.0000,38.4023,19.4973,13.3370,10.3743,8.7051,7.7001,7.0965,6.7714,3.3315,3.3829,3.5453,3.8469,4.3490,5.1829,6.6630,9.7407,19.1854,200.0000
1.386,0,1707.96,22.35,356.67,1,0.0000,1.0000,0.0000,0.0000,297.1357,18.3315,1.5264,-0.0015,-0.0074,-0.0003,11.9424,0.0027,-0.0894,21.7402,22.2327,22.0930,21.8091,-1.6685,6.6685,3.3315,0.0003,straight,150.00,0.00,52.86,0.00,43.00,-1,0.000,1.384,0.000,0.00,22.80,4,200.0000,38.4024,19.4974,13.3370,10.3743,8.7051,7.7001,7.0965,6.7714,3.3315,3.3829,3.5453,3.8469,4.3490,5.1829,6.6630,9.7406,19.1853,200.0000
1.406,0,1708.08,23.20,372.72,1,0.0000,1.0000,0.0000,0.0000,297.2625,18.3315,1.5260,-0.0014,-0.0077,-0.0003,12.1800,-0.0009,-0.0961,22.7215,23.3856,23.1016,22.7812,-1.6685,6.6685,3.3315,0.0003,straight,150.00,0.00,52.74,0.00,43.00,-1,0.000,1.404,0.000,0.00,22.80,4,200.0000,38.4026,19.4975,13.3371,10.3744,8.7052,7.7002,7.0965,6.7714,3.3315,3.3829,3.5453,3.8468,4.3489,5.1828,6.6629,9.7405,19.1851,200.0000
1.426,0,1708.20,24.07,389.89,1,0.0000,1.0000,0.0000,0.0000,297.3941,18.3315,1.5256,-0.0013,-0.0080,-0.0003,12.4254,-0.0026,-0.1012,23.8426,24.5870,24.1581,23.8095,-1.6686,6.6686,3.3314,0.0003,straight,150.00,0.00,52.61,0.00,43.00,-1,0.000,1.424,0.000,0.00,22.80,4,200.0000,38.4028,19.4976,13.3372,10.3745,8.7052,7.7002,7.0966,6.7715,3.3314,3.3828,3.5452,3.8468,4.3489,5.1828,6.6628,9.7404,19.1849,200.0000
1.446,0,1708.34,24.95,408.60,1,0.0000,1.0000,0.0000,0.0000,297.5305,18.3314,1.5251,-0.0012,-0.0083,-0.0003,12.6707,-0.0028,-0.1057,25.1046,25.9177,25.2731,24.9096,-1.6686,6.6686,3.3314,0.0003,straight,150.00,0.00,52.47,0.00,43.00,-1,0.000,1.444,0.000,0.00,22.80,4,200.0000,38.4030,19.4977,13.3372,10.3745,8.7053,7.7003,7.0966,6.7715,3.3314,3.3828,3.5452,3.8468,4.3488,5.1827,6.6628,9.7403,19.1847,200.0000
1.466,0,1708.47,25.85,429.39,1,0.0000,1.0000,0.0000,0.0000,297.6718,18.3314,1.5246,-0.0010,-0.0085,-0.0003,12.9193,-0.0024,-0.1039,26.5605,27.4247,26.4650,26.1070,-1.6687,6.6687,3.3313,0.0003,straight,150.00,0.00,52.33,0.00,43.00,-1,0.000,1.464,0.000,0.00,22.80,4,200.0000,38.4032,19.4978,13.3373,10.3746,8.7053,7.7003,7.0966,6.7715,3.3313,3.3827,3.5451,3.8467,4.3488,5.1827,6.6627,9.7402,19.1845,200.0000
1.486,0,1708.61,26.77,450.20,1,0.0249,1.0000,0.0000,0.0000,297.8183,18.3314,1.5240,-0.0007,-0.0088,-0.0002,13.0977,0.3639,-0.1035,28.1084,29.0471,27.6032,27.2403,-1.6686,6.6686,3.3314,0.0002,straight,150.00,0.00,52.18,0.00,43.00,-1,0.000,1.484,0.000,0.00,22.80,4,200.0000,38.4030,19.4977,13.3372,10.3745,8.7052,7.7002,7.0966,6.7715,3.3314,3.3828,3.5452,3.8468,4.3488,5.1827,6.6628,9.7403,19.1847,200.0000
1.506,0,1708.76,27.69,469.90,1,0.0497,1.0000,0.0000,0.0000,297.9698,18.3317,1.5234,-0.0002,-0.0091,0.0001,13.1672,0.6536,-0.1032,29.6655,30.6688,28.5966,28.2575,-1.6683,6.6683,3.3317,-0.0001,straight,150.00,0.00,52.03,0.00,43.00,-1,0.000,1.504,0.000,0.00,22.80,4,200.0000,38.4015,19.4969,13.3367,10.3741,8.7049,7.6999,7.0963,6.7712,3.3317,3.3830,3.5455,3.8471,4.3492,5.1831,6.6633,9.7411,19.1862,200.0000
1.526,0,1708.91,28.62,489.50,1,0.0746,1.0000,0.0000,0.0000,298.1265,18.3323,1.5227,0.0003,-0.0093,0.0008,13.2037,0.9058,-0.0982,31.2641,32.3182,29.5349,29.2460,-1.6678,6.6678,3.3322,-0.0008,straight,150.00,0.00,51.87,0.00,43.00,-1,0.000,1.524,0.000,0.00,22.80,4,200.0000,38.3981,19.4952,13.3355,10.3732,8.7041,7.6993,7.0957,6.7706,3.3322,3.3836,3.5461,3.8477,4.3499,5.1841,6.6645,9.7428,19.1896,200.0000
1.546,0,1709.07,29.55,509.38,1,0.0995,1.0000,0.0000,0.0000,298.2883,18.3333,1.5220,0.0009,-0.0095,0.0019,13.2178,1.1395,-0.1088,32.9040,33.9886,30.4632,30.2643,-1.6667,6.6667,3.3333,-0.0019,straight,150.00,0.00,51.71,0.00,43.00,-1,0.000,1.544,0.000,0.00,22.80,4,200.0000,38.3922,19.4923,13.3335,10.3716,8.7028,7.6981,7.0946,6.7696,3.3333,3.3847,3.5472,3.8489,4.3513,5.1856,6.6665,9.7458,19.1954,200.0000
1.566,0,1709.23,30.47,524.15,1,0.1243,0.9781,0.0000,0.0000,298.4553,18.3348,1.5213,0.0016,-0.0096,0.0035,13.1143,1.4100,-0.1089,34.2516,35.3664,31.0647,30.9511,-1.6652,6.6652,3.3348,-0.0035,straight,150.00,0.00,51.54,0.00,43.00,-1,0.000,1.564,0.000,0.00,22.79,4,200.0000,38.3834,19.4878,13.3304,10.3692,8.7008,7.6963,7.0930,6.7680,3.3348,3.3862,3.5488,3.8507,4.3533,5.1880,6.6696,9.7503,19.2043,200.0000
1.586,0,1709.40,31.39,535.24,1,0.1492,0.9548,0.0000,0.0000,298.6274,18.3370,1.5205,0.0023,-0.0096,0.0055,12.9057,1.7323,-0.0882,35.2914,36.4050,31.3895,31.6291,-1.6630,6.6630,3.3370,-0.0055,straight,150.00,0.00,51.37,0.00,43.00,-1,0.000,1.584,0.000,0.00,22.79,4,200.0000,38.3709,19.4814,13.3261,10.3658,8.6980,7.6938,7.0907,6.7658,3.3370,3.3884,3.5511,3.8532,4.3561,5.1914,6.6739,9.7566,19.2168,200.0000
1.606,0,1709.57,32.32,558.45,1,0.0000,1.0000,0.0000,0.0000,298.8046,18.3397,1.5197,0.0028,-0.0095,0.0077,13.3615,0.0109,0.0072,36.8421,37.7414,32.8538,33.1564,-1.6604,6.6604,3.3396,-0.0077,straight,150.00,0.00,51.20,0.00,43.00,-1,0.000,1.604,0.000,0.00,22.79,4,200.0000,38.3554,19.4736,13.3207,10.3617,8.6945,7.6907,7.0878,6.7631,3.3396,3.3912,3.5540,3.8563,4.3596,5.1956,6.6793,9.7645,19.2323,200.0000
1.626,0,1709.75,33.27,576.41,1,0.0000,1.0000,0.0000,0.0000,298.9870,18.3424,1.5189,0.0030,-0.0094,0.0095,13.5415,0.0227,0.0864,38.3156,38.7293,33.9311,34.3166,-1.6576,6.6576,3.3424,-0.0095,straight,150.00,0.00,51.01,0.00,43.00,-1,0.000,1.624,0.000,0.00,22.79,4,200.0000,38.3396,19.4655,13.3152,10.3574,8.6909,7.6875,7.0849,6.7603,3.3424,3.3940,3.5569,3.8595,4.3632,5.1999,6.6848,9.7725,19.2481,200.0000
1.646,0,1709.93,34.22,592.03,1,0.0000,0.9984,0.0000,0.0000,299.1747,18.3453,1.5181,0.0030,-0.0092,0.0110,13.5982,0.0355,0.1263,40.1622,39.0676,34.8686,35.3226,-1.6548,6.6548,3.3452,-0.0110,straight,150.00,0.00,50.83,0.00,43.00,-1,0.000,1.644,0.000,0.00,22.79,4,200.0000,38.3233,19.4573,13.3096,10.3530,8.6872,7.6843,7.0819,6.7574,3.3452,3.3968,3.5599,3.8627,4.3669,5.2042,6.6904,9.7808,19.2643,200.0000
1.666,0,1710.12,35.18,605.77,1,0.0000,0.9930,0.0000,0.0000,299.3677,18.3481,1.5174,0.0028,-0.0090,0.0121,13.5846,0.0444,0.1413,41.2257,39.9347,35.7103,36.2209,-1.6519,6.6519,3.3481,-0.0121,straight,150.00,0.00,50.63,0.00,43.00,-1,0.000,1.664,0.000,0.00,22.79,4,200.0000,38.3067,19.4488,13.3038,10.3485,8.6834,7.6809,7.0788,6.7545,3.3481,3.3998,3.5630,3.8661,4.3706,5.2087,6.6962,9.7892,19.2810,200.0000
1.686,0,1710.31,36.14,619.41,1,0.0000,0.9911,0.0000,0.0000,299.5661,18.3511,1.5167,0.0025,-0.0088,0.0130,13.5618,0.0457,0.1399,42.1779,40.8054,36.6040,37.1395,-1.6489,6.6489,3.3511,-0.0130,straight,150.00,0.00,50.43,0.00,43.00,-1,0.000,1.684,0.000,0.00,22.79,4,200.0000,38.2896,19.4402,13.2978,10.3439,8.6796,7.6775,7.0756,6.7515,3.3511,3.4028,3.5661,3.8695,4.3745,5.2133,6.7022,9.7979,19.2981,200.0000
1.706,0,1710.51,37.09,632.53,1,0.0000,0.9895,0.0000,0.0000,299.7697,18.3542,1.5161,0.0020,-0.0087,0.0137,13.5287,0.0440,0.1224,43.0312,41.6340,37.5189,38.0491,-1.6459,6.6459,3.3541,-0.0137,straight,150.00,0.00,50.23,0.00,43.00,-1,0.000,1.704,0.000,0.00,22.79,4,200.0000,38.2720,19.4312,13.2917,10.3391,8.6756,7.6740,7.0724,6.7484,3.3541,3.4059,3.5694,3.8730,4.3785,5.2181,6.7083,9.8068,19.3157,200.0000
1.726,0,1710.71,38.04,645.42,1,0.0000,0.9888,0.0000,0.0000,299.9786,18.3573,1.5155,0.0015,-0.0085,0.0142,13.4682,0.0404,0.0597,43.7888,42.4314,38.5068,38.9599,-1.6427,6.6427,3.3573,-0.0142,straight,150.00,0.00,50.02,0.00,43.00,-1,0.000,1.724,0.000,0.00,22.79,4,200.0000,38.2539,19.4220,13.2854,10.3342,8.6715,7.6704,7.0690,6.7452,3.3573,3.4091,3.5727,3.8767,4.3826,5.2230,6.7146,9.8160,19.3338,200.0000
1.746,0,1710.92,38.99,658.20,1,0.0000,0.9885,0.0000,0.0000,300.1928,18.3606,1.5150,0.0008,-0.0083,0.0146,13.4469,0.0357,0.0147,44.3962,43.1919,39.5920,39.9162,-1.6395,6.6395,3.3605,-0.0146,straight,150.00,0.00,49.81,0.00,43.00,-1,0.000,1.744,0.000,0.00,22.79,4,200.0000,38.2353,19.4126,13.2790,10.3292,8.6672,7.6666,7.0656,6.7419,3.3605,3.4124,3.5762,3.8804,4.3868,5.2280,6.7210,9.8255,19.3524,200.0000
1.766,0,1711.13,39.93,670.86,1,0.0000,0.9884,0.0000,0.0000,300.4123,18.3639,1.5145,0.0002,-0.0083,0.0149,13.3938,0.0346,-0.0593,44.9182,43.8990,40.7479,40.9179,-1.6362,6.6362,3.3638,-0.0149,straight,150.00,0.00,49.59,0.00,43.00,-1,0.000,1.764,0.000,0.00,22.79,4,200.0000,38.2161,19.4028,13.2723,10.3240,8.6629,7.6628,7.0621,6.7385,3.3638,3.4157,3.5797,3.8842,4.3912,5.2332,6.7277,9.8352,19.3716,200.0000
1.786,0,1711.35,40.87,683.41,1,0.0000,0.9884,0.0000,0.0000,300.6370,18.3673,1.5139,-0.0005,-0.0083,0.0151,13.3600,0.0350,-0.1046,45.1361,44.8448,42.1161,41.7349,-1.6327,6.6327,3.3673,-0.0151,straight,150.00,0.00,49.36,0.00,43.00,-1,0.000,1.784,0.000,0.00,22.79,4,200.0000,38.1964,19.3928,13.2655,10.3187,8.6584,7.6588,7.0584,6.7351,3.3673,3.4192,3.5834,3.8882,4.3956,5.2385,6.7345,9.8452,19.3913,200.0000
1.806,0,1711.58,41.81,696.03,1,0.0000,0.9886,0.0000,0.0000,300.8669,18.3708,1.5133,-0.0010,-0.0085,0.0153,13.2973,0.0334,-0.1509,45.0204,46.2245,43.2645,42.7011,-1.6292,6.6292,3.3708,-0.0153,straight,150.00,0.00,49.13,0.00,43.00,-1,0.000,1.804,0.000,0.00,22.79,4,200.0000,38.1762,19.3826,13.2585,10.3132,8.6538,7.6548,7.0547,6.7315,3.3708,3.4228,3.5871,3.8922,4.4002,5.2440,6.7415,9.8555,19.4115,200.0000
1.826,0,1711.81,42.74,709.05,1,0.0000,0.9885,0.0000,0.0000,301.1020,18.3744,1.5126,-0.0014,-0.0087,0.0154,13.2169,0.0263,-0.1910,45.6869,47.1175,44.3056,43.5929,-1.6256,6.6256,3.3744,-0.0154,straight,150.00,0.00,48.90,0.00,43.00,-1,0.000,1.824,0.000,0.00,22.79,4,200.0000,38.1554,19.3720,13.2512,10.3076,8.6491,7.6506,7.0508,6.7278,3.3744,3.4264,3.5909,3.8964,4.4049,5.2496,6.7488,9.8660,19.4323,200.0000
1.846,0,1712.04,43.67,722.31,1,0.0000,0.9874,0.0000,0.0000,301.3423,18.3781,1.5119,-0.0016,-0.0091,0.0154,13.1291,0.0151,-0.2188,46.6064,48.1132,45.1737,44.3725,-1.6219,6.6219,3.3781,-0.0154,straight,150.00,0.00,48.66,0.00,43.00,-1,0.000,1.844,0.000,0.00,22.79,4,200.0000,38.1342,19.3612,13.2439,10.3019,8.6443,7.6463,7.0469,6.7241,3.3781,3.4302,3.5949,3.9007,4.4098,5.2553,6.7561,9.8768,19.4535,200.0000
1.866,0,1712.28,44.59,735.70,1,0.0000,0.9855,0.0000,0.0000,301.5877,18.3819,1.5110,-0.0016,-0.0095,0.0154,13.0395,0.0001,-0.2259,47.7319,49.2585,45.8406,45.0342,-1.6181,6.6181,3.3819,-0.0154,straight,150.00,0.00,48.41,0.00,43.00,-1,0.000,1.864,0.000,0.00,22.79,4,200.0000,38.1124,19.3502,13.2363,10.2960,8.6394,7.6420,7.0429,6.7202,3.3819,3.4340,3.5989,3.9050,4.4147,5.2612,6.7637,9.8879,19.4753,200.0000
1.886,0,1712.53,45.51,749.02,1,0.0000,0.9832,0.0000,0.0000,301.8382,18.3857,1.5101,-0.0013,-0.0098,0.0153,12.9708,-0.0165,-0.1854,49.0004,50.5097,46.3265,45.6045,-1.6143,6.6143,3.3857,-0.0153,straight,150.00,0.00,48.16,0.00,43.00,-1,0.000,1.884,0.000,0.00,22.78,4,200.0000,38.0902,19.3389,13.2286,10.2900,8.6343,7.6375,7.0388,6.7163,3.3857,3.4379,3.6030,3.9095,4.4197,5.2672,6.7714,9.8991,19.4975,200.0000
1.906,0,1712.78,46.42,760.28,1,0.0000,0.9809,0.0000,0.0000,302.0938,18.3897,1.5091,-0.0008,-0.0101,0.0152,12.8503,-0.0295,-0.1542,50.2007,51.6733,46.6404,46.0174,-1.6104,6.6104,3.3896,-0.0152,straight,150.00,0.00,47.91,0.00,43.00,-1,0.000,1.904,0.000,0.00,22.78,4,200.0000,38.0676,19.3274,13.2207,10.2839,8.6292,7.6330,7.0346,6.7123,3.3896,3.4419,3.6072,3.9140,4.4249,5.2733,6.7793,9.9106,19.5201,200.0000
1.926,0,1713.04,47.31,769.71,1,0.0000,0.9822,0.0000,0.0000,302.3543,18.3937,1.5081,-0.0002,-0.0101,0.0152,12.6620,-0.0374,-0.1494,51.2179,52.5739,46.9115,46.4507,-1.6064,6.6064,3.3936,-0.0152,straight,150.00,0.00,47.65,0.00,43.00,-1,0.000,1.924,0.000,0.00,22.78,4,200.0000,38.0446,19.3158,13.2128,10.2777,8.6240,7.6284,7.0304,6.7083,3.3936,3.4460,3.6114,3.9186,4.4301,5.2795,6.7872,9.9223,19.5431,200.0000
1.946,0,1713.30,48.20,778.43,1,0.0000,0.9868,0.0000,0.0000,302.6198,18.3977,1.5070,0.0005,-0.0101,0.0151,12.5552,-0.0400,-0.1140,52.2754,52.8194,47.1565,47.2904,-1.6023,6.6023,3.3977,-0.0151,straight,150.00,0.00,47.38,0.00,43.00,-1,0.000,1.944,0.000,0.00,22.78,4,200.0000,38.0213,19.3039,13.2046,10.2714,8.6187,7.6237,7.0260,6.7042,3.3977,3.4501,3.6157,3.9233,4.4353,5.2858,6.7954,9.9341,19.5664,200.0000
1.966,0,1713.56,49.08,786.19,1,0.0000,0.9929,0.0000,0.0000,302.8903,18.4018,1.5058,0.0011,-0.0099,0.0150,12.4848,-0.0481,-0.0467,53.6879,52.1436,47.5669,48.2540,-1.5982,6.5982,3.4018,-0.0150,straight,150.00,0.00,47.11,0.00,43.00,-1,0.000,1.964,0.000,0.00,22.78,4,200.0000,37.9976,19.2919,13.1964,10.2650,8.6134,7.6190,7.0217,6.7000,3.4018,3.4543,3.6201,3.9280,4.4407,5.2922,6.8036,9.9462,19.5901,200.0000
