Time,Lap,DistFromStart,Speed,RPM,Gear,SteerCmd,AccelCmd,BrakeCmd,ClutchCmd,X,Y,Z,Roll,Pitch,Yaw,AccelX,AccelY,AccelZ,WheelSpinVel_FL,WheelSpinVel_FR,WheelSpinVel_RL,WheelSpinVel_RR,ToMiddle,ToLeft,ToRight,AngleToTrack,TrackSegType,SegmentLength,Radius,DistToSegEnd,NextCornerDist,NextCornerRadius,NextCornerDir,LapBestTime,CurrentLapTime,LastLapTime,DamageLevel,FuelLevel,RacePos,TrackSensor1,TrackSensor2,TrackSensor3,TrackSensor4,TrackSensor5,TrackSensor6,TrackSensor7,TrackSensor8,TrackSensor9,TrackSensor10,TrackSensor11,TrackSensor12,TrackSensor13,TrackSensor14,TrackSensor15,TrackSensor16,TrackSensor17,TrackSensor18,TrackSensor19
-0.980,0,0.00,-0.00,104.72,0,0.0000,0.0000,1.0000,0.0000,600.9726,529.3524,35.2043,-0.0000,-0.0012,0.0003,11.0449,-1.1415,0.4617,0.0000,0.0000,1.1892,-1.1562,-1.9998,7.9998,4.0002,-0.0003,straight,5.45,0.00,0.45,0.00,0.00,0,0.000,-0.982,0.000,0.00,26.73,4,200.0000,46.0691,23.3899,15.9996,12.4455,10.4430,9.2374,8.5132,8.1232,4.0002,4.0619,4.2569,4.6190,5.2219,6.2232,8.0004,11.6958,23.0362,200.0000
-0.960,0,4153.37,-0.00,104.72,0,0.0000,0.0000,0.0000,0.5932,600.9726,529.3524,35.2043,-0.0000,-0.0012,0.0003,11.0449,-1.1415,0.4617,0.0000,0.0000,1.1892,-1.1562,-1.9998,7.9998,4.0002,-0.0003,straight,5.45,0.00,0.45,0.00,0.00,0,0.000,-0.962,0.000,0.00,26.73,4,200.0000,46.0691,23.3899,15.9996,12.4455,10.4430,9.2374,8.5132,8.1232,4.0002,4.0619,4.2569,4.6190,5.2219,6.2232,8.0004,11.6958,23.0362,200.0000
-0.940,0,4153.37,-0.00,104.72,0,0.0000,0.0000,0.0000,0.5932,600.9726,529.3524,35.2043,-0.0000,-0.0012,0.0003,11.0449,-1.1415,0.4617,0.0000,0.0000,1.1892,-1.1562,-1.9998,7.9998,4.0002,-0.0003,straight,5.45,0.00,0.45,0.00,0.00,0,0.000,-0.942,0.000,0.00,26.73,4,200.0000,46.0691,23.3899,15.9996,12.4455,10.4430,9.2374,8.5132,8.1232,4.0002,4.0619,4.2569,4.6190,5.2219,6.2232,8.0004,11.6958,23.0362,200.0000
-0.920,0,4153.37,-0.00,104.72,0,0.0000,0.0000,0.0000,0.5932,600.9726,529.3524,35.2043,-0.0000,-0.0012,0.0003,11.0449,-1.1415,0.4617,0.0000,0.0000,1.1892,-1.1562,-1.9998,7.9998,4.0002,-0.0003,straight,5.45,0.00,0.45,0.00,0.00,0,0.000,-0.922,0.000,0.00,26.73,4,200.0000,46.0691,23.3899,15.9996,12.4455,10.4430,9.2374,8.5132,8.1232,4.0002,4.0619,4.2569,4.6190,5.2219,6.2232,8.0004,11.6958,23.0362,200.0000
-0.900,0,4153.37,-0.00,104.72,0,0.0000,0.0000,0.0000,0.5932,600.9726,529.3524,35.2043,-0.0000,-0.0012,0.0003,11.0449,-1.1415,0.4617,0.0000,0.0000,1.1892,-1.1562,-1.9998,7.9998,4.0002,-0.0003,straight,5.45,0.00,0.45,0.00,0.00,0,0.000,-0.902,0.000,0.00,26.73,4,200.0000,46.0691,23.3899,15.9996,12.4455,10.4430,9.2374,8.5132,8.1232,4.0002,4.0619,4.2569,4.6190,5.2219,6.2232,8.0004,11.6958,23.0362,200.0000
-0.880,0,4153.37,-0.00,104.72,0,0.0000,0.0000,0.0000,0.5932,600.9726,529.3524,35.2043,-0.0000,-0.0012,0.0003,11.0449,-1.1415,0.4617,0.0000,0.0000,1.1892,-1.1562,-1.9998,7.9998,4.0002,-0.0003,straight,5.45,0.00,0.45,0.00,0.00,0,0.000,-0.882,0.000,0.00,26.73,4,200.0000,46.0691,23.3899,15.9996,12.4455,10.4430,9.2374,8.5132,8.1232,4.0002,4.0619,4.2569,4.6190,5.2219,6.2232,8.0004,11.6958,23.0362,200.0000
-0.860,0,4153.37,-0.00,104.72,0,0.0000,0.0000,0.0000,0.5932,600.9726,529.3524,35.2043,-0.0000,-0.0012,0.0003,11.0449,-1.1415,0.4617,0.0000,0.0000,1.1892,-1.1562,-1.9998,7.9998,4.0002,-0.0003,straight,5.45,0.00,0.45,0.00,0.00,0,0.000,-0.862,0.000,0.00,26.73,4,200.0000,46.0691,23.3899,15.9996,12.4455,10.4430,9.2374,8.5132,8.1232,4.0002,4.0619,4.2569,4.6190,5.2219,6.2232,8.0004,11.6958,23.0362,200.0000
-0.840,0,4153.37,-0.00,104.72,0,0.0000,0.0000,0.0000,0.5932,600.9726,529.3524,35.2043,-0.0000,-0.0012,0.0003,11.0449,-1.1415,0.4617,0.0000,0.0000,1.1892,-1.1562,-1.9998,7.9998,4.0002,-0.0003,straight,5.45,0.00,0.45,0.00,0.00,0,0.000,-0.842,0.000,0.00,26.73,4,200.0000,46.0691,23.3899,15.9996,12.4455,10.4430,9.2374,8.5132,8.1232,4.0002,4.0619,4.2569,4.6190,5.2219,6.2232,8.0004,11.6958,23.0362,200.0000
-0.820,0,4153.37,-0.00,104.72,0,0.0000,0.0000,0.0000,0.5932,600.9726,529.3524,35.2043,-0.0000,-0.0012,0.0003,11.0449,-1.1415,0.4617,0.0000,0.0000,1.1892,-1.1562,-1.9998,7.9998,4.0002,-0.0003,straight,5.45,0.00,0.45,0.00,0.00,0,0.000,-0.822,0.000,0.00,26.73,4,200.0000,46.0691,23.3899,15.9996,12.4455,10.4430,9.2374,8.5132,8.1232,4.0002,4.0619,4.2569,4.6190,5.2219,6.2232,8.0004,11.6958,23.0362,200.0000
-0.800,0,4153.37,-0.00,104.72,0,0.0000,0.0000,0.0000,0.5932,600.9726,529.3524,35.2043,-0.0000,-0.0012,0.0003,11.0449,-1.1415,0.4617,0.0000,0.0000,1.1892,-1.1562,-1.9998,7.9998,4.0002,-0.0003,straight,5.45,0.00,0.45,0.00,0.00,0,0.000,-0.802,0.000,0.00,26.73,4,200.0000,46.0691,23.3899,15.9996,12.4455,10.4430,9.2374,8.5132,8.1232,4.0002,4.0619,4.2569,4.6190,5.2219,6.2232,8.0004,11.6958,23.0362,200.0000
-0.780,0,4153.37,-0.00,104.72,0,0.0000,0.0000,0.0000,0.5932,600.9726,529.3524,35.2043,-0.0000,-0.0012,0.0003,11.0449,-1.1415,0.4617,0.0000,0.0000,1.1892,-1.1562,-1.9998,7.9998,4.0002,-0.0003,straight,5.45,0.00,0.45,0.00,0.00,0,0.000,-0.782,0.000,0.00,26.73,4,200.0000,46.0691,23.3899,15.9996,12.4455,10.4430,9.2374,8.5132,8.1232,4.0002,4.0619,4.2569,4.6190,5.2219,6.2232,8.0004,11.6958,23.0362,200.0000
-0.760,0,4153.37,-0.00,104.72,0,0.0000,0.0000,0.0000,0.5932,600.9726,529.3524,35.2043,-0.0000,-0.0012,0.0003,11.0449,-1.1415,0.4617,0.0000,0.0000,1.1892,-1.1562,-1.9998,7.9998,4.0002,-0.0003,straight,5.45,0.00,0.45,0.00,0.00,0,0.000,-0.762,0.000,0.00,26.73,4,200.0000,46.0691,23.3899,15.9996,12.4455,10.4430,9.2374,8.5132,8.1232,4.0002,4.0619,4.2569,4.6190,5.2219,6.2232,8.0004,11.6958,23.0362,200.0000
-0.740,0,4153.37,-0.00,104.72,0,0.0000,0.0000,0.0000,0.5932,600.9726,529.3524,35.2043,-0.0000,-0.0012,0.0003,11.0449,-1.1415,0.4617,0.0000,0.0000,1.1892,-1.1562,-1.9998,7.9998,4.0002,-0.0003,straight,5.45,0.00,0.45,0.00,0.00,0,0.000,-0.742,0.000,0.00,26.73,4,200.0000,46.0691,23.3899,15.9996,12.4455,10.4430,9.2374,8.5132,8.1232,4.0002,4.0619,4.2569,4.6190,5.2219,6.2232,8.0004,11.6958,23.0362,200.0000
-0.720,0,4153.37,-0.00,104.72,0,0.0000,0.0000,0.0000,0.5932,600.9726,529.3524,35.2043,-0.0000,-0.0012,0.0003,11.0449,-1.1415,0.4617,0.0000,0.0000,1.1892,-1.1562,-1.9998,7.9998,4.0002,-0.0003,straight,5.45,0.00,0.45,0.00,0.00,0,0.000,-0.722,0.000,0.00,26.73,4,200.0000,46.0691,23.3899,15.9996,12.4455,10.4430,9.2374,8.5132,8.1232,4.0002,4.0619,4.2569,4.6190,5.2219,6.2232,8.0004,11.6958,23.0362,200.0000
-0.700,0,4153.37,-0.00,104.72,0,0.0000,0.0000,0.0000,0.5932,600.9726,529.3524,35.2043,-0.0000,-0.0012,0.0003,11.0449,-1.1415,0.4617,0.0000,0.0000,1.1892,-1.1562,-1.9998,7.9998,4.0002,-0.0003,straight,5.45,0.00,0.45,0.00,0.00,0,0.000,-0.702,0.000,0.00,26.73,4,200.0000,46.0691,23.3899,15.9996,12.4455,10.4430,9.2374,8.5132,8.1232,4.0002,4.0619,4.2569,4.6190,5.2219,6.2232,8.0004,11.6958,23.0362,200.0000
-0.680,0,4153.37,-0.00,104.72,0,0.0000,0.0000,0.0000,0.5932,600.9726,529.3524,35.2043,-0.0000,-0.0012,0.0003,11.0449,-1.1415,0.4617,0.0000,0.0000,1.1892,-1.1562,-1.9998,7.9998,4.0002,-0.0003,straight,5.45,0.00,0.45,0.00,0.00,0,0.000,-0.682,0.000,0.00,26.73,4,200.0000,46.0691,23.3899,15.9996,12.4455,10.4430,9.2374,8.5132,8.1232,4.0002,4.0619,4.2569,4.6190,5.2219,6.2232,8.0004,11.6958,23.0362,200.0000
-0.660,0,4153.37,-0.00,104.72,0,0.0000,0.0000,0.0000,0.5932,600.9726,529.3524,35.2043,-0.0000,-0.0012,0.0003,11.0449,-1.1415,0.4617,0.0000,0.0000,1.1892,-1.1562,-1.9998,7.9998,4.0002,-0.0003,straight,5.45,0.00,0.45,0.00,0.00,0,0.000,-0.662,0.000,0.00,26.73,4,200.0000,46.0691,23.3899,15.9996,12.4455,10.4430,9.2374,8.5132,8.1232,4.0002,4.0619,4.2569,4.6190,5.2219,6.2232,8.0004,11.6958,23.0362,200.0000
-0.640,0,4153.37,-0.00,104.72,0,0.0000,0.0000,0.0000,0.5932,600.9726,529.3524,35.2043,-0.0000,-0.0012,0.0003,11.0449,-1.1415,0.4617,0.0000,0.0000,1.1892,-1.1562,-1.9998,7.9998,4.0002,-0.0003,straight,5.45,0.00,0.45,0.00,0.00,0,0.000,-0.642,0.000,0.00,26.73,4,200.0000,46.0691,23.3899,15.9996,12.4455,10.4430,9.2374,8.5132,8.1232,4.0002,4.0619,4.2569,4.6190,5.2219,6.2232,8.0004,11.6958,23.0362,200.0000
-0.620,0,4153.37,-0.00,104.72,0,0.0000,0.0000,0.0000,0.5932,600.9726,529.3524,35.2043,-0.0000,-0.0012,0.0003,11.0449,-1.1415,0.4617,0.0000,0.0000,1.1892,-1.1562,-1.9998,7.9998,4.0002,-0.0003,straight,5.45,0.00,0.45,0.00,0.00,0,0.000,-0.622,0.000,0.00,26.73,4,200.0000,46.0691,23.3899,15.9996,12.4455,10.4430,9.2374,8.5132,8.1232,4.0002,4.0619,4.2569,4.6190,5.2219,6.2232,8.0004,11.6958,23.0362,200.0000
-0.600,0,4153.37,-0.00,104.72,0,0.0000,0.0000,0.0000,0.5932,600.9726,529.3524,35.2043,-0.0000,-0.0012,0.0003,11.0449,-1.1415,0.4617,0.0000,0.0000,1.1892,-1.1562,-1.9998,7.9998,4.0002,-0.0003,straight,5.45,0.00,0.45,0.00,0.00,0,0.000,-0.602,0.000,0.00,26.73,4,200.0000,46.0691,23.3899,15.9996,12.4455,10.4430,9.2374,8.5132,8.1232,4.0002,4.0619,4.2569,4.6190,5.2219,6.2232,8.0004,11.6958,23.0362,200.0000
-0.580,0,4153.37,-0.00,104.72,0,0.0000,0.0000,0.0000,0.5932,600.9726,529.3524,35.2043,-0.0000,-0.0012,0.0003,11.0449,-1.1415,0.4617,0.0000,0.0000,1.1892,-1.1562,-1.9998,7.9998,4.0002,-0.0003,straight,5.45,0.00,0.45,0.00,0.00,0,0.000,-0.582,0.000,0.00,26.73,4,200.0000,46.0691,23.3899,15.9996,12.4455,10.4430,9.2374,8.5132,8.1232,4.0002,4.0619,4.2569,4.6190,5.2219,6.2232,8.0004,11.6958,23.0362,200.0000
-0.560,0,4153.37,-0.00,104.72,0,0.0000,0.0000,0.0000,0.5932,600.9726,529.3524,35.2043,-0.0000,-0.0012,0.0003,11.0449,-1.1415,0.4617,0.0000,0.0000,1.1892,-1.1562,-1.9998,7.9998,4.0002,-0.0003,straight,5.45,0.00,0.45,0.00,0.00,0,0.000,-0.562,0.000,0.00,26.73,4,200.0000,46.0691,23.3899,15.9996,12.4455,10.4430,9.2374,8.5132,8.1232,4.0002,4.0619,4.2569,4.6190,5.2219,6.2232,8.0004,11.6958,23.0362,200.0000
-0.540,0,4153.37,-0.00,104.72,0,0.0000,0.0000,0.0000,0.5932,600.9726,529.3524,35.2043,-0.0000,-0.0012,0.0003,11.0449,-1.1415,0.4617,0.0000,0.0000,1.1892,-1.1562,-1.9998,7.9998,4.0002,-0.0003,straight,5.45,0.00,0.45,0.00,0.00,0,0.000,-0.542,0.000,0.00,26.73,4,200.0000,46.0691,23.3899,15.9996,12.4455,10.4430,9.2374,8.5132,8.1232,4.0002,4.0619,4.2569,4.6190,5.2219,6.2232,8.0004,11.6958,23.0362,200.0000
-0.520,0,4153.37,-0.00,104.72,0,0.0000,0.0000,0.0000,0.5932,600.9726,529.3524,35.2043,-0.0000,-0.0012,0.0003,11.0449,-1.1415,0.4617,0.0000,0.0000,1.1892,-1.1562,-1.9998,7.9998,4.0002,-0.0003,straight,5.45,0.00,0.45,0.00,0.00,0,0.000,-0.522,0.000,0.00,26.73,4,200.0000,46.0691,23.3899,15.9996,12.4455,10.4430,9.2374,8.5132,8.1232,4.0002,4.0619,4.2569,4.6190,5.2219,6.2232,8.0004,11.6958,23.0362,200.0000
-0.500,0,4153.37,-0.00,104.72,0,0.0000,0.0000,0.0000,0.5932,600.9726,529.3524,35.2043,-0.0000,-0.0012,0.0003,11.0449,-1.1415,0.4617,0.0000,0.0000,1.1892,-1.1562,-1.9998,7.9998,4.0002,-0.0003,straight,5.45,0.00,0.45,0.00,0.00,0,0.000,-0.502,0.000,0.00,26.73,4,200.0000,46.0691,23.3899,15.9996,12.4455,10.4430,9.2374,8.5132,8.1232,4.0002,4.0619,4.2569,4.6190,5.2219,6.2232,8.0004,11.6958,23.0362,200.0000
-0.480,0,4153.37,-0.00,104.72,0,0.0000,0.0000,0.0000,0.5932,600.9726,529.3524,35.2043,-0.0000,-0.0012,0.0003,11.0449,-1.1415,0.4617,0.0000,0.0000,1.1892,-1.1562,-1.9998,7.9998,4.0002,-0.0003,straight,5.45,0.00,0.45,0.00,0.00,0,0.000,-0.482,0.000,0.00,26.73,4,200.0000,46.0691,23.3899,15.9996,12.4455,10.4430,9.2374,8.5132,8.1232,4.0002,4.0619,4.2569,4.6190,5.2219,6.2232,8.0004,11.6958,23.0362,200.0000
-0.460,0,4153.37,-0.00,104.72,0,0.0000,0.0000,0.0000,0.5932,600.9726,529.3524,35.2043,-0.0000,-0.0012,0.0003,11.0449,-1.1415,0.4617,0.0000,0.0000,1.1892,-1.1562,-1.9998,7.9998,4.0002,-0.0003,straight,5.45,0.00,0.45,0.00,0.00,0,0.000,-0.462,0.000,0.00,26.73,4,200.0000,46.0691,23.3899,15.9996,12.4455,10.4430,9.2374,8.5132,8.1232,4.0002,4.0619,4.2569,4.6190,5.2219,6.2232,8.0004,11.6958,23.0362,200.0000
-0.440,0,4153.37,-0.00,104.72,0,0.0000,0.0000,0.0000,0.5932,600.9726,529.3524,35.2043,-0.0000,-0.0012,0.0003,11.0449,-1.1415,0.4617,0.0000,0.0000,1.1892,-1.1562,-1.9998,7.9998,4.0002,-0.0003,straight,5.45,0.00,0.45,0.00,0.00,0,0.000,-0.442,0.000,0.00,26.73,4,200.0000,46.0691,23.3899,15.9996,12.4455,10.4430,9.2374,8.5132,8.1232,4.0002,4.0619,4.2569,4.6190,5.2219,6.2232,8.0004,11.6958,23.0362,200.0000
-0.420,0,4153.37,-0.00,104.72,0,0.0000,0.0000,0.0000,0.5932,600.9726,529.3524,35.2043,-0.0000,-0.0012,0.0003,11.0449,-1.1415,0.4617,0.0000,0.0000,1.1892,-1.1562,-1.9998,7.9998,4.0002,-0.0003,straight,5.45,0.00,0.45,0.00,0.00,0,0.000,-0.422,0.000,0.00,26.73,4,200.0000,46.0691,23.3899,15.9996,12.4455,10.4430,9.2374,8.5132,8.1232,4.0002,4.0619,4.2569,4.6190,5.2219,6.2232,8.0004,11.6958,23.0362,200.0000
-0.400,0,4153.37,-0.00,104.72,0,0.0000,0.0000,0.0000,0.5932,600.9726,529.3524,35.2043,-0.0000,-0.0012,0.0003,11.0449,-1.1415,0.4617,0.0000,0.0000,1.1892,-1.1562,-1.9998,7.9998,4.0002,-0.0003,straight,5.45,0.00,0.45,0.00,0.00,0,0.000,-0.402,0.000,0.00,26.73,4,200.0000,46.0691,23.3899,15.9996,12.4455,10.4430,9.2374,8.5132,8.1232,4.0002,4.0619,4.2569,4.6190,5.2219,6.2232,8.0004,11.6958,23.0362,200.0000
-0.380,0,4153.37,-0.00,104.72,0,0.0000,0.0000,0.0000,0.5932,600.9726,529.3524,35.2043,-0.0000,-0.0012,0.0003,11.0449,-1.1415,0.4617,0.0000,0.0000,1.1892,-1.1562,-1.9998,7.9998,4.0002,-0.0003,straight,5.45,0.00,0.45,0.00,0.00,0,0.000,-0.382,0.000,0.00,26.73,4,200.0000,46.0691,23.3899,15.9996,12.4455,10.4430,9.2374,8.5132,8.1232,4.0002,4.0619,4.2569,4.6190,5.2219,6.2232,8.0004,11.6958,23.0362,200.0000
-0.360,0,4153.37,-0.00,104.72,0,0.0000,0.0000,0.0000,0.5932,600.9726,529.3524,35.2043,-0.0000,-0.0012,0.0003,11.0449,-1.1415,0.4617,0.0000,0.0000,1.1892,-1.1562,-1.9998,7.9998,4.0002,-0.0003,straight,5.45,0.00,0.45,0.00,0.00,0,0.000,-0.362,0.000,0.00,26.73,4,200.0000,46.0691,23.3899,15.9996,12.4455,10.4430,9.2374,8.5132,8.1232,4.0002,4.0619,4.2569,4.6190,5.2219,6.2232,8.0004,11.6958,23.0362,200.0000
-0.340,0,4153.37,-0.00,109.12,0,0.0000,1.0000,0.0000,0.5932,600.9726,529.3524,35.2043,-0.0000,-0.0012,0.0003,11.0449,-1.1415,0.4617,0.0000,0.0000,1.1892,-1.1562,-1.9998,7.9998,4.0002,-0.0003,straight,5.45,0.00,0.45,0.00,0.00,0,0.000,-0.342,0.000,0.00,26.73,4,200.0000,46.0691,23.3899,15.9996,12.4455,10.4430,9.2374,8.5132,8.1232,4.0002,4.0619,4.2569,4.6190,5.2219,6.2232,8.0004,11.6958,23.0362,200.0000
-0.320,0,4153.37,-0.00,113.52,0,0.0000,1.0000,0.0000,0.5932,600.9726,529.3524,35.2043,-0.0000,-0.0012,0.0003,11.0449,-1.1415,0.4617,0.0000,0.0000,1.1892,-1.1562,-1.9998,7.9998,4.0002,-0.0003,straight,5.45,0.00,0.45,0.00,0.00,0,0.000,-0.322,0.000,0.00,26.73,4,200.0000,46.0691,23.3899,15.9996,12.4455,10.4430,9.2374,8.5132,8.1232,4.0002,4.0619,4.2569,4.6190,5.2219,6.2232,8.0004,11.6958,23.0362,200.0000
-0.300,0,4153.37,-0.00,117.92,0,0.0000,1.0000,0.0000,0.5932,600.9726,529.3524,35.2043,-0.0000,-0.0012,0.0003,11.0449,-1.1415,0.4617,0.0000,0.0000,1.1892,-1.1562,-1.9998,7.9998,4.0002,-0.0003,straight,5.45,0.00,0.45,0.00,0.00,0,0.000,-0.302,0.000,0.00,26.73,4,200.0000,46.0691,23.3899,15.9996,12.4455,10.4430,9.2374,8.5132,8.1232,4.0002,4.0619,4.2569,4.6190,5.2219,6.2232,8.0004,11.6958,23.0362,200.0000
-0.280,0,4153.37,-0.00,122.32,0,0.0000,1.0000,0.0000,0.5932,600.9726,529.3524,35.2043,-0.0000,-0.0012,0.0003,11.0449,-1.1415,0.4617,0.0000,0.0000,1.1892,-1.1562,-1.9998,7.9998,4.0002,-0.0003,straight,5.45,0.00,0.45,0.00,0.00,0,0.000,-0.282,0.000,0.00,26.73,4,200.0000,46.0691,23.3899,15.9996,12.4455,10.4430,9.2374,8.5132,8.1232,4.0002,4.0619,4.2569,4.6190,5.2219,6.2232,8.0004,11.6958,23.0362,200.0000
-0.260,0,4153.37,-0.00,126.72,0,0.0000,1.0000,0.0000,0.5932,600.9726,529.3524,35.2043,-0.0000,-0.0012,0.0003,11.0449,-1.1415,0.4617,0.0000,0.0000,1.1892,-1.1562,-1.9998,7.9998,4.0002,-0.0003,straight,5.45,0.00,0.45,0.00,0.00,0,0.000,-0.262,0.000,0.00,26.73,4,200.0000,46.0691,23.3899,15.9996,12.4455,10.4430,9.2374,8.5132,8.1232,4.0002,4.0619,4.2569,4.6190,5.2219,6.2232,8.0004,11.6958,23.0362,200.0000
-0.240,0,4153.37,-0.00,131.12,0,0.0000,1.0000,0.0000,0.5932,600.9726,529.3524,35.2043,-0.0000,-0.0012,0.0003,11.0449,-1.1415,0.4617,0.0000,0.0000,1.1892,-1.1562,-1.9998,7.9998,4.0002,-0.0003,straight,5.45,0.00,0.45,0.00,0.00,0,0.000,-0.242,0.000,0.00,26.73,4,200.0000,46.0691,23.3899,15.9996,12.4455,10.4430,9.2374,8.5132,8.1232,4.0002,4.0619,4.2569,4.6190,5.2219,6.2232,8.0004,11.6958,23.0362,200.0000
-0.220,0,4153.37,-0.00,135.52,0,0.0000,1.0000,0.0000,0.5932,600.9726,529.3524,35.2043,-0.0000,-0.0012,0.0003,11.0449,-1.1415,0.4617,0.0000,0.0000,1.1892,-1.1562,-1.9998,7.9998,4.0002,-0.0003,straight,5.45,0.00,0.45,0.00,0.00,0,0.000,-0.222,0.000,0.00,26.73,4,200.0000,46.0691,23.3899,15.9996,12.4455,10.4430,9.2374,8.5132,8.1232,4.0002,4.0619,4.2569,4.6190,5.2219,6.2232,8.0004,11.6958,23.0362,200.0000
-0.200,0,4153.37,-0.00,139.92,0,0.0000,1.0000,0.0000,0.5932,600.9726,529.3524,35.2043,-0.0000,-0.0012,0.0003,11.0449,-1.1415,0.4617,0.0000,0.0000,1.1892,-1.1562,-1.9998,7.9998,4.0002,-0.0003,straight,5.45,0.00,0.45,0.00,0.00,0,0.000,-0.202,0.000,0.00,26.73,4,200.0000,46.0691,23.3899,15.9996,12.4455,10.4430,9.2374,8.5132,8.1232,4.0002,4.0619,4.2569,4.6190,5.2219,6.2232,8.0004,11.6958,23.0362,200.0000
-0.180,0,4153.37,-0.00,144.32,0,0.0000,1.0000,0.0000,0.5932,600.9726,529.3524,35.2043,-0.0000,-0.0012,0.0003,11.0449,-1.1415,0.4617,0.0000,0.0000,1.1892,-1.1562,-1.9998,7.9998,4.0002,-0.0003,straight,5.45,0.00,0.45,0.00,0.00,0,0.000,-0.182,0.000,0.00,26.73,4,200.0000,46.0691,23.3899,15.9996,12.4455,10.4430,9.2374,8.5132,8.1232,4.0002,4.0619,4.2569,4.6190,5.2219,6.2232,8.0004,11.6958,23.0362,200.0000
-0.160,0,4153.37,-0.00,148.72,0,0.0000,1.0000,0.0000,0.5932,600.9726,529.3524,35.2043,-0.0000,-0.0012,0.0003,11.0449,-1.1415,0.4617,0.0000,0.0000,1.1892,-1.1562,-1.9998,7.9998,4.0002,-0.0003,straight,5.45,0.00,0.45,0.00,0.00,0,0.000,-0.162,0.000,0.00,26.73,4,200.0000,46.0691,23.3899,15.9996,12.4455,10.4430,9.2374,8.5132,8.1232,4.0002,4.0619,4.2569,4.6190,5.2219,6.2232,8.0004,11.6958,23.0362,200.0000
-0.140,0,4153.37,-0.00,153.12,0,0.0000,1.0000,0.0000,0.5932,600.9726,529.3524,35.2043,-0.0000,-0.0012,0.0003,11.0449,-1.1415,0.4617,0.0000,0.0000,1.1892,-1.1562,-1.9998,7.9998,4.0002,-0.0003,straight,5.45,0.00,0.45,0.00,0.00,0,0.000,-0.142,0.000,0.00,26.73,4,200.0000,46.0691,23.3899,15.9996,12.4455,10.4430,9.2374,8.5132,8.1232,4.0002,4.0619,4.2569,4.6190,5.2219,6.2232,8.0004,11.6958,23.0362,200.0000
-0.120,0,4153.37,-0.00,157.52,0,0.0000,1.0000,0.0000,0.5932,600.9726,529.3524,35.2043,-0.0000,-0.0012,0.0003,11.0449,-1.1415,0.4617,0.0000,0.0000,1.1892,-1.1562,-1.9998,7.9998,4.0002,-0.0003,straight,5.45,0.00,0.45,0.00,0.00,0,0.000,-0.122,0.000,0.00,26.73,4,200.0000,46.0691,23.3899,15.9996,12.4455,10.4430,9.2374,8.5132,8.1232,4.0002,4.0619,4.2569,4.6190,5.2219,6.2232,8.0004,11.6958,23.0362,200.0000
-0.100,0,4153.37,-0.00,161.98,0,0.0000,1.0000,0.0000,0.5932,600.9726,529.3524,35.2043,-0.0000,-0.0012,0.0003,11.0449,-1.1415,0.4617,0.0000,0.0000,1.1892,-1.1562,-1.9998,7.9998,4.0002,-0.0003,straight,5.45,0.00,0.45,0.00,0.00,0,0.000,-0.102,0.000,0.00,26.73,4,200.0000,46.0691,23.3899,15.9996,12.4455,10.4430,9.2374,8.5132,8.1232,4.0002,4.0619,4.2569,4.6190,5.2219,6.2232,8.0004,11.6958,23.0362,200.0000
-0.080,0,4153.37,-0.00,166.53,0,0.0000,1.0000,0.0000,0.5932,600.9726,529.3524,35.2043,-0.0000,-0.0012,0.0003,11.0449,-1.1415,0.4617,0.0000,0.0000,1.1892,-1.1562,-1.9998,7.9998,4.0002,-0.0003,straight,5.45,0.00,0.45,0.00,0.00,0,0.000,-0.082,0.000,0.00,26.73,4,200.0000,46.0691,23.3899,15.9996,12.4455,10.4430,9.2374,8.5132,8.1232,4.0002,4.0619,4.2569,4.6190,5.2219,6.2232,8.0004,11.6958,23.0362,200.0000
-0.060,0,4153.37,-0.00,171.20,0,0.0000,1.0000,0.0000,0.5932,600.9726,529.3524,35.2043,-0.0000,-0.0012,0.0003,11.0449,-1.1415,0.4617,0.0000,0.0000,1.1892,-1.1562,-1.9998,7.9998,4.0002,-0.0003,straight,5.45,0.00,0.45,0.00,0.00,0,0.000,-0.062,0.000,0.00,26.73,4,200.0000,46.0691,23.3899,15.9996,12.4455,10.4430,9.2374,8.5132,8.1232,4.0002,4.0619,4.2569,4.6190,5.2219,6.2232,8.0004,11.6958,23.0362,200.0000
-0.040,0,4153.37,-0.00,175.97,0,0.0000,1.0000,0.0000,0.5932,600.9726,529.3524,35.2043,-0.0000,-0.0012,0.0003,11.0449,-1.1415,0.4617,0.0000,0.0000,1.1892,-1.1562,-1.9998,7.9998,4.0002,-0.0003,straight,5.45,0.00,0.45,0.00,0.00,0,0.000,-0.042,0.000,0.00,26.73,4,200.0000,46.0691,23.3899,15.9996,12.4455,10.4430,9.2374,8.5132,8.1232,4.0002,4.0619,4.2569,4.6190,5.2219,6.2232,8.0004,11.6958,23.0362,200.0000
-0.020,0,4153.37,-0.00,180.86,0,0.0000,1.0000,0.0000,0.5932,600.9726,529.3524,35.2043,-0.0000,-0.0012,0.0003,11.0449,-1.1415,0.4617,0.0000,0.0000,1.1892,-1.1562,-1.9998,7.9998,4.0002,-0.0003,straight,5.45,0.00,0.45,0.00,0.00,0,0.000,-0.022,0.000,0.00,26.73,4,200.0000,46.0691,23.3899,15.9996,12.4455,10.4430,9.2374,8.5132,8.1232,4.0002,4.0619,4.2569,4.6190,5.2219,6.2232,8.0004,11.6958,23.0362,200.0000
0.020,0,4153.37,-0.01,190.96,0,0.0000,1.0000,0.0000,0.5932,600.9727,529.3524,35.2043,0.0001,-0.0016,0.0005,-12.0060,-0.2890,0.4048,-3.4322,2.8420,-2.8833,1.2720,-1.9998,7.9998,4.0002,-0.0005,straight,5.45,0.00,0.45,0.00,0.00,0,0.000,0.018,0.000,0.00,26.73,4,200.0000,46.0691,23.3899,15.9996,12.4455,10.4430,9.2374,8.5132,8.1232,4.0002,4.0619,4.2569,4.6190,5.2219,6.2232,8.0004,11.6958,23.0362,200.0000
0.040,0,4153.37,0.22,152.74,1,0.0000,1.0000,0.0000,0.5932,600.9730,529.3524,35.2044,0.0001,-0.0021,0.0004,11.0969,0.6698,0.3283,-2.3937,2.7691,1.3202,-0.7644,-1.9998,7.9998,4.0002,-0.0004,straight,5.45,0.00,0.45,0.00,0.00,0,0.000,0.038,0.000,0.00,26.73,4,200.0000,46.0691,23.3899,15.9996,12.4455,10.4430,9.2374,8.5132,8.1232,4.0002,4.0619,4.2569,4.6190,5.2219,6.2232,8.0004,11.6958,23.0362,200.0000
0.060,0,4153.37,0.36,111.10,1,0.0000,1.0000,0.0000,0.5532,600.9747,529.3524,35.2047,0.0001,-0.0028,0.0004,-0.6268,-0.1409,0.2441,-0.3279,4.3947,-2.4318,1.3353,-1.9998,7.9998,4.0002,-0.0004,straight,5.45,0.00,0.45,0.00,0.00,0,0.000,0.058,0.000,0.00,26.73,4,200.0000,46.0691,23.3899,15.9996,12.4455,10.4430,9.2374,8.5132,8.1232,4.0002,4.0619,4.2569,4.6190,5.2219,6.2232,8.0004,11.6958,23.0362,200.0000
0.080,0,4153.37,0.60,104.72,1,0.0000,1.0000,0.0000,0.5132,600.9774,529.3524,35.2051,0.0000,-0.0036,0.0004,11.0326,-0.2848,0.1616,-0.4904,1.6888,2.1495,-0.6880,-1.9998,7.9998,4.0002,-0.0004,straight,5.45,0.00,0.45,0.00,0.00,0,0.000,0.078,0.000,0.00,26.73,4,200.0000,46.0691,23.3899,15.9996,12.4455,10.4430,9.2374,8.5132,8.1232,4.0002,4.0619,4.2569,4.6190,5.2219,6.2232,8.0004,11.6958,23.0362,200.0000
0.100,0,4153.37,0.75,104.72,1,0.0000,1.0000,0.0000,0.4732,600.9811,529.3524,35.2055,-0.0000,-0.0044,0.0004,-0.8939,0.0661,0.0638,0.4690,3.6613,-1.8473,1.4538,-1.9998,7.9998,4.0002,-0.0004,straight,5.45,0.00,0.45,0.00,0.00,0,0.000,0.098,0.000,0.00,26.73,4,200.0000,46.0691,23.3899,15.9996,12.4455,10.4430,9.2374,8.5132,8.1232,4.0002,4.0619,4.2569,4.6190,5.2219,6.2232,8.0004,11.6958,23.0362,200.0000
0.120,0,4153.37,0.91,104.72,1,0.0000,1.0000,0.0000,0.4332,600.9857,529.3524,35.2059,-0.0000,-0.0053,0.0003,6.6924,-0.0792,-0.0064,-0.2228,6.2635,2.7857,-0.3102,-1.9998,7.9998,4.0002,-0.0003,straight,5.45,0.00,0.44,0.00,0.00,0,0.000,0.118,0.000,0.00,26.73,4,200.0000,46.0691,23.3899,15.9996,12.4455,10.4430,9.2374,8.5132,8.1232,4.0002,4.0619,4.2569,4.6190,5.2219,6.2232,8.0004,11.6958,23.0362,200.0000
0.140,0,4153.38,1.14,104.72,1,0.0000,1.0000,0.0000,0.3932,600.9915,529.3524,35.2064,-0.0001,-0.0062,0.0003,-0.7640,-0.1481,-0.0634,-0.1857,5.2867,-1.2226,1.8410,-1.9998,7.9998,4.0002,-0.0003,straight,5.45,0.00,0.44,0.00,0.00,0,0.000,0.138,0.000,0.00,26.73,4,200.0000,46.0691,23.3899,15.9996,12.4455,10.4430,9.2374,8.5132,8.1232,4.0002,4.0619,4.2569,4.6190,5.2219,6.2232,8.0004,11.6958,23.0362,200.0000
0.160,0,4153.38,1.31,104.72,1,0.0000,1.0000,0.0000,0.3532,600.9984,529.3524,35.2068,-0.0001,-0.0070,0.0003,11.0732,0.0076,-0.1241,0.5408,5.8381,3.1102,0.1648,-1.9998,7.9998,4.0002,-0.0003,straight,5.45,0.00,0.43,0.00,0.00,0,0.000,0.158,0.000,0.00,26.73,4,200.0000,46.0691,23.3899,15.9996,12.4455,10.4430,9.2374,8.5132,8.1232,4.0002,4.0619,4.2569,4.6190,5.2219,6.2232,8.0004,11.6958,23.0362,200.0000
0.180,0,4153.39,1.51,104.72,1,0.0000,1.0000,0.0000,0.3132,601.0063,529.3524,35.2072,-0.0001,-0.0078,0.0003,-0.2538,-0.1129,-0.1616,0.5380,6.3285,-0.8831,2.0489,-1.9998,7.9998,4.0002,-0.0003,straight,5.45,0.00,0.42,0.00,0.00,0,0.000,0.178,0.000,0.00,26.73,4,200.0000,46.0691,23.3899,15.9996,12.4455,10.4430,9.2374,8.5132,8.1232,4.0002,4.0619,4.2569,4.6190,5.2219,6.2232,8.0004,11.6958,23.0362,200.0000
0.200,0,4153.40,1.71,104.72,1,0.0000,1.0000,0.0000,0.2732,601.0155,529.3524,35.2075,-0.0000,-0.0085,0.0003,10.5310,-0.0352,-0.1857,0.4492,6.2377,3.4501,0.5774,-1.9998,7.9998,4.0002,-0.0003,straight,5.45,0.00,0.41,0.00,0.00,0,0.000,0.198,0.000,0.00,26.73,4,200.0000,46.0691,23.3899,15.9996,12.4455,10.4430,9.2374,8.5132,8.1232,4.0002,4.0619,4.2569,4.6190,5.2219,6.2232,8.0004,11.6958,23.0362,200.0000
0.220,0,4153.41,1.92,104.72,1,0.0000,1.0000,0.0000,0.2332,601.0256,529.3524,35.2077,-0.0000,-0.0090,0.0004,-0.2423,-0.0919,-0.2078,0.7690,5.9304,-0.4849,2.3568,-1.9998,7.9998,4.0002,-0.0004,straight,5.45,0.00,0.40,0.00,0.00,0,0.000,0.218,0.000,0.00,26.73,4,200.0000,46.0691,23.3899,15.9996,12.4455,10.4430,9.2374,8.5132,8.1232,4.0002,4.0619,4.2569,4.6190,5.2219,6.2232,8.0004,11.6958,23.0362,200.0000
0.240,0,4153.42,2.10,104.72,1,0.0000,1.0000,0.0000,0.1932,601.0367,529.3524,35.2078,-0.0000,-0.0094,0.0004,10.5479,-0.0112,-0.2036,1.0300,6.5534,3.6676,0.9028,-1.9998,7.9998,4.0002,-0.0004,straight,5.45,0.00,0.39,0.00,0.00,0,0.000,0.238,0.000,0.00,26.73,4,200.0000,46.0691,23.3899,15.9996,12.4455,10.4430,9.2374,8.5132,8.1232,4.0002,4.0619,4.2569,4.6190,5.2219,6.2232,8.0004,11.6958,23.0362,200.0000
0.262,0,4153.43,2.29,104.72,1,0.0000,1.0000,0.0000,0.1532,601.0504,529.3524,35.2079,-0.0000,-0.0097,0.0004,-0.8462,0.1561,-0.1885,1.8516,4.8606,2.6765,3.8003,-1.9998,7.9998,4.0002,-0.0004,straight,5.45,0.00,0.38,0.00,0.00,0,0.000,0.260,0.000,0.00,26.73,4,200.0000,46.0691,23.3899,15.9996,12.4455,10.4430,9.2374,8.5132,8.1232,4.0002,4.0619,4.2569,4.6190,5.2219,6.2232,8.0004,11.6958,23.0362,200.0000
0.282,0,4153.44,2.57,104.72,1,0.0000,1.0000,0.0000,0.1132,601.0640,529.3524,35.2078,-0.0000,-0.0099,0.0004,10.9985,0.0567,-0.1559,1.9366,5.0058,1.2650,0.1726,-1.9998,7.9998,4.0002,-0.0004,straight,5.45,0.00,0.36,0.00,0.00,0,0.000,0.280,0.000,0.00,26.73,4,200.0000,46.0691,23.3899,15.9996,12.4455,10.4430,9.2374,8.5132,8.1232,4.0002,4.0619,4.2569,4.6190,5.2219,6.2232,8.0004,11.6958,23.0362,200.0000
0.302,0,4153.46,2.69,104.72,1,0.0000,1.0000,0.0000,0.0732,601.0786,529.3524,35.2078,-0.0000,-0.0099,0.0004,-0.7438,0.1797,-0.1136,2.0479,5.1812,2.9860,4.0701,-1.9998,7.9998,4.0002,-0.0004,straight,5.45,0.00,0.35,0.00,0.00,0,0.000,0.300,0.000,0.00,26.73,4,200.0000,46.0691,23.3899,15.9996,12.4455,10.4430,9.2374,8.5132,8.1232,4.0002,4.0619,4.2569,4.6190,5.2219,6.2232,8.0004,11.6958,23.0362,200.0000
0.322,0,4153.47,2.96,104.72,1,0.0000,1.0000,0.0000,0.0332,601.0942,529.3524,35.2076,-0.0000,-0.0099,0.0004,10.8064,0.0646,-0.0410,2.1776,5.3282,1.6191,0.5727,-1.9998,7.9998,4.0002,-0.0004,straight,5.45,0.00,0.33,0.00,0.00,0,0.000,0.320,0.000,0.00,26.73,4,200.0000,46.0691,23.3899,15.9996,12.4455,10.4430,9.2374,8.5132,8.1232,4.0002,4.0619,4.2569,4.6190,5.2219,6.2232,8.0004,11.6958,23.0362,200.0000
0.342,0,4153.49,3.08,104.72,1,0.0000,1.0000,0.0000,0.0000,601.1110,529.3524,35.2075,-0.0000,-0.0098,0.0004,-0.5766,0.1804,-0.0148,2.3096,5.4779,3.2996,4.3458,-1.9998,7.9998,4.0002,-0.0004,straight,5.45,0.00,0.32,0.00,0.00,0,0.000,0.340,0.000,0.00,26.73,4,200.0000,46.0691,23.3899,15.9996,12.4455,10.4430,9.2374,8.5132,8.1232,4.0002,4.0619,4.2569,4.6190,5.2219,6.2232,8.0004,11.6958,23.0362,200.0000
0.362,0,4153.50,3.35,104.72,1,0.0000,1.0000,0.0000,0.0000,601.1290,529.3524,35.2073,-0.0001,-0.0096,0.0004,10.6320,0.0684,0.0036,2.4415,5.6294,1.9800,0.9590,-1.9998,7.9998,4.0002,-0.0004,straight,5.45,0.00,0.30,0.00,0.00,0,0.000,0.360,0.000,0.00,26.73,4,200.0000,46.0691,23.3899,15.9996,12.4455,10.4430,9.2374,8.5132,8.1232,4.0002,4.0619,4.2569,4.6190,5.2219,6.2232,8.0004,11.6958,23.0362,200.0000
0.382,0,4153.52,3.48,104.72,1,0.0000,1.0000,0.0000,0.0000,601.1479,529.3524,35.2072,-0.0001,-0.0094,0.0004,-0.4271,0.1824,0.0421,2.5868,5.7526,3.5944,4.6262,-1.9998,7.9998,4.0002,-0.0004,straight,5.45,0.00,0.28,0.00,0.00,0,0.000,0.380,0.000,0.00,26.73,4,200.0000,46.0691,23.3899,15.9996,12.4455,10.4430,9.2374,8.5132,8.1232,4.0002,4.0619,4.2569,4.6190,5.2219,6.2232,8.0004,11.6958,23.0362,200.0000
0.402,0,4153.54,3.75,104.72,1,0.0000,1.0000,0.0000,0.0000,601.1678,529.3524,35.2070,-0.0001,-0.0092,0.0004,10.4999,0.0739,0.0334,2.7642,5.9109,2.3367,1.3387,-1.9998,7.9998,4.0002,-0.0004,straight,5.45,0.00,0.26,0.00,0.00,0,0.000,0.400,0.000,0.00,26.73,4,200.0000,46.0691,23.3899,15.9996,12.4455,10.4430,9.2374,8.5132,8.1232,4.0002,4.0619,4.2569,4.6190,5.2219,6.2232,8.0004,11.6958,23.0362,200.0000
0.422,0,4153.56,3.87,104.72,1,0.0000,1.0000,0.0000,0.0000,601.1890,529.3524,35.2069,-0.0001,-0.0089,0.0004,-0.2806,0.1734,0.0550,2.9601,6.0308,3.8970,4.9095,-1.9998,7.9998,4.0002,-0.0004,straight,5.45,0.00,0.24,0.00,0.00,0,0.000,0.420,0.000,0.00,26.73,4,200.0000,46.0691,23.3899,15.9996,12.4455,10.4430,9.2374,8.5132,8.1232,4.0002,4.0619,4.2569,4.6190,5.2219,6.2232,8.0004,11.6958,23.0362,200.0000
0.442,0,4153.58,4.14,104.72,1,0.0000,1.0000,0.0000,0.0000,601.2112,529.3524,35.2068,-0.0001,-0.0087,0.0004,10.3367,0.0768,0.0488,3.1232,6.2168,2.7091,1.7093,-1.9998,7.9998,4.0002,-0.0004,straight,5.45,0.00,0.22,0.00,0.00,0,0.000,0.440,0.000,0.00,26.73,4,200.0000,46.0691,23.3899,15.9996,12.4455,10.4430,9.2374,8.5132,8.1232,4.0002,4.0619,4.2569,4.6190,5.2219,6.2232,8.0004,11.6958,23.0362,200.0000
0.462,0,4153.60,4.26,104.72,1,0.0000,1.0000,0.0000,0.0000,601.2345,529.3524,35.2068,-0.0001,-0.0085,0.0004,-0.2883,0.1749,0.0723,3.2998,6.3016,4.1964,5.1986,-1.9998,7.9998,4.0002,-0.0004,straight,5.45,0.00,0.19,0.00,0.00,0,0.000,0.460,0.000,0.00,26.73,4,200.0000,46.0691,23.3899,15.9996,12.4455,10.4430,9.2374,8.5132,8.1232,4.0002,4.0619,4.2569,4.6190,5.2219,6.2232,8.0004,11.6958,23.0362,200.0000
0.482,0,4153.63,4.53,104.72,1,0.0000,1.0000,0.0000,0.0000,601.2589,529.3524,35.2067,-0.0001,-0.0084,0.0004,10.1350,0.0812,0.0592,3.4392,6.5077,3.0741,2.0811,-1.9998,7.9998,4.0002,-0.0004,straight,5.45,0.00,0.17,0.00,0.00,0,0.000,0.480,0.000,0.00,26.73,4,200.0000,46.0691,23.3899,15.9996,12.4455,10.4430,9.2374,8.5132,8.1232,4.0002,4.0619,4.2569,4.6190,5.2219,6.2232,8.0004,11.6958,23.0362,200.0000
0.504,0,4153.65,4.69,104.72,1,0.0000,1.0000,0.0000,0.0000,601.2869,529.3524,35.2067,-0.0001,-0.0082,0.0004,5.6364,0.1514,0.0507,7.0199,3.5323,5.5227,3.2753,-1.9998,7.9998,4.0002,-0.0004,straight,5.45,0.00,0.14,0.00,0.00,0,0.000,0.502,0.000,0.00,26.73,4,200.0000,46.0691,23.3899,15.9996,12.4455,10.4430,9.2374,8.5132,8.1232,4.0002,4.0619,4.2569,4.6190,5.2219,6.2232,8.0004,11.6958,23.0362,200.0000
0.524,0,4153.68,4.90,104.72,1,0.0000,1.0000,0.0000,0.0000,601.3137,529.3524,35.2067,-0.0001,-0.0081,0.0005,-2.6518,0.0266,0.0509,7.1932,3.6656,2.4932,4.5914,-1.9998,7.9998,4.0002,-0.0005,straight,5.45,0.00,0.11,0.00,0.00,0,0.000,0.522,0.000,0.00,26.73,4,200.0000,46.0691,23.3899,15.9996,12.4455,10.4430,9.2374,8.5132,8.1232,4.0002,4.0619,4.2569,4.6190,5.2219,6.2232,8.0004,11.6958,23.0362,200.0000
0.544,0,4153.71,5.09,104.72,1,0.0000,1.0000,0.0000,0.0000,601.3414,529.3524,35.2067,-0.0001,-0.0080,0.0004,5.4629,0.1506,0.0294,7.2311,3.7695,5.8182,3.6897,-1.9998,7.9998,4.0002,-0.0004,straight,5.45,0.00,0.09,0.00,0.00,0,0.000,0.542,0.000,0.00,26.73,4,200.0000,46.0691,23.3899,15.9996,12.4455,10.4430,9.2374,8.5132,8.1232,4.0002,4.0619,4.2569,4.6190,5.2219,6.2232,8.0004,11.6958,23.0362,200.0000
0.564,0,4153.73,5.29,104.72,1,0.0000,1.0000,0.0000,0.0000,601.3703,529.3524,35.2068,-0.0001,-0.0079,0.0005,-1.6575,0.0300,0.0374,7.3620,4.0777,2.9123,4.7721,-1.9998,7.9998,4.0002,-0.0005,straight,5.45,0.00,0.06,0.00,0.00,0,0.000,0.562,0.000,0.00,26.73,4,200.0000,46.0691,23.3899,15.9996,12.4455,10.4430,9.2374,8.5132,8.1232,4.0002,4.0619,4.2569,4.6190,5.2219,6.2232,8.0004,11.6958,23.0362,200.0000
0.584,0,4153.76,5.44,104.72,1,0.0000,1.0000,0.0000,0.0000,601.4003,529.3524,35.2068,-0.0001,-0.0079,0.0005,-0.2056,0.0228,0.0452,7.4838,4.3188,6.1259,6.2571,-1.9998,7.9998,4.0002,-0.0005,straight,5.45,0.00,0.03,0.00,0.00,0,0.000,0.582,0.000,0.00,26.73,4,200.0000,46.0691,23.3899,15.9996,12.4455,10.4430,9.2374,8.5132,8.1232,4.0002,4.0619,4.2569,4.6190,5.2219,6.2232,8.0004,11.6958,23.0362,200.0000
0.604,0,4153.79,5.70,104.72,1,0.0000,1.0000,0.0000,0.0000,601.4313,529.3524,35.2069,-0.0001,-0.0078,0.0005,10.8550,0.0012,0.0105,7.6818,4.4391,4.2284,4.3245,-1.9998,7.9998,4.0002,-0.0005,straight,5.45,0.00,5.45,0.00,0.00,0,0.000,0.602,0.000,0.00,26.73,4,200.0000,46.0691,23.3899,15.9996,12.4455,10.4430,9.2374,8.5132,8.1232,4.0002,4.0619,4.2569,4.6190,5.2219,6.2232,8.0004,11.6958,23.0361,200.0000
0.624,0,4153.82,5.91,104.72,1,0.0000,1.0000,0.0000,0.0000,601.4636,529.3524,35.2070,-0.0001,-0.0078,0.0005,0.4291,0.0595,0.0160,7.8592,4.5077,3.1140,3.0922,-1.9998,7.9998,4.0002,-0.0005,straight,5.45,0.00,5.42,0.00,0.00,0,0.000,0.622,0.000,0.00,26.73,4,200.0000,46.0691,23.3899,15.9996,12.4455,10.4430,9.2374,8.5132,8.1232,4.0002,4.0619,4.2569,4.6190,5.2219,6.2232,8.0004,11.6958,23.0361,200.0000
0.644,0,4153.86,6.02,104.72,1,0.0000,1.0000,0.0000,0.0000,601.4967,529.3524,35.2070,-0.0001,-0.0078,0.0005,-7.3018,0.0286,0.0217,7.9095,4.5565,6.8983,6.4762,-1.9998,7.9998,4.0002,-0.0005,straight,5.45,0.00,5.39,0.00,0.00,0,0.000,0.642,0.000,0.00,26.73,4,200.0000,46.0691,23.3899,15.9996,12.4455,10.4430,9.2374,8.5132,8.1232,4.0002,4.0619,4.2569,4.6190,5.2219,6.2232,8.0004,11.6958,23.0361,200.0000
0.664,0,4153.89,6.23,104.72,1,0.0000,1.0000,0.0000,0.0000,601.5311,529.3524,35.2071,-0.0001,-0.0078,0.0005,0.7906,-0.0234,0.0144,7.9504,4.8310,7.1806,6.9030,-1.9998,7.9998,4.0002,-0.0005,straight,5.45,0.00,5.35,0.00,0.00,0,0.000,0.662,0.000,0.00,26.73,4,200.0000,46.0691,23.3899,15.9996,12.4455,10.4430,9.2374,8.5132,8.1232,4.0002,4.0619,4.2569,4.6190,5.2219,6.2232,8.0004,11.6958,23.0361,200.0000
0.684,0,4153.92,6.48,104.72,1,0.0000,1.0000,0.0000,0.0000,601.5665,529.3524,35.2072,-0.0001,-0.0079,0.0005,9.6309,0.1205,0.0006,8.1669,5.0784,5.2796,5.1712,-1.9998,7.9998,4.0002,-0.0005,straight,5.45,0.00,5.32,0.00,0.00,0,0.000,0.682,0.000,0.00,26.73,4,200.0000,46.0691,23.3899,15.9996,12.4455,10.4430,9.2374,8.5132,8.1232,4.0002,4.0619,4.2569,4.6190,5.2219,6.2232,8.0004,11.6958,23.0361,200.0000
0.704,0,4153.96,6.70,104.72,1,0.0000,1.0000,0.0000,0.0000,601.6030,529.3524,35.2073,-0.0001,-0.0079,0.0005,6.8239,0.0313,0.0092,8.3673,5.2183,3.8455,3.8885,-1.9998,7.9998,4.0002,-0.0005,straight,5.45,0.00,5.28,0.00,0.00,0,0.000,0.702,0.000,0.00,26.73,4,200.0000,46.0691,23.3899,15.9996,12.4455,10.4430,9.2374,8.5132,8.1232,4.0002,4.0619,4.2569,4.6190,5.2219,6.2232,8.0004,11.6958,23.0361,200.0000
0.724,0,4154.00,6.89,104.72,1,0.0000,1.0000,0.0000,0.0000,601.6406,529.3524,35.2073,-0.0001,-0.0079,0.0005,-0.1696,0.1421,0.0016,8.5139,5.3357,3.9780,3.6791,-1.9998,7.9998,4.0002,-0.0005,straight,5.45,0.00,5.24,0.00,0.00,0,0.000,0.722,0.000,0.00,26.73,4,200.0000,46.0691,23.3899,15.9996,12.4455,10.4430,9.2374,8.5132,8.1232,4.0002,4.0619,4.2569,4.6190,5.2219,6.2232,8.0004,11.6958,23.0361,200.0000
0.744,0,4154.03,7.03,104.72,1,0.0000,1.0000,0.0000,0.0000,601.6791,529.3524,35.2074,-0.0001,-0.0080,0.0005,-6.9495,0.0257,-0.0059,8.6176,5.4215,6.6399,5.9700,-1.9998,7.9998,4.0002,-0.0005,straight,5.45,0.00,5.20,0.00,0.00,0,0.000,0.742,0.000,0.00,26.73,4,200.0000,46.0691,23.3899,15.9996,12.4455,10.4430,9.2374,8.5132,8.1232,4.0002,4.0619,4.2569,4.6190,5.2219,6.2232,8.0004,11.6958,23.0361,200.0000
0.764,0,4154.07,7.20,104.72,1,0.0000,1.0000,0.0000,0.0000,601.7189,529.3524,35.2075,-0.0001,-0.0080,0.0005,-3.5031,0.0104,-0.0003,8.7045,5.6057,7.7479,7.6761,-1.9998,7.9998,4.0002,-0.0005,straight,5.45,0.00,5.16,0.00,0.00,0,0.000,0.762,0.000,0.00,26.73,4,200.0000,46.0691,23.3899,15.9996,12.4455,10.4430,9.2374,8.5132,8.1232,4.0002,4.0619,4.2569,4.6190,5.2219,6.2232,8.0004,11.6958,23.0361,200.0000
0.784,0,4154.11,7.41,104.87,1,0.0000,1.0000,0.0000,0.0000,601.7598,529.3524,35.2076,-0.0001,-0.0081,0.0005,3.3875,0.0493,-0.0136,8.8558,5.7638,7.3130,7.8729,-1.9998,7.9998,4.0002,-0.0005,straight,5.45,0.00,5.12,0.00,0.00,0,0.000,0.782,0.000,0.00,26.73,4,200.0000,46.0691,23.3899,15.9996,12.4455,10.4430,9.2374,8.5132,8.1232,4.0002,4.0619,4.2569,4.6190,5.2219,6.2232,8.0004,11.6958,23.0361,200.0000
0.804,0,4154.15,7.66,104.72,1,0.0000,1.0000,0.0000,0.0000,601.8017,529.3524,35.2076,-0.0001,-0.0081,0.0005,11.3514,0.0272,-0.0174,8.9690,5.8685,6.0012,6.3670,-1.9998,7.9998,4.0002,-0.0005,straight,5.45,0.00,5.08,0.00,0.00,0,0.000,0.802,0.000,0.00,26.73,4,200.0000,46.0691,23.3899,15.9996,12.4455,10.4430,9.2374,8.5132,8.1232,4.0002,4.0619,4.2569,4.6190,5.2219,6.2232,8.0004,11.6958,23.0361,200.0000
0.824,0,4154.19,7.88,107.40,1,0.0000,1.0000,0.0000,0.0000,601.8448,529.3524,35.2077,-0.0001,-0.0081,0.0005,10.7420,-0.0642,-0.0003,10.3327,5.4578,4.8136,4.8483,-1.9998,7.9998,4.0002,-0.0005,straight,5.45,0.00,5.04,0.00,0.00,0,0.000,0.822,0.000,0.00,26.73,4,200.0000,46.0691,23.3899,15.9996,12.4455,10.4430,9.2374,8.5132,8.1232,4.0002,4.0619,4.2569,4.6190,5.2219,6.2232,8.0004,11.6958,23.0361,200.0000
0.844,0,4154.24,8.07,109.10,1,0.0000,1.0000,0.0000,0.0000,601.8889,529.3524,35.2077,-0.0000,-0.0082,0.0005,3.7050,0.0334,-0.0060,10.3306,5.6215,4.8031,4.7608,-1.9998,7.9998,4.0002,-0.0005,straight,5.45,0.00,4.99,0.00,0.00,0,0.000,0.842,0.000,0.00,26.73,4,200.0000,46.0691,23.3899,15.9996,12.4455,10.4430,9.2374,8.5132,8.1232,4.0002,4.0619,4.2569,4.6190,5.2219,6.2232,8.0004,11.6958,23.0361,200.0000
0.864,0,4154.28,8.21,113.52,1,0.0000,1.0000,0.0000,0.0000,601.9341,529.3524,35.2078,-0.0000,-0.0082,0.0005,-4.5760,0.0572,0.0008,10.1480,5.9890,6.8477,6.7638,-1.9998,7.9998,4.0002,-0.0005,straight,5.45,0.00,4.95,0.00,0.00,0,0.000,0.862,0.000,0.00,26.73,4,200.0000,46.0691,23.3899,15.9996,12.4455,10.4430,9.2374,8.5132,8.1232,4.0002,4.0619,4.2569,4.6190,5.2219,6.2232,8.0004,11.6958,23.0361,200.0000
0.884,0,4154.33,8.37,116.17,1,0.0000,1.0000,0.0000,0.0000,601.9805,529.3524,35.2078,-0.0000,-0.0083,0.0005,-5.5454,-0.0228,-0.0015,10.1514,6.3658,8.5616,8.1337,-1.9998,7.9998,4.0002,-0.0005,straight,5.45,0.00,4.90,0.00,0.00,0,0.000,0.882,0.000,0.00,26.73,4,200.0000,46.0691,23.3899,15.9996,12.4455,10.4430,9.2374,8.5132,8.1232,4.0002,4.0619,4.2569,4.6190,5.2219,6.2232,8.0004,11.6958,23.0361,200.0000
0.904,0,4154.37,8.57,117.33,1,0.0000,1.0000,0.0000,0.0000,602.0277,529.3524,35.2079,0.0000,-0.0083,0.0005,0.8842,-0.0861,0.0029,10.1220,6.5563,8.8739,8.8604,-1.9998,7.9998,4.0002,-0.0005,straight,5.45,0.00,4.85,0.00,0.00,0,0.000,0.902,0.000,0.00,26.73,4,200.0000,46.0691,23.3899,15.9996,12.4455,10.4430,9.2374,8.5132,8.1232,4.0002,4.0619,4.2569,4.6190,5.2219,6.2232,8.0004,11.6958,23.0361,200.0000
0.924,0,4154.42,8.81,115.22,1,0.0000,1.0000,0.0000,0.0000,602.0762,529.3524,35.2079,0.0000,-0.0083,0.0005,8.4314,-0.0146,0.0167,9.4977,6.9509,7.6330,8.5763,-1.9998,7.9998,4.0002,-0.0005,straight,5.45,0.00,4.81,0.00,0.00,0,0.000,0.922,0.000,0.00,26.73,4,200.0000,46.0691,23.3899,15.9996,12.4455,10.4430,9.2374,8.5132,8.1232,4.0002,4.0619,4.2569,4.6190,5.2219,6.2232,8.0004,11.6958,23.0361,200.0000
0.944,0,4154.47,9.04,120.48,1,0.0000,1.0000,0.0000,0.0000,602.1258,529.3524,35.2080,0.0000,-0.0083,0.0005,12.5621,-0.0256,0.0173,9.4870,7.5432,6.3934,7.1400,-1.9998,7.9998,4.0002,-0.0005,straight,5.45,0.00,4.76,0.00,0.00,0,0.000,0.942,0.000,0.00,26.73,4,200.0000,46.0691,23.3899,15.9996,12.4455,10.4430,9.2374,8.5132,8.1232,4.0002,4.0619,4.2569,4.6190,5.2219,6.2232,8.0004,11.6958,23.0361,200.0000
0.964,0,4154.52,9.25,123.43,1,0.0000,1.0000,0.0000,0.0000,602.1765,529.3524,35.2080,0.0001,-0.0084,0.0005,7.3792,-0.0830,0.0146,9.3904,7.9676,6.0364,6.1158,-1.9998,7.9998,4.0002,-0.0005,straight,5.45,0.00,4.71,0.00,0.00,0,0.000,0.962,0.000,0.00,26.73,4,200.0000,46.0691,23.3899,15.9996,12.4455,10.4430,9.2374,8.5132,8.1232,4.0002,4.0619,4.2569,4.6190,5.2219,6.2232,8.0004,11.6958,23.0361,200.0000
0.984,0,4154.57,9.43,130.95,1,0.0000,1.0000,0.0000,0.0000,602.2283,529.3524,35.2081,0.0001,-0.0084,0.0005,0.2514,-0.0334,0.0084,8.5544,9.5898,6.2836,6.1244,-1.9998,7.9998,4.0002,-0.0005,straight,5.45,0.00,4.65,0.00,0.00,0,0.000,0.982,0.000,0.00,26.73,4,200.0000,46.0691,23.3899,15.9996,12.4455,10.4430,9.2374,8.5132,8.1232,4.0002,4.0619,4.2569,4.6190,5.2219,6.2232,8.0004,11.6958,23.0361,200.0000
1.006,0,4154.62,9.57,128.95,1,0.0000,1.0000,0.0000,0.0000,602.2863,529.3524,35.2082,0.0001,-0.0084,0.0005,-1.7940,0.0597,0.0215,7.2475,11.0173,9.6268,9.5812,-1.9998,7.9998,4.0002,-0.0005,straight,5.45,0.00,4.60,0.00,0.00,0,0.000,1.004,0.000,0.00,26.73,4,200.0000,46.0691,23.3899,15.9996,12.4455,10.4430,9.2374,8.5132,8.1232,4.0002,4.0619,4.2569,4.6190,5.2219,6.2232,8.0004,11.6958,23.0361,200.0000
1.026,0,4154.68,9.64,113.96,1,0.0000,0.2000,0.0000,0.0000,602.3400,529.3524,35.2082,0.0001,-0.0083,0.0005,1.9902,0.0209,-0.0123,7.5352,8.6881,9.8038,9.7130,-1.9998,7.9998,4.0002,-0.0005,straight,5.45,0.00,4.54,0.00,0.00,0,0.000,1.024,0.000,0.00,26.73,4,200.0000,46.0691,23.3899,15.9996,12.4455,10.4430,9.2374,8.5132,8.1232,4.0002,4.0619,4.2569,4.6190,5.2219,6.2232,8.0004,11.6958,23.0361,200.0000
1.046,0,4154.73,9.73,125.15,1,0.0000,0.4000,0.0000,0.0000,602.3939,529.3524,35.2083,0.0001,-0.0081,0.0005,6.6019,0.1229,-0.0005,9.2725,8.2195,8.4966,8.1319,-1.9998,7.9998,4.0002,-0.0005,straight,5.45,0.00,4.49,0.00,0.00,0,0.000,1.044,0.000,0.00,26.73,4,200.0000,46.0691,23.3899,15.9996,12.4455,10.4430,9.2374,8.5132,8.1232,4.0002,4.0619,4.2569,4.6190,5.2219,6.2232,8.0004,11.6958,23.0361,200.0000
1.066,0,4154.79,9.87,124.99,1,0.0000,0.6000,0.0000,0.0000,602.4482,529.3524,35.2084,0.0001,-0.0078,0.0005,8.7791,0.0118,-0.0073,10.4885,6.8190,7.5540,6.9710,-1.9998,7.9998,4.0002,-0.0005,straight,5.45,0.00,4.43,0.00,0.00,0,0.000,1.064,0.000,0.00,26.73,4,200.0000,46.0691,23.3899,15.9996,12.4455,10.4430,9.2374,8.5132,8.1232,4.0002,4.0619,4.2569,4.6190,5.2219,6.2232,8.0004,11.6958,23.0361,200.0000
1.086,0,4154.84,10.02,130.32,1,0.0000,0.8000,0.0000,0.0000,602.5032,529.3524,35.2085,0.0001,-0.0075,0.0005,5.1512,0.0277,0.0054,10.8832,7.4292,6.8321,6.7505,-1.9998,7.9998,4.0002,-0.0005,straight,5.45,0.00,4.38,0.00,0.00,0,0.000,1.084,0.000,0.00,26.73,4,200.0000,46.0691,23.3899,15.9996,12.4455,10.4430,9.2374,8.5132,8.1232,4.0002,4.0619,4.2569,4.6190,5.2219,6.2232,8.0004,11.6958,23.0361,200.0000
1.106,0,4154.90,10.20,132.48,1,0.0000,1.0000,0.0000,0.0000,602.5593,529.3524,35.2085,0.0001,-0.0073,0.0005,1.1279,0.0510,0.0100,11.0420,7.7362,6.9616,7.1848,-1.9998,7.9998,4.0002,-0.0005,straight,5.45,0.00,4.32,0.00,0.00,0,0.000,1.104,0.000,0.00,26.73,4,200.0000,46.0691,23.3899,15.9996,12.4455,10.4430,9.2374,8.5132,8.1232,4.0002,4.0619,4.2569,4.6190,5.2219,6.2232,8.0004,11.6958,23.0361,200.0000
1.126,0,4154.95,10.35,135.86,1,0.0000,1.0000,0.0000,0.0000,602.6164,529.3524,35.2086,0.0001,-0.0072,0.0005,-3.3457,0.0401,0.0187,11.9159,7.6625,8.6357,8.6895,-1.9998,7.9998,4.0002,-0.0005,straight,5.45,0.00,4.27,0.00,0.00,0,0.000,1.124,0.000,0.00,26.73,4,200.0000,46.0691,23.3899,15.9996,12.4455,10.4430,9.2374,8.5132,8.1232,4.0002,4.0619,4.2569,4.6190,5.2219,6.2232,8.0004,11.6958,23.0361,200.0000
1.146,0,4155.01,10.52,139.79,1,0.0000,1.0000,0.0000,0.0000,602.6746,529.3524,35.2087,0.0001,-0.0071,0.0005,-5.2120,-0.0216,0.0157,11.6081,8.1036,10.0608,9.9011,-1.9998,7.9998,4.0002,-0.0005,straight,5.45,0.00,4.21,0.00,0.00,0,0.000,1.144,0.000,0.00,26.73,4,200.0000,46.0691,23.3899,15.9996,12.4455,10.4430,9.2374,8.5132,8.1232,4.0002,4.0619,4.2569,4.6190,5.2219,6.2232,8.0004,11.6958,23.0361,200.0000
1.166,0,4155.07,10.72,138.90,1,0.0000,1.0000,0.0000,0.0000,602.7339,529.3524,35.2088,0.0001,-0.0072,0.0005,0.5257,-0.0615,0.0216,11.1728,8.5416,10.5361,10.5277,-1.9998,7.9998,4.0002,-0.0005,straight,5.45,0.00,4.15,0.00,0.00,0,0.000,1.164,0.000,0.00,26.73,4,200.0000,46.0691,23.3899,15.9996,12.4455,10.4430,9.2374,8.5132,8.1232,4.0002,4.0619,4.2569,4.6190,5.2219,6.2232,8.0004,11.6958,23.0361,200.0000
1.186,0,4155.13,10.93,142.84,1,0.0000,1.0000,0.0000,0.0000,602.7943,529.3524,35.2089,0.0001,-0.0073,0.0005,5.7013,-0.0422,0.0004,10.7585,9.4098,10.0552,10.6336,-1.9998,7.9998,4.0002,-0.0005,straight,5.45,0.00,4.09,0.00,0.00,0,0.000,1.184,0.000,0.00,26.73,4,200.0000,46.0691,23.3899,15.9996,12.4455,10.4430,9.2374,8.5132,8.1232,4.0002,4.0619,4.2569,4.6190,5.2219,6.2232,8.0004,11.6958,23.0361,200.0000
1.206,0,4155.19,11.15,149.45,1,0.0000,1.0000,0.0000,0.0000,602.8556,529.3524,35.2090,0.0001,-0.0074,0.0005,8.7361,-0.0451,0.0163,9.9685,10.8847,9.1074,9.5333,-1.9998,7.9998,4.0002,-0.0005,straight,5.45,0.00,4.03,0.00,0.00,0,0.000,1.204,0.000,0.00,26.73,4,200.0000,46.0691,23.3899,15.9996,12.4455,10.4430,9.2374,8.5132,8.1232,4.0002,4.0619,4.2569,4.6190,5.2219,6.2232,8.0004,11.6958,23.0361,200.0000
1.226,0,4155.25,11.38,147.62,1,0.0000,1.0000,0.0000,0.0000,602.9183,529.3524,35.2091,0.0001,-0.0076,0.0005,9.5236,0.0021,0.0086,9.1921,11.4200,8.1760,8.6691,-1.9998,7.9998,4.0002,-0.0005,straight,5.45,0.00,3.96,0.00,0.00,0,0.000,1.224,0.000,0.00,26.73,4,200.0000,46.0691,23.3899,15.9996,12.4455,10.4430,9.2374,8.5132,8.1232,4.0002,4.0619,4.2569,4.6190,5.2219,6.2232,8.0004,11.6958,23.0361,200.0000
1.246,0,4155.31,11.58,148.12,1,0.0000,1.0000,0.0000,0.0000,602.9818,529.3524,35.2092,0.0001,-0.0078,0.0005,6.2188,-0.0076,0.0072,9.0761,12.0092,8.0591,8.1590,-1.9998,7.9998,4.0002,-0.0005,straight,5.45,0.00,3.90,0.00,0.00,0,0.000,1.244,0.000,0.00,26.73,4,200.0000,46.0691,23.3899,15.9996,12.4455,10.4430,9.2374,8.5132,8.1232,4.0002,4.0619,4.2569,4.6190,5.2219,6.2232,8.0004,11.6958,23.0361,200.0000
1.266,0,4155.37,11.76,151.04,1,0.0000,1.0000,0.0000,0.0000,603.0464,529.3524,35.2093,0.0001,-0.0080,0.0005,1.7797,-0.0107,0.0025,9.0197,12.5798,8.5823,8.2966,-1.9998,7.9998,4.0002,-0.0005,straight,5.45,0.00,3.84,0.00,0.00,0,0.000,1.264,0.000,0.00,26.73,4,200.0000,46.0691,23.3899,15.9996,12.4455,10.4430,9.2374,8.5132,8.1232,4.0002,4.0619,4.2569,4.6190,5.2219,6.2232,8.0004,11.6958,23.0361,200.0000
1.286,0,4155.44,11.92,153.67,1,0.0000,1.0000,0.0000,0.0000,603.1121,529.3524,35.2094,0.0001,-0.0082,0.0005,-3.5535,-0.0104,0.0013,9.4644,12.2574,9.9662,9.6659,-1.9998,7.9998,4.0002,-0.0005,straight,5.45,0.00,3.77,0.00,0.00,0,0.000,1.284,0.000,0.00,26.73,4,200.0000,46.0691,23.3899,15.9996,12.4455,10.4430,9.2374,8.5132,8.1232,4.0002,4.0619,4.2569,4.6190,5.2219,6.2232,8.0004,11.6958,23.0361,200.0000
1.306,0,4155.50,12.09,154.06,1,0.0000,1.0000,0.0000,0.0000,603.1789,529.3524,35.2095,0.0001,-0.0083,0.0005,-4.0951,0.0207,-0.0092,10.0781,11.7317,11.0708,10.8909,-1.9998,7.9998,4.0002,-0.0005,straight,5.45,0.00,3.70,0.00,0.00,0,0.000,1.304,0.000,0.00,26.73,4,200.0000,46.0691,23.3899,15.9996,12.4455,10.4430,9.2374,8.5132,8.1232,4.0002,4.0619,4.2569,4.6190,5.2219,6.2232,8.0004,11.6958,23.0361,200.0000
1.326,0,4155.57,12.27,160.65,1,0.0000,1.0000,0.0000,0.0000,603.2468,529.3524,35.2097,0.0001,-0.0085,0.0005,-1.1817,0.0362,-0.0061,11.3047,11.2432,11.7517,11.7106,-1.9998,7.9998,4.0002,-0.0005,straight,5.45,0.00,3.63,0.00,0.00,0,0.000,1.324,0.000,0.00,26.73,4,200.0000,46.0691,23.3899,15.9996,12.4455,10.4430,9.2374,8.5132,8.1232,4.0002,4.0619,4.2569,4.6190,5.2219,6.2232,8.0004,11.6958,23.0361,200.0000
1.346,0,4155.64,12.48,162.24,1,0.0000,1.0000,0.0000,0.0000,603.3159,529.3524,35.2098,0.0001,-0.0086,0.0005,2.9726,0.0324,-0.0119,12.1326,10.6016,11.9105,11.7880,-1.9998,7.9998,4.0002,-0.0005,straight,5.45,0.00,3.57,0.00,0.00,0,0.000,1.344,0.000,0.00,26.73,4,200.0000,46.0691,23.3899,15.9996,12.4455,10.4430,9.2374,8.5132,8.1232,4.0002,4.0619,4.2569,4.6190,5.2219,6.2232,8.0004,11.6958,23.0361,200.0000
1.366,0,4155.71,12.71,161.88,1,0.0000,1.0000,0.0000,0.0000,603.3860,529.3524,35.2099,0.0000,-0.0088,0.0005,8.2062,0.0475,-0.0072,12.6845,10.2583,11.1897,10.8102,-1.9998,7.9998,4.0002,-0.0005,straight,5.45,0.00,3.50,0.00,0.00,0,0.000,1.364,0.000,0.00,26.73,4,200.0000,46.0691,23.3899,15.9996,12.4455,10.4430,9.2374,8.5132,8.1232,4.0002,4.0619,4.2569,4.6190,5.2219,6.2232,8.0004,11.6958,23.0361,200.0000
1.386,0,4155.78,12.94,164.10,1,0.0000,1.0000,0.0000,0.0000,603.4572,529.3524,35.2100,-0.0000,-0.0089,0.0005,10.6983,0.0040,-0.0141,13.2421,10.2064,10.4047,9.9316,-1.9998,7.9998,4.0002,-0.0005,straight,5.45,0.00,3.42,0.00,0.00,0,0.000,1.384,0.000,0.00,26.73,4,200.0000,46.0691,23.3899,15.9996,12.4455,10.4430,9.2374,8.5132,8.1232,4.0002,4.0619,4.2569,4.6190,5.2219,6.2232,8.0004,11.6958,23.0361,200.0000
1.406,0,4155.85,13.16,166.18,1,0.0000,1.0000,0.0000,0.0000,603.5297,529.3524,35.2101,-0.0000,-0.0090,0.0005,7.8504,-0.0323,-0.0084,12.9893,10.5860,9.7646,9.5582,-1.9998,7.9998,4.0002,-0.0005,straight,5.45,0.00,3.35,0.00,0.00,0,0.000,1.404,0.000,0.00,26.73,4,200.0000,46.0691,23.3899,15.9996,12.4455,10.4430,9.2374,8.5132,8.1232,4.0002,4.0619,4.2569,4.6190,5.2219,6.2232,8.0004,11.6958,23.0361,200.0000
1.426,0,4155.92,13.36,168.14,1,0.0000,1.0000,0.0000,0.0000,603.6033,529.3524,35.2102,-0.0001,-0.0090,0.0005,4.2295,-0.0275,-0.0102,12.5160,11.2853,9.6878,9.7956,-1.9998,7.9998,4.0002,-0.0005,straight,5.45,0.00,3.28,0.00,0.00,0,0.000,1.424,0.000,0.00,26.73,4,200.0000,46.0691,23.3899,15.9996,12.4455,10.4430,9.2374,8.5132,8.1232,4.0002,4.0619,4.2569,4.6190,5.2219,6.2232,8.0004,11.6958,23.0361,200.0000
1.446,0,4156.00,13.55,173.30,1,0.0000,1.0000,0.0000,0.0000,603.6778,529.3524,35.2103,-0.0001,-0.0091,0.0005,-0.4500,-0.0243,0.0010,12.0821,12.2768,10.1191,10.9386,-1.9998,7.9998,4.0002,-0.0005,straight,5.45,0.00,3.20,0.00,0.00,0,0.000,1.444,0.000,0.00,26.73,4,200.0000,46.0691,23.3899,15.9996,12.4455,10.4430,9.2374,8.5132,8.1232,4.0002,4.0619,4.2569,4.6190,5.2219,6.2232,8.0004,11.6958,23.0361,200.0000
1.466,0,4156.07,13.74,175.31,1,0.0000,1.0000,0.0000,0.0000,603.7535,529.3524,35.2104,-0.0002,-0.0091,0.0005,-3.3744,-0.0072,0.0057,11.5368,13.0929,11.2337,12.0344,-1.9998,7.9998,4.0002,-0.0005,straight,5.45,0.00,3.13,0.00,0.00,0,0.000,1.464,0.000,0.00,26.73,4,200.0000,46.0691,23.3899,15.9996,12.4455,10.4430,9.2374,8.5132,8.1232,4.0002,4.0619,4.2569,4.6190,5.2219,6.2232,8.0004,11.6958,23.0361,200.0000
1.486,0,4156.15,13.93,176.65,1,0.0000,1.0000,0.0000,0.0000,603.8306,529.3524,35.2105,-0.0002,-0.0092,0.0005,-2.3954,-0.0138,0.0006,11.4029,13.6310,12.2483,12.8903,-1.9998,7.9998,4.0002,-0.0005,straight,5.45,0.00,3.05,0.00,0.00,0,0.000,1.484,0.000,0.00,26.73,4,200.0000,46.0691,23.3899,15.9996,12.4455,10.4430,9.2374,8.5132,8.1232,4.0002,4.0619,4.2569,4.6190,5.2219,6.2232,8.0004,11.6958,23.0361,200.0000
1.506,0,4156.22,14.15,179.24,1,0.0000,1.0000,0.0000,0.0000,603.9089,529.3524,35.2106,-0.0002,-0.0092,0.0005,0.5905,0.0123,0.0057,11.5700,13.8729,13.0427,13.1838,-1.9998,7.9998,4.0002,-0.0005,straight,5.45,0.00,2.97,0.00,0.00,0,0.000,1.504,0.000,0.00,26.73,4,200.0000,46.0691,23.3899,15.9996,12.4455,10.4430,9.2374,8.5132,8.1232,4.0002,4.0619,4.2569,4.6190,5.2219,6.2232,8.0004,11.6958,23.0361,200.0000
1.526,0,4156.30,14.38,181.20,1,0.0000,1.0000,0.0000,0.0000,603.9884,529.3524,35.2107,-0.0002,-0.0092,0.0005,4.3255,0.0099,0.0145,12.0699,13.6103,13.3268,12.8592,-1.9998,7.9998,4.0002,-0.0005,straight,5.45,0.00,2.89,0.00,0.00,0,0.000,1.524,0.000,0.00,26.73,4,200.0000,46.0691,23.3899,15.9996,12.4455,10.4430,9.2374,8.5132,8.1232,4.0002,4.0619,4.2569,4.6190,5.2219,6.2232,8.0004,11.6958,23.0361,200.0000
1.546,0,4156.38,14.62,184.36,1,0.0000,1.0000,0.0000,0.0000,604.0692,529.3524,35.2109,-0.0002,-0.0093,0.0005,7.6246,0.0226,0.0169,12.8181,13.2474,13.0205,12.1737,-1.9998,7.9998,4.0002,-0.0005,straight,5.45,0.00,2.81,0.00,0.00,0,0.000,1.544,0.000,0.00,26.73,4,200.0000,46.0691,23.3899,15.9996,12.4455,10.4430,9.2374,8.5132,8.1232,4.0002,4.0619,4.2569,4.6190,5.2219,6.2232,8.0004,11.6958,23.0361,200.0000
1.566,0,4156.46,14.87,187.36,1,0.0000,1.0000,0.0000,0.0000,604.1513,529.3524,35.2110,-0.0002,-0.0093,0.0005,8.9676,0.0124,0.0163,13.5599,12.8802,12.3724,11.6005,-1.9998,7.9998,4.0002,-0.0005,straight,5.45,0.00,2.73,0.00,0.00,0,0.000,1.564,0.000,0.00,26.73,4,200.0000,46.0691,23.3899,15.9996,12.4455,10.4430,9.2374,8.5132,8.1232,4.0002,4.0619,4.2569,4.6190,5.2219,6.2232,8.0004,11.6958,23.0361,200.0000
1.586,0,4156.54,15.11,189.27,1,0.0000,1.0000,0.0000,0.0000,604.2347,529.3524,35.2111,-0.0001,-0.0094,0.0005,7.9308,-0.0045,0.0188,14.0771,12.6874,11.8174,11.3868,-1.9998,7.9998,4.0002,-0.0005,straight,5.45,0.00,2.65,0.00,0.00,0,0.000,1.584,0.000,0.00,26.73,4,200.0000,46.0691,23.3899,15.9996,12.4455,10.4430,9.2374,8.5132,8.1232,4.0002,4.0619,4.2569,4.6190,5.2219,6.2232,8.0004,11.6958,23.0361,200.0000
1.606,0,4156.63,15.34,191.82,1,0.0000,1.0000,0.0000,0.0000,604.3192,529.3524,35.2112,-0.0001,-0.0094,0.0005,5.1676,-0.0034,0.0219,14.3678,12.7980,11.6211,11.5993,-1.9998,7.9998,4.0002,-0.0005,straight,5.45,0.00,2.56,0.00,0.00,0,0.000,1.604,0.000,0.00,26.73,4,200.0000,46.0691,23.3899,15.9996,12.4455,10.4430,9.2374,8.5132,8.1232,4.0002,4.0619,4.2569,4.6190,5.2219,6.2232,8.0004,11.6958,23.0361,200.0000
1.626,0,4156.71,15.57,194.80,1,0.0000,1.0000,0.0000,0.0000,604.4052,529.3524,35.2113,-0.0000,-0.0095,0.0005,1.8949,-0.0038,0.0068,14.3894,13.1597,11.8845,12.3406,-1.9998,7.9998,4.0002,-0.0005,straight,5.45,0.00,2.48,0.00,0.00,0,0.000,1.624,0.000,0.00,26.73,4,200.0000,46.0691,23.3899,15.9996,12.4455,10.4430,9.2374,8.5132,8.1232,4.0002,4.0619,4.2569,4.6190,5.2219,6.2232,8.0004,11.6958,23.0361,200.0000
1.646,0,4156.80,15.78,198.01,1,0.0000,1.0000,0.0000,0.0000,604.4924,529.3524,35.2115,0.0000,-0.0095,0.0005,-0.8100,-0.0001,0.0120,14.3006,13.6630,12.6785,13.2631,-1.9998,7.9998,4.0002,-0.0005,straight,5.45,0.00,2.39,0.00,0.00,0,0.000,1.644,0.000,0.00,26.73,4,200.0000,46.0691,23.3899,15.9996,12.4455,10.4430,9.2374,8.5132,8.1232,4.0002,4.0619,4.2569,4.6190,5.2219,6.2232,8.0004,11.6958,23.0361,200.0000
1.666,0,4156.88,16.01,201.26,1,0.0000,1.0000,0.0000,0.0000,604.5809,529.3524,35.2116,0.0001,-0.0096,0.0005,-1.6875,-0.0061,0.0073,14.2315,14.1781,13.6075,14.0856,-1.9998,7.9998,4.0002,-0.0005,straight,5.45,0.00,2.30,0.00,0.00,0,0.000,1.664,0.000,0.00,26.73,4,200.0000,46.0691,23.3899,15.9996,12.4455,10.4430,9.2374,8.5132,8.1232,4.0002,4.0619,4.2569,4.6190,5.2219,6.2232,8.0004,11.6958,23.0361,200.0000
1.686,0,4156.97,16.24,204.20,1,0.0000,1.0000,0.0000,0.0000,604.6708,529.3524,35.2118,0.0001,-0.0097,0.0005,-0.2004,-0.0061,0.0126,14.2633,14.5857,14.3854,14.6252,-1.9998,7.9998,4.0002,-0.0005,straight,5.45,0.00,2.21,0.00,0.00,0,0.000,1.684,0.000,0.00,26.73,4,200.0000,46.0691,23.3899,15.9996,12.4455,10.4430,9.2374,8.5132,8.1232,4.0002,4.0619,4.2569,4.6190,5.2219,6.2232,8.0004,11.6958,23.0362,200.0000
1.706,0,4157.06,16.49,207.02,1,0.0000,1.0000,0.0000,0.0000,604.7619,529.3524,35.2119,0.0002,-0.0098,0.0005,2.5287,-0.0035,0.0083,14.4212,14.8596,14.8075,14.7921,-1.9998,7.9998,4.0002,-0.0005,straight,5.45,0.00,2.12,0.00,0.00,0,0.000,1.704,0.000,0.00,26.73,5,200.0000,46.0691,23.3899,15.9996,12.4455,10.4430,9.2374,8.5132,8.1232,4.0002,4.0619,4.2569,4.6190,5.2219,6.2232,8.0004,11.6958,23.0362,200.0000
1.726,0,4157.15,16.75,209.95,1,0.0000,1.0000,0.0000,0.0000,604.8544,529.3524,35.2121,0.0002,-0.0099,0.0005,5.4198,-0.0013,0.0072,14.6717,15.0428,14.8010,14.5771,-1.9998,7.9998,4.0002,-0.0005,straight,5.45,0.00,2.03,0.00,0.00,0,0.000,1.724,0.000,0.00,26.73,5,200.0000,46.0691,23.3899,15.9996,12.4455,10.4430,9.2374,8.5132,8.1232,4.0002,4.0619,4.2569,4.6190,5.2219,6.2232,8.0004,11.6958,23.0362,200.0000
1.746,0,4157.25,17.02,213.04,1,0.0000,1.0000,0.0000,0.0000,604.9482,529.3524,35.2123,0.0002,-0.0100,0.0005,7.5874,0.0005,0.0062,14.9511,15.2041,14.4608,14.1987,-1.9998,7.9998,4.0002,-0.0005,straight,5.45,0.00,1.93,0.00,0.00,0,0.000,1.744,0.000,0.00,26.73,5,200.0000,46.0691,23.3899,15.9996,12.4455,10.4430,9.2374,8.5132,8.1232,4.0002,4.0619,4.2569,4.6190,5.2219,6.2232,8.0004,11.6958,23.0362,200.0000
1.766,0,4157.34,17.29,216.34,1,0.0000,1.0000,0.0000,0.0000,605.0435,529.3524,35.2124,0.0002,-0.0101,0.0005,8.0892,-0.0017,0.0088,15.2288,15.3825,14.0959,13.8971,-1.9998,7.9998,4.0002,-0.0005,straight,5.45,0.00,1.84,0.00,0.00,0,0.000,1.764,0.000,0.00,26.73,5,200.0000,46.0691,23.3899,15.9996,12.4455,10.4430,9.2374,8.5132,8.1232,4.0002,4.0619,4.2569,4.6190,5.2219,6.2232,8.0004,11.6958,23.0362,200.0000
1.786,0,4157.44,17.56,219.88,1,0.0000,1.0000,0.0000,0.0000,605.1404,529.3524,35.2126,0.0002,-0.0102,0.0005,6.8502,-0.0020,0.0016,15.5021,15.5936,13.9220,13.8242,-1.9998,7.9998,4.0002,-0.0005,straight,5.45,0.00,1.74,0.00,0.00,0,0.000,1.784,0.000,0.00,26.73,5,200.0000,46.0691,23.3899,15.9996,12.4455,10.4430,9.2374,8.5132,8.1232,4.0002,4.0619,4.2569,4.6190,5.2219,6.2232,8.0004,11.6958,23.0362,200.0000
1.806,0,4157.53,17.82,223.53,1,0.0000,1.0000,0.0000,0.0000,605.2386,529.3524,35.2127,0.0002,-0.0103,0.0005,4.7866,-0.0015,0.0046,15.7713,15.8270,14.0485,14.0532,-1.9998,7.9998,4.0002,-0.0005,straight,5.45,0.00,1.64,0.00,0.00,0,0.000,1.804,0.000,0.00,26.73,5,200.0000,46.0691,23.3899,15.9996,12.4455,10.4430,9.2374,8.5132,8.1232,4.0002,4.0619,4.2569,4.6190,5.2219,6.2232,8.0004,11.6958,23.0362,200.0000
1.826,0,4157.63,18.07,227.28,1,0.0000,1.0000,0.0000,0.0000,605.3382,529.3524,35.2129,0.0002,-0.0104,0.0005,2.7190,-0.0003,0.0108,16.0399,16.0793,14.4787,14.5640,-1.9998,7.9998,4.0002,-0.0005,straight,5.45,0.00,1.54,0.00,0.00,0,0.000,1.824,0.000,0.00,26.73,5,200.0000,46.0691,23.3899,15.9996,12.4455,10.4430,9.2374,8.5132,8.1232,4.0002,4.0619,4.2569,4.6190,5.2219,6.2232,8.0004,11.6958,23.0362,200.0000
1.846,0,4157.73,18.33,231.06,1,0.0000,1.0000,0.0000,0.0000,605.4395,529.3524,35.2130,0.0001,-0.0105,0.0005,1.3110,0.0004,0.0109,16.3151,16.3363,15.0906,15.2040,-1.9998,7.9998,4.0002,-0.0005,straight,5.45,0.00,1.44,0.00,0.00,0,0.000,1.844,0.000,0.00,26.73,5,200.0000,46.0691,23.3899,15.9996,12.4455,10.4430,9.2374,8.5132,8.1232,4.0002,4.0619,4.2569,4.6190,5.2219,6.2232,8.0004,11.6958,23.0362,200.0000
1.866,0,4157.83,18.60,234.53,1,0.0000,1.0000,0.0000,0.0000,605.5421,529.3524,35.2132,0.0000,-0.0107,0.0005,1.0753,-0.0011,0.0123,16.6740,16.4793,15.6971,15.7990,-1.9998,7.9998,4.0002,-0.0005,straight,5.45,0.00,1.34,0.00,0.00,0,0.000,1.864,0.000,0.00,26.73,5,200.0000,46.0691,23.3899,15.9996,12.4455,10.4430,9.2374,8.5132,8.1232,4.0002,4.0619,4.2569,4.6190,5.2219,6.2232,8.0004,11.6958,23.0362,200.0000
1.886,0,4157.93,18.87,238.55,1,0.0000,1.0000,0.0000,0.0000,605.6464,529.3524,35.2134,0.0000,-0.0108,0.0005,1.7620,0.0004,0.0145,16.8871,16.8347,16.1789,16.2387,-1.9998,7.9998,4.0002,-0.0005,straight,5.45,0.00,1.24,0.00,0.00,0,0.000,1.884,0.000,0.00,26.73,5,200.0000,46.0691,23.3899,15.9996,12.4455,10.4430,9.2374,8.5132,8.1232,4.0002,4.0619,4.2569,4.6190,5.2219,6.2232,8.0004,11.6958,23.0362,200.0000
1.906,0,4158.04,19.15,242.35,1,0.0000,1.0000,0.0000,0.0000,605.7521,529.3524,35.2136,-0.0000,-0.0109,0.0005,2.9860,0.0003,0.0199,17.1400,17.1270,16.4837,16.5014,-1.9998,7.9998,4.0002,-0.0005,straight,5.45,0.00,1.13,0.00,0.00,0,0.000,1.904,0.000,0.00,26.73,5,200.0000,46.0691,23.3899,15.9996,12.4455,10.4430,9.2374,8.5132,8.1232,4.0002,4.0619,4.2569,4.6190,5.2219,6.2232,8.0004,11.6958,23.0362,200.0000
1.926,0,4158.14,19.44,246.20,1,0.0000,1.0000,0.0000,0.0000,605.8594,529.3524,35.2138,-0.0000,-0.0111,0.0005,4.1838,0.0005,0.0225,17.4102,17.4038,16.6346,16.6234,-1.9998,7.9998,4.0002,-0.0005,straight,5.45,0.00,1.02,0.00,0.00,0,0.000,1.924,0.000,0.00,26.73,5,200.0000,46.0691,23.3899,15.9996,12.4455,10.4430,9.2374,8.5132,8.1232,4.0002,4.0619,4.2569,4.6190,5.2219,6.2232,8.0004,11.6958,23.0362,200.0000
1.946,0,4158.25,19.73,250.09,1,0.0000,1.0000,0.0000,0.0000,605.9684,529.3524,35.2140,-0.0000,-0.0112,0.0005,5.0208,0.0003,0.0256,17.6902,17.6772,16.7090,16.6860,-1.9998,7.9998,4.0002,-0.0005,straight,5.45,0.00,0.91,0.00,0.00,0,0.000,1.944,0.000,0.00,26.73,5,200.0000,46.0691,23.3899,15.9996,12.4455,10.4430,9.2374,8.5132,8.1232,4.0002,4.0619,4.2569,4.6190,5.2219,6.2232,8.0004,11.6958,23.0362,200.0000
1.966,0,4158.36,20.03,254.15,1,0.0000,1.0000,0.0000,0.0000,606.0789,529.3524,35.2142,-0.0000,-0.0114,0.0005,5.3547,0.0003,0.0120,17.9761,17.9636,16.7903,16.7704,-1.9998,7.9998,4.0002,-0.0005,straight,5.45,0.00,0.80,0.00,0.00,0,0.000,1.964,0.000,0.00,26.73,5,200.0000,46.0691,23.3899,15.9996,12.4455,10.4430,9.2374,8.5132,8.1232,4.0002,4.0619,4.2569,4.6190,5.2219,6.2232,8.0004,11.6958,23.0362,200.0000
1.986,0,4158.47,20.33,258.28,1,0.0000,1.0000,0.0000,0.0000,606.1911,529.3524,35.2144,0.0000,-0.0115,0.0005,5.3138,0.0003,0.0142,18.2642,18.2578,16.9289,16.9176,-1.9998,7.9998,4.0002,-0.0005,straight,5.45,0.00,0.69,0.00,0.00,0,0.000,1.984,0.000,0.00,26.73,5,200.0000,46.0691,23.3899,15.9996,12.4455,10.4430,9.2374,8.5132,8.1232,4.0002,4.0619,4.2569,4.6190,5.2219,6.2232,8.0004,11.6958,23.0362,200.0000
