Time,Lap,DistFromStart,Speed,RPM,Gear,SteerCmd,AccelCmd,BrakeCmd,ClutchCmd,X,Y,Z,Roll,Pitch,Yaw,AccelX,AccelY,AccelZ,WheelSpinVel_FL,WheelSpinVel_FR,WheelSpinVel_RL,WheelSpinVel_RR,ToMiddle,ToLeft,ToRight,AngleToTrack,TrackSegType,SegmentLength,Radius,DistToSegEnd,NextCornerDist,NextCornerRadius,NextCornerDir,LapBestTime,CurrentLapTime,LastLapTime,DamageLevel,FuelLevel,RacePos,TrackSensor1,TrackSensor2,TrackSensor3,TrackSensor4,TrackSensor5,TrackSensor6,TrackSensor7,TrackSensor8,TrackSensor9,TrackSensor10,TrackSensor11,TrackSensor12,TrackSensor13,TrackSensor14,TrackSensor15,TrackSensor16,TrackSensor17,TrackSensor18,TrackSensor19
-0.980,0,0.00,0.06,104.72,0,0.0000,0.0000,1.0000,0.0000,295.0001,18.3330,1.6575,0.0017,0.0034,-0.0001,-0.0202,3.7083,0.4832,0.0000,0.0000,-0.6904,-0.6901,-1.6670,6.6670,3.3330,0.0001,straight,150.00,0.00,55.00,0.00,43.00,-1,0.000,-0.982,0.000,0.00,22.82,4,200.0000,38.3939,19.4931,13.3341,10.3721,8.7032,7.6984,7.0949,6.7699,3.3330,3.3844,3.5469,3.8486,4.3509,5.1852,6.6659,9.7450,19.1938,200.0000
-0.960,0,1705.94,0.06,104.72,0,0.0000,0.0000,0.0000,0.5932,295.0001,18.3330,1.6575,0.0017,0.0034,-0.0001,-0.0202,3.7083,0.4832,0.0000,0.0000,-0.6904,-0.6901,-1.6670,6.6670,3.3330,0.0001,straight,150.00,0.00,55.00,0.00,43.00,-1,0.000,-0.962,0.000,0.00,22.82,4,200.0000,38.3939,19.4931,13.3341,10.3721,8.7032,7.6984,7.0949,6.7699,3.3330,3.3844,3.5469,3.8486,4.3509,5.1852,6.6659,9.7450,19.1938,200.0000
-0.940,0,1705.94,0.06,104.72,0,0.0000,0.0000,0.0000,0.5932,295.0001,18.3330,1.6575,0.0017,0.0034,-0.0001,-0.0202,3.7083,0.4832,0.0000,0.0000,-0.6904,-0.6901,-1.6670,6.6670,3.3330,0.0001,straight,150.00,0.00,55.00,0.00,43.00,-1,0.000,-0.942,0.000,0.00,22.82,4,200.0000,38.3939,19.4931,13.3341,10.3721,8.7032,7.6984,7.0949,6.7699,3.3330,3.3844,3.5469,3.8486,4.3509,5.1852,6.6659,9.7450,19.1938,200.0000
-0.920,0,1705.94,0.06,104.72,0,0.0000,0.0000,0.0000,0.5932,295.0001,18.3330,1.6575,0.0017,0.0034,-0.0001,-0.0202,3.7083,0.4832,0.0000,0.0000,-0.6904,-0.6901,-1.6670,6.6670,3.3330,0.0001,straight,150.00,0.00,55.00,0.00,43.00,-1,0.000,-0.922,0.000,0.00,22.82,4,200.0000,38.3939,19.4931,13.3341,10.3721,8.7032,7.6984,7.0949,6.7699,3.3330,3.3844,3.5469,3.8486,4.3509,5.1852,6.6659,9.7450,19.1938,200.0000
-0.900,0,1705.94,0.06,104.72,0,0.0000,0.0000,0.0000,0.5932,295.0001,18.3330,1.6575,0.0017,0.0034,-0.0001,-0.0202,3.7083,0.4832,0.0000,0.0000,-0.6904,-0.6901,-1.6670,6.6670,3.3330,0.0001,straight,150.00,0.00,55.00,0.00,43.00,-1,0.000,-0.902,0.000,0.00,22.82,4,200.0000,38.3939,19.4931,13.3341,10.3721,8.7032,7.6984,7.0949,6.7699,3.3330,3.3844,3.5469,3.8486,4.3509,5.1852,6.6659,9.7450,19.1938,200.0000
-0.880,0,1705.94,0.06,104.72,0,0.0000,0.0000,0.0000,0.5932,295.0001,18.3330,1.6575,0.0017,0.0034,-0.0001,-0.0202,3.7083,0.4832,0.0000,0.0000,-0.6904,-0.6901,-1.6670,6.6670,3.3330,0.0001,straight,150.00,0.00,55.00,0.00,43.00,-1,0.000,-0.882,0.000,0.00,22.82,4,200.0000,38.3939,19.4931,13.3341,10.3721,8.7032,7.6984,7.0949,6.7699,3.3330,3.3844,3.5469,3.8486,4.3509,5.1852,6.6659,9.7450,19.1938,200.0000
-0.860,0,1705.94,0.06,104.72,0,0.0000,0.0000,0.0000,0.5932,295.0001,18.3330,1.6575,0.0017,0.0034,-0.0001,-0.0202,3.7083,0.4832,0.0000,0.0000,-0.6904,-0.6901,-1.6670,6.6670,3.3330,0.0001,straight,150.00,0.00,55.00,0.00,43.00,-1,0.000,-0.862,0.000,0.00,22.82,4,200.0000,38.3939,19.4931,13.3341,10.3721,8.7032,7.6984,7.0949,6.7699,3.3330,3.3844,3.5469,3.8486,4.3509,5.1852,6.6659,9.7450,19.1938,200.0000
-0.840,0,1705.94,0.06,104.72,0,0.0000,0.0000,0.0000,0.5932,295.0001,18.3330,1.6575,0.0017,0.0034,-0.0001,-0.0202,3.7083,0.4832,0.0000,0.0000,-0.6904,-0.6901,-1.6670,6.6670,3.3330,0.0001,straight,150.00,0.00,55.00,0.00,43.00,-1,0.000,-0.842,0.000,0.00,22.82,4,200.0000,38.3939,19.4931,13.3341,10.3721,8.7032,7.6984,7.0949,6.7699,3.3330,3.3844,3.5469,3.8486,4.3509,5.1852,6.6659,9.7450,19.1938,200.0000
-0.820,0,1705.94,0.06,104.72,0,0.0000,0.0000,0.0000,0.5932,295.0001,18.3330,1.6575,0.0017,0.0034,-0.0001,-0.0202,3.7083,0.4832,0.0000,0.0000,-0.6904,-0.6901,-1.6670,6.6670,3.3330,0.0001,straight,150.00,0.00,55.00,0.00,43.00,-1,0.000,-0.822,0.000,0.00,22.82,4,200.0000,38.3939,19.4931,13.3341,10.3721,8.7032,7.6984,7.0949,6.7699,3.3330,3.3844,3.5469,3.8486,4.3509,5.1852,6.6659,9.7450,19.1938,200.0000
-0.800,0,1705.94,0.06,104.72,0,0.0000,0.0000,0.0000,0.5932,295.0001,18.3330,1.6575,0.0017,0.0034,-0.0001,-0.0202,3.7083,0.4832,0.0000,0.0000,-0.6904,-0.6901,-1.6670,6.6670,3.3330,0.0001,straight,150.00,0.00,55.00,0.00,43.00,-1,0.000,-0.802,0.000,0.00,22.82,4,200.0000,38.3939,19.4931,13.3341,10.3721,8.7032,7.6984,7.0949,6.7699,3.3330,3.3844,3.5469,3.8486,4.3509,5.1852,6.6659,9.7450,19.1938,200.0000
-0.780,0,1705.94,0.06,104.72,0,0.0000,0.0000,0.0000,0.5932,295.0001,18.3330,1.6575,0.0017,0.0034,-0.0001,-0.0202,3.7083,0.4832,0.0000,0.0000,-0.6904,-0.6901,-1.6670,6.6670,3.3330,0.0001,straight,150.00,0.00,55.00,0.00,43.00,-1,0.000,-0.782,0.000,0.00,22.82,4,200.0000,38.3939,19.4931,13.3341,10.3721,8.7032,7.6984,7.0949,6.7699,3.3330,3.3844,3.5469,3.8486,4.3509,5.1852,6.6659,9.7450,19.1938,200.0000
-0.760,0,1705.94,0.06,104.72,0,0.0000,0.0000,0.0000,0.5932,295.0001,18.3330,1.6575,0.0017,0.0034,-0.0001,-0.0202,3.7083,0.4832,0.0000,0.0000,-0.6904,-0.6901,-1.6670,6.6670,3.3330,0.0001,straight,150.00,0.00,55.00,0.00,43.00,-1,0.000,-0.762,0.000,0.00,22.82,4,200.0000,38.3939,19.4931,13.3341,10.3721,8.7032,7.6984,7.0949,6.7699,3.3330,3.3844,3.5469,3.8486,4.3509,5.1852,6.6659,9.7450,19.1938,200.0000
-0.740,0,1705.94,0.06,104.72,0,0.0000,0.0000,0.0000,0.5932,295.0001,18.3330,1.6575,0.0017,0.0034,-0.0001,-0.0202,3.7083,0.4832,0.0000,0.0000,-0.6904,-0.6901,-1.6670,6.6670,3.3330,0.0001,straight,150.00,0.00,55.00,0.00,43.00,-1,0.000,-0.742,0.000,0.00,22.82,4,200.0000,38.3939,19.4931,13.3341,10.3721,8.7032,7.6984,7.0949,6.7699,3.3330,3.3844,3.5469,3.8486,4.3509,5.1852,6.6659,9.7450,19.1938,200.0000
-0.720,0,1705.94,0.06,104.72,0,0.0000,0.0000,0.0000,0.5932,295.0001,18.3330,1.6575,0.0017,0.0034,-0.0001,-0.0202,3.7083,0.4832,0.0000,0.0000,-0.6904,-0.6901,-1.6670,6.6670,3.3330,0.0001,straight,150.00,0.00,55.00,0.00,43.00,-1,0.000,-0.722,0.000,0.00,22.82,4,200.0000,38.3939,19.4931,13.3341,10.3721,8.7032,7.6984,7.0949,6.7699,3.3330,3.3844,3.5469,3.8486,4.3509,5.1852,6.6659,9.7450,19.1938,200.0000
-0.700,0,1705.94,0.06,104.72,0,0.0000,0.0000,0.0000,0.5932,295.0001,18.3330,1.6575,0.0017,0.0034,-0.0001,-0.0202,3.7083,0.4832,0.0000,0.0000,-0.6904,-0.6901,-1.6670,6.6670,3.3330,0.0001,straight,150.00,0.00,55.00,0.00,43.00,-1,0.000,-0.702,0.000,0.00,22.82,4,200.0000,38.3939,19.4931,13.3341,10.3721,8.7032,7.6984,7.0949,6.7699,3.3330,3.3844,3.5469,3.8486,4.3509,5.1852,6.6659,9.7450,19.1938,200.0000
-0.680,0,1705.94,0.06,104.72,0,0.0000,0.0000,0.0000,0.5932,295.0001,18.3330,1.6575,0.0017,0.0034,-0.0001,-0.0202,3.7083,0.4832,0.0000,0.0000,-0.6904,-0.6901,-1.6670,6.6670,3.3330,0.0001,straight,150.00,0.00,55.00,0.00,43.00,-1,0.000,-0.682,0.000,0.00,22.82,4,200.0000,38.3939,19.4931,13.3341,10.3721,8.7032,7.6984,7.0949,6.7699,3.3330,3.3844,3.5469,3.8486,4.3509,5.1852,6.6659,9.7450,19.1938,200.0000
-0.660,0,1705.94,0.06,104.72,0,0.0000,0.0000,0.0000,0.5932,295.0001,18.3330,1.6575,0.0017,0.0034,-0.0001,-0.0202,3.7083,0.4832,0.0000,0.0000,-0.6904,-0.6901,-1.6670,6.6670,3.3330,0.0001,straight,150.00,0.00,55.00,0.00,43.00,-1,0.000,-0.662,0.000,0.00,22.82,4,200.0000,38.3939,19.4931,13.3341,10.3721,8.7032,7.6984,7.0949,6.7699,3.3330,3.3844,3.5469,3.8486,4.3509,5.1852,6.6659,9.7450,19.1938,200.0000
-0.640,0,1705.94,0.06,104.72,0,0.0000,0.0000,0.0000,0.5932,295.0001,18.3330,1.6575,0.0017,0.0034,-0.0001,-0.0202,3.7083,0.4832,0.0000,0.0000,-0.6904,-0.6901,-1.6670,6.6670,3.3330,0.0001,straight,150.00,0.00,55.00,0.00,43.00,-1,0.000,-0.642,0.000,0.00,22.82,4,200.0000,38.3939,19.4931,13.3341,10.3721,8.7032,7.6984,7.0949,6.7699,3.3330,3.3844,3.5469,3.8486,4.3509,5.1852,6.6659,9.7450,19.1938,200.0000
-0.620,0,1705.94,0.06,104.72,0,0.0000,0.0000,0.0000,0.5932,295.0001,18.3330,1.6575,0.0017,0.0034,-0.0001,-0.0202,3.7083,0.4832,0.0000,0.0000,-0.6904,-0.6901,-1.6670,6.6670,3.3330,0.0001,straight,150.00,0.00,55.00,0.00,43.00,-1,0.000,-0.622,0.000,0.00,22.82,4,200.0000,38.3939,19.4931,13.3341,10.3721,8.7032,7.6984,7.0949,6.7699,3.3330,3.3844,3.5469,3.8486,4.3509,5.1852,6.6659,9.7450,19.1938,200.0000
-0.600,0,1705.94,0.06,104.72,0,0.0000,0.0000,0.0000,0.5932,295.0001,18.3330,1.6575,0.0017,0.0034,-0.0001,-0.0202,3.7083,0.4832,0.0000,0.0000,-0.6904,-0.6901,-1.6670,6.6670,3.3330,0.0001,straight,150.00,0.00,55.00,0.00,43.00,-1,0.000,-0.602,0.000,0.00,22.82,4,200.0000,38.3939,19.4931,13.3341,10.3721,8.7032,7.6984,7.0949,6.7699,3.3330,3.3844,3.5469,3.8486,4.3509,5.1852,6.6659,9.7450,19.1938,200.0000
-0.580,0,1705.94,0.06,104.72,0,0.0000,0.0000,0.0000,0.5932,295.0001,18.3330,1.6575,0.0017,0.0034,-0.0001,-0.0202,3.7083,0.4832,0.0000,0.0000,-0.6904,-0.6901,-1.6670,6.6670,3.3330,0.0001,straight,150.00,0.00,55.00,0.00,43.00,-1,0.000,-0.582,0.000,0.00,22.82,4,200.0000,38.3939,19.4931,13.3341,10.3721,8.7032,7.6984,7.0949,6.7699,3.3330,3.3844,3.5469,3.8486,4.3509,5.1852,6.6659,9.7450,19.1938,200.0000
-0.560,0,1705.94,0.06,104.72,0,0.0000,0.0000,0.0000,0.5932,295.0001,18.3330,1.6575,0.0017,0.0034,-0.0001,-0.0202,3.7083,0.4832,0.0000,0.0000,-0.6904,-0.6901,-1.6670,6.6670,3.3330,0.0001,straight,150.00,0.00,55.00,0.00,43.00,-1,0.000,-0.562,0.000,0.00,22.82,4,200.0000,38.3939,19.4931,13.3341,10.3721,8.7032,7.6984,7.0949,6.7699,3.3330,3.3844,3.5469,3.8486,4.3509,5.1852,6.6659,9.7450,19.1938,200.0000
-0.540,0,1705.94,0.06,104.72,0,0.0000,0.0000,0.0000,0.5932,295.0001,18.3330,1.6575,0.0017,0.0034,-0.0001,-0.0202,3.7083,0.4832,0.0000,0.0000,-0.6904,-0.6901,-1.6670,6.6670,3.3330,0.0001,straight,150.00,0.00,55.00,0.00,43.00,-1,0.000,-0.542,0.000,0.00,22.82,4,200.0000,38.3939,19.4931,13.3341,10.3721,8.7032,7.6984,7.0949,6.7699,3.3330,3.3844,3.5469,3.8486,4.3509,5.1852,6.6659,9.7450,19.1938,200.0000
-0.520,0,1705.94,0.06,104.72,0,0.0000,0.0000,0.0000,0.5932,295.0001,18.3330,1.6575,0.0017,0.0034,-0.0001,-0.0202,3.7083,0.4832,0.0000,0.0000,-0.6904,-0.6901,-1.6670,6.6670,3.3330,0.0001,straight,150.00,0.00,55.00,0.00,43.00,-1,0.000,-0.522,0.000,0.00,22.82,4,200.0000,38.3939,19.4931,13.3341,10.3721,8.7032,7.6984,7.0949,6.7699,3.3330,3.3844,3.5469,3.8486,4.3509,5.1852,6.6659,9.7450,19.1938,200.0000
-0.500,0,1705.94,0.06,104.72,0,0.0000,0.0000,0.0000,0.5932,295.0001,18.3330,1.6575,0.0017,0.0034,-0.0001,-0.0202,3.7083,0.4832,0.0000,0.0000,-0.6904,-0.6901,-1.6670,6.6670,3.3330,0.0001,straight,150.00,0.00,55.00,0.00,43.00,-1,0.000,-0.502,0.000,0.00,22.82,4,200.0000,38.3939,19.4931,13.3341,10.3721,8.7032,7.6984,7.0949,6.7699,3.3330,3.3844,3.5469,3.8486,4.3509,5.1852,6.6659,9.7450,19.1938,200.0000
-0.480,0,1705.94,0.06,104.72,0,0.0000,0.0000,0.0000,0.5932,295.0001,18.3330,1.6575,0.0017,0.0034,-0.0001,-0.0202,3.7083,0.4832,0.0000,0.0000,-0.6904,-0.6901,-1.6670,6.6670,3.3330,0.0001,straight,150.00,0.00,55.00,0.00,43.00,-1,0.000,-0.482,0.000,0.00,22.82,4,200.0000,38.3939,19.4931,13.3341,10.3721,8.7032,7.6984,7.0949,6.7699,3.3330,3.3844,3.5469,3.8486,4.3509,5.1852,6.6659,9.7450,19.1938,200.0000
-0.460,0,1705.94,0.06,104.72,0,0.0000,0.0000,0.0000,0.5932,295.0001,18.3330,1.6575,0.0017,0.0034,-0.0001,-0.0202,3.7083,0.4832,0.0000,0.0000,-0.6904,-0.6901,-1.6670,6.6670,3.3330,0.0001,straight,150.00,0.00,55.00,0.00,43.00,-1,0.000,-0.462,0.000,0.00,22.82,4,200.0000,38.3939,19.4931,13.3341,10.3721,8.7032,7.6984,7.0949,6.7699,3.3330,3.3844,3.5469,3.8486,4.3509,5.1852,6.6659,9.7450,19.1938,200.0000
-0.440,0,1705.94,0.06,104.72,0,0.0000,0.0000,0.0000,0.5932,295.0001,18.3330,1.6575,0.0017,0.0034,-0.0001,-0.0202,3.7083,0.4832,0.0000,0.0000,-0.6904,-0.6901,-1.6670,6.6670,3.3330,0.0001,straight,150.00,0.00,55.00,0.00,43.00,-1,0.000,-0.442,0.000,0.00,22.82,4,200.0000,38.3939,19.4931,13.3341,10.3721,8.7032,7.6984,7.0949,6.7699,3.3330,3.3844,3.5469,3.8486,4.3509,5.1852,6.6659,9.7450,19.1938,200.0000
-0.420,0,1705.94,0.06,104.72,0,0.0000,0.0000,0.0000,0.5932,295.0001,18.3330,1.6575,0.0017,0.0034,-0.0001,-0.0202,3.7083,0.4832,0.0000,0.0000,-0.6904,-0.6901,-1.6670,6.6670,3.3330,0.0001,straight,150.00,0.00,55.00,0.00,43.00,-1,0.000,-0.422,0.000,0.00,22.82,4,200.0000,38.3939,19.4931,13.3341,10.3721,8.7032,7.6984,7.0949,6.7699,3.3330,3.3844,3.5469,3.8486,4.3509,5.1852,6.6659,9.7450,19.1938,200.0000
-0.400,0,1705.94,0.06,104.72,0,0.0000,0.0000,0.0000,0.5932,295.0001,18.3330,1.6575,0.0017,0.0034,-0.0001,-0.0202,3.7083,0.4832,0.0000,0.0000,-0.6904,-0.6901,-1.6670,6.6670,3.3330,0.0001,straight,150.00,0.00,55.00,0.00,43.00,-1,0.000,-0.402,0.000,0.00,22.82,4,200.0000,38.3939,19.4931,13.3341,10.3721,8.7032,7.6984,7.0949,6.7699,3.3330,3.3844,3.5469,3.8486,4.3509,5.1852,6.6659,9.7450,19.1938,200.0000
-0.380,0,1705.94,0.06,104.72,0,0.0000,0.0000,0.0000,0.5932,295.0001,18.3330,1.6575,0.0017,0.0034,-0.0001,-0.0202,3.7083,0.4832,0.0000,0.0000,-0.6904,-0.6901,-1.6670,6.6670,3.3330,0.0001,straight,150.00,0.00,55.00,0.00,43.00,-1,0.000,-0.382,0.000,0.00,22.82,4,200.0000,38.3939,19.4931,13.3341,10.3721,8.7032,7.6984,7.0949,6.7699,3.3330,3.3844,3.5469,3.8486,4.3509,5.1852,6.6659,9.7450,19.1938,200.0000
-0.360,0,1705.94,0.06,104.72,0,0.0000,0.0000,0.0000,0.5932,295.0001,18.3330,1.6575,0.0017,0.0034,-0.0001,-0.0202,3.7083,0.4832,0.0000,0.0000,-0.6904,-0.6901,-1.6670,6.6670,3.3330,0.0001,straight,150.00,0.00,55.00,0.00,43.00,-1,0.000,-0.362,0.000,0.00,22.82,4,200.0000,38.3939,19.4931,13.3341,10.3721,8.7032,7.6984,7.0949,6.7699,3.3330,3.3844,3.5469,3.8486,4.3509,5.1852,6.6659,9.7450,19.1938,200.0000
-0.340,0,1705.94,0.06,104.72,0,0.0000,0.0000,0.0000,0.5932,295.0001,18.3330,1.6575,0.0017,0.0034,-0.0001,-0.0202,3.7083,0.4832,0.0000,0.0000,-0.6904,-0.6901,-1.6670,6.6670,3.3330,0.0001,straight,150.00,0.00,55.00,0.00,43.00,-1,0.000,-0.342,0.000,0.00,22.82,4,200.0000,38.3939,19.4931,13.3341,10.3721,8.7032,7.6984,7.0949,6.7699,3.3330,3.3844,3.5469,3.8486,4.3509,5.1852,6.6659,9.7450,19.1938,200.0000
-0.320,0,1705.94,0.06,104.72,0,0.0000,0.0000,0.0000,0.5932,295.0001,18.3330,1.6575,0.0017,0.0034,-0.0001,-0.0202,3.7083,0.4832,0.0000,0.0000,-0.6904,-0.6901,-1.6670,6.6670,3.3330,0.0001,straight,150.00,0.00,55.00,0.00,43.00,-1,0.000,-0.322,0.000,0.00,22.82,4,200.0000,38.3939,19.4931,13.3341,10.3721,8.7032,7.6984,7.0949,6.7699,3.3330,3.3844,3.5469,3.8486,4.3509,5.1852,6.6659,9.7450,19.1938,200.0000
-0.300,0,1705.94,0.06,104.72,0,0.0000,0.0000,0.0000,0.5932,295.0001,18.3330,1.6575,0.0017,0.0034,-0.0001,-0.0202,3.7083,0.4832,0.0000,0.0000,-0.6904,-0.6901,-1.6670,6.6670,3.3330,0.0001,straight,150.00,0.00,55.00,0.00,43.00,-1,0.000,-0.302,0.000,0.00,22.82,4,200.0000,38.3939,19.4931,13.3341,10.3721,8.7032,7.6984,7.0949,6.7699,3.3330,3.3844,3.5469,3.8486,4.3509,5.1852,6.6659,9.7450,19.1938,200.0000
-0.280,0,1705.94,0.06,104.72,0,0.0000,0.0000,0.0000,0.5932,295.0001,18.3330,1.6575,0.0017,0.0034,-0.0001,-0.0202,3.7083,0.4832,0.0000,0.0000,-0.6904,-0.6901,-1.6670,6.6670,3.3330,0.0001,straight,150.00,0.00,55.00,0.00,43.00,-1,0.000,-0.282,0.000,0.00,22.82,4,200.0000,38.3939,19.4931,13.3341,10.3721,8.7032,7.6984,7.0949,6.7699,3.3330,3.3844,3.5469,3.8486,4.3509,5.1852,6.6659,9.7450,19.1938,200.0000
-0.260,0,1705.94,0.06,104.72,0,0.0000,0.0000,0.0000,0.5932,295.0001,18.3330,1.6575,0.0017,0.0034,-0.0001,-0.0202,3.7083,0.4832,0.0000,0.0000,-0.6904,-0.6901,-1.6670,6.6670,3.3330,0.0001,straight,150.00,0.00,55.00,0.00,43.00,-1,0.000,-0.262,0.000,0.00,22.82,4,200.0000,38.3939,19.4931,13.3341,10.3721,8.7032,7.6984,7.0949,6.7699,3.3330,3.3844,3.5469,3.8486,4.3509,5.1852,6.6659,9.7450,19.1938,200.0000
-0.240,0,1705.94,0.06,104.72,0,0.0000,0.0000,0.0000,0.5932,295.0001,18.3330,1.6575,0.0017,0.0034,-0.0001,-0.0202,3.7083,0.4832,0.0000,0.0000,-0.6904,-0.6901,-1.6670,6.6670,3.3330,0.0001,straight,150.00,0.00,55.00,0.00,43.00,-1,0.000,-0.242,0.000,0.00,22.82,4,200.0000,38.3939,19.4931,13.3341,10.3721,8.7032,7.6984,7.0949,6.7699,3.3330,3.3844,3.5469,3.8486,4.3509,5.1852,6.6659,9.7450,19.1938,200.0000
-0.220,0,1705.94,0.06,104.72,0,0.0000,0.0000,0.0000,0.5932,295.0001,18.3330,1.6575,0.0017,0.0034,-0.0001,-0.0202,3.7083,0.4832,0.0000,0.0000,-0.6904,-0.6901,-1.6670,6.6670,3.3330,0.0001,straight,150.00,0.00,55.00,0.00,43.00,-1,0.000,-0.222,0.000,0.00,22.82,4,200.0000,38.3939,19.4931,13.3341,10.3721,8.7032,7.6984,7.0949,6.7699,3.3330,3.3844,3.5469,3.8486,4.3509,5.1852,6.6659,9.7450,19.1938,200.0000
-0.200,0,1705.94,0.06,104.72,0,0.0000,0.0000,0.0000,0.5932,295.0001,18.3330,1.6575,0.0017,0.0034,-0.0001,-0.0202,3.7083,0.4832,0.0000,0.0000,-0.6904,-0.6901,-1.6670,6.6670,3.3330,0.0001,straight,150.00,0.00,55.00,0.00,43.00,-1,0.000,-0.202,0.000,0.00,22.82,4,200.0000,38.3939,19.4931,13.3341,10.3721,8.7032,7.6984,7.0949,6.7699,3.3330,3.3844,3.5469,3.8486,4.3509,5.1852,6.6659,9.7450,19.1938,200.0000
-0.180,0,1705.94,0.06,104.72,0,0.0000,0.0000,0.0000,0.5932,295.0001,18.3330,1.6575,0.0017,0.0034,-0.0001,-0.0202,3.7083,0.4832,0.0000,0.0000,-0.6904,-0.6901,-1.6670,6.6670,3.3330,0.0001,straight,150.00,0.00,55.00,0.00,43.00,-1,0.000,-0.182,0.000,0.00,22.82,4,200.0000,38.3939,19.4931,13.3341,10.3721,8.7032,7.6984,7.0949,6.7699,3.3330,3.3844,3.5469,3.8486,4.3509,5.1852,6.6659,9.7450,19.1938,200.0000
-0.160,0,1705.94,0.06,104.72,0,0.0000,0.0000,0.0000,0.5932,295.0001,18.3330,1.6575,0.0017,0.0034,-0.0001,-0.0202,3.7083,0.4832,0.0000,0.0000,-0.6904,-0.6901,-1.6670,6.6670,3.3330,0.0001,straight,150.00,0.00,55.00,0.00,43.00,-1,0.000,-0.162,0.000,0.00,22.82,4,200.0000,38.3939,19.4931,13.3341,10.3721,8.7032,7.6984,7.0949,6.7699,3.3330,3.3844,3.5469,3.8486,4.3509,5.1852,6.6659,9.7450,19.1938,200.0000
-0.140,0,1705.94,0.06,104.72,0,0.0000,0.0000,0.0000,0.5932,295.0001,18.3330,1.6575,0.0017,0.0034,-0.0001,-0.0202,3.7083,0.4832,0.0000,0.0000,-0.6904,-0.6901,-1.6670,6.6670,3.3330,0.0001,straight,150.00,0.00,55.00,0.00,43.00,-1,0.000,-0.142,0.000,0.00,22.82,4,200.0000,38.3939,19.4931,13.3341,10.3721,8.7032,7.6984,7.0949,6.7699,3.3330,3.3844,3.5469,3.8486,4.3509,5.1852,6.6659,9.7450,19.1938,200.0000
-0.120,0,1705.94,0.06,104.72,0,0.0000,0.0000,0.0000,0.5932,295.0001,18.3330,1.6575,0.0017,0.0034,-0.0001,-0.0202,3.7083,0.4832,0.0000,0.0000,-0.6904,-0.6901,-1.6670,6.6670,3.3330,0.0001,straight,150.00,0.00,55.00,0.00,43.00,-1,0.000,-0.122,0.000,0.00,22.82,4,200.0000,38.3939,19.4931,13.3341,10.3721,8.7032,7.6984,7.0949,6.7699,3.3330,3.3844,3.5469,3.8486,4.3509,5.1852,6.6659,9.7450,19.1938,200.0000
-0.100,0,1705.94,0.06,104.72,0,0.0000,0.0000,0.0000,0.5932,295.0001,18.3330,1.6575,0.0017,0.0034,-0.0001,-0.0202,3.7083,0.4832,0.0000,0.0000,-0.6904,-0.6901,-1.6670,6.6670,3.3330,0.0001,straight,150.00,0.00,55.00,0.00,43.00,-1,0.000,-0.102,0.000,0.00,22.82,4,200.0000,38.3939,19.4931,13.3341,10.3721,8.7032,7.6984,7.0949,6.7699,3.3330,3.3844,3.5469,3.8486,4.3509,5.1852,6.6659,9.7450,19.1938,200.0000
-0.080,0,1705.94,0.06,104.72,0,0.0000,0.0000,0.0000,0.5932,295.0001,18.3330,1.6575,0.0017,0.0034,-0.0001,-0.0202,3.7083,0.4832,0.0000,0.0000,-0.6904,-0.6901,-1.6670,6.6670,3.3330,0.0001,straight,150.00,0.00,55.00,0.00,43.00,-1,0.000,-0.082,0.000,0.00,22.82,4,200.0000,38.3939,19.4931,13.3341,10.3721,8.7032,7.6984,7.0949,6.7699,3.3330,3.3844,3.5469,3.8486,4.3509,5.1852,6.6659,9.7450,19.1938,200.0000
-0.060,0,1705.94,0.06,109.12,0,0.0000,1.0000,0.0000,0.5932,295.0001,18.3330,1.6575,0.0017,0.0034,-0.0001,-0.0202,3.7083,0.4832,0.0000,0.0000,-0.6904,-0.6901,-1.6670,6.6670,3.3330,0.0001,straight,150.00,0.00,55.00,0.00,43.00,-1,0.000,-0.062,0.000,0.00,22.82,4,200.0000,38.3939,19.4931,13.3341,10.3721,8.7032,7.6984,7.0949,6.7699,3.3330,3.3844,3.5469,3.8486,4.3509,5.1852,6.6659,9.7450,19.1938,200.0000
-0.040,0,1705.94,0.06,113.52,0,0.0000,1.0000,0.0000,0.5932,295.0001,18.3330,1.6575,0.0017,0.0034,-0.0001,-0.0202,3.7083,0.4832,0.0000,0.0000,-0.6904,-0.6901,-1.6670,6.6670,3.3330,0.0001,straight,150.00,0.00,55.00,0.00,43.00,-1,0.000,-0.042,0.000,0.00,22.82,4,200.0000,38.3939,19.4931,13.3341,10.3721,8.7032,7.6984,7.0949,6.7699,3.3330,3.3844,3.5469,3.8486,4.3509,5.1852,6.6659,9.7450,19.1938,200.0000
-0.020,0,1705.94,0.06,117.92,0,0.0000,1.0000,0.0000,0.5932,295.0001,18.3330,1.6575,0.0017,0.0034,-0.0001,-0.0202,3.7083,0.4832,0.0000,0.0000,-0.6904,-0.6901,-1.6670,6.6670,3.3330,0.0001,straight,150.00,0.00,55.00,0.00,43.00,-1,0.000,-0.022,0.000,0.00,22.82,4,200.0000,38.3939,19.4931,13.3341,10.3721,8.7032,7.6984,7.0949,6.7699,3.3330,3.3844,3.5469,3.8486,4.3509,5.1852,6.6659,9.7450,19.1938,200.0000
0.020,0,1705.94,-0.03,126.72,0,0.0000,1.0000,0.0000,0.5932,295.0001,18.3330,1.6575,0.0017,0.0030,-0.0001,0.0289,0.0073,0.4154,1.9785,1.8737,1.5413,1.5521,-1.6670,6.6670,3.3330,0.0001,straight,150.00,0.00,55.00,0.00,43.00,-1,0.000,0.018,0.000,0.00,22.82,4,200.0000,38.3939,19.4931,13.3341,10.3721,8.7032,7.6984,7.0949,6.7699,3.3330,3.3844,3.5469,3.8486,4.3509,5.1852,6.6659,9.7450,19.1938,200.0000
0.040,0,1705.94,0.21,104.72,1,0.0000,1.0000,0.0000,0.5932,295.0009,18.3330,1.6576,0.0017,0.0024,-0.0001,-7.2652,-0.0070,0.3323,1.9397,2.1278,-1.4047,-1.3940,-1.6670,6.6670,3.3330,0.0001,straight,150.00,0.00,55.00,0.00,43.00,-1,0.000,0.038,0.000,0.00,22.82,4,200.0000,38.3939,19.4931,13.3341,10.3721,8.7032,7.6984,7.0949,6.7699,3.3330,3.3844,3.5469,3.8486,4.3509,5.1852,6.6659,9.7450,19.1938,200.0000
0.060,0,1705.94,0.44,104.72,1,0.0000,1.0000,0.0000,0.5532,295.0027,18.3330,1.6579,0.0017,0.0017,-0.0001,8.2308,-0.0032,0.2426,0.1384,-0.0666,1.6403,1.6486,-1.6670,6.6670,3.3330,0.0001,straight,150.00,0.00,55.00,0.00,43.00,-1,0.000,0.058,0.000,0.00,22.82,4,200.0000,38.3939,19.4931,13.3341,10.3721,8.7032,7.6984,7.0949,6.7699,3.3330,3.3844,3.5469,3.8486,4.3509,5.1852,6.6659,9.7450,19.1938,200.0000
0.080,0,1705.94,0.62,104.72,1,0.0000,1.0000,0.0000,0.5132,295.0056,18.3330,1.6583,0.0017,0.0009,-0.0001,8.0552,-0.0100,0.1493,2.1602,2.1314,-1.1220,-1.1171,-1.6670,6.6670,3.3330,0.0001,straight,150.00,0.00,54.99,0.00,43.00,-1,0.000,0.078,0.000,0.00,22.82,4,200.0000,38.3939,19.4931,13.3341,10.3721,8.7032,7.6984,7.0949,6.7699,3.3330,3.3844,3.5469,3.8486,4.3509,5.1852,6.6659,9.7450,19.1938,200.0000
0.100,0,1705.95,0.73,104.72,1,0.0000,1.0000,0.0000,0.4732,295.0095,18.3330,1.6588,0.0017,-0.0001,-0.0001,-6.4107,0.0129,0.0585,2.2219,2.2257,2.1082,2.1057,-1.6670,6.6670,3.3330,0.0001,straight,150.00,0.00,54.99,0.00,43.00,-1,0.000,0.098,0.000,0.00,22.82,4,200.0000,38.3939,19.4931,13.3341,10.3721,8.7032,7.6984,7.0949,6.7699,3.3330,3.3844,3.5469,3.8486,4.3509,5.1852,6.6659,9.7450,19.1938,200.0000
0.120,0,1705.95,1.07,104.72,1,0.0000,1.0000,0.0000,0.4332,295.0146,18.3330,1.6592,0.0017,-0.0011,-0.0001,7.5137,-0.0033,-0.0246,0.5305,0.5228,-0.7686,-0.7660,-1.6670,6.6670,3.3330,0.0001,straight,150.00,0.00,54.99,0.00,43.00,-1,0.000,0.118,0.000,0.00,22.82,4,200.0000,38.3939,19.4931,13.3341,10.3721,8.7032,7.6984,7.0949,6.7699,3.3330,3.3844,3.5469,3.8486,4.3509,5.1852,6.6659,9.7450,19.1938,200.0000
0.140,0,1705.96,1.14,104.72,1,0.0000,1.0000,0.0000,0.3932,295.0207,18.3330,1.6597,0.0017,-0.0020,-0.0001,6.9143,-0.0019,-0.0950,2.3845,2.5355,2.4130,2.4084,-1.6670,6.6670,3.3330,0.0001,straight,150.00,0.00,54.98,0.00,43.00,-1,0.000,0.138,0.000,0.00,22.82,4,200.0000,38.3939,19.4931,13.3341,10.3721,8.7032,7.6984,7.0949,6.7699,3.3330,3.3844,3.5469,3.8486,4.3509,5.1852,6.6659,9.7450,19.1938,200.0000
0.160,0,1705.96,1.41,104.72,1,0.0000,1.0000,0.0000,0.3532,295.0279,18.3330,1.6601,0.0017,-0.0029,-0.0001,2.9614,0.0399,-0.1528,0.9160,2.9304,-0.3184,-0.3089,-1.6670,6.6670,3.3330,0.0001,straight,150.00,0.00,54.97,0.00,43.00,-1,0.000,0.158,0.000,0.00,22.82,4,200.0000,38.3939,19.4931,13.3341,10.3721,8.7032,7.6984,7.0949,6.7699,3.3330,3.3844,3.5469,3.8486,4.3509,5.1852,6.6659,9.7450,19.1938,200.0000
0.180,0,1705.97,1.55,104.72,1,0.0000,1.0000,0.0000,0.3132,295.0361,18.3330,1.6604,0.0017,-0.0036,-0.0001,5.8701,0.0747,-0.1932,1.2719,3.0193,2.6527,2.6474,-1.6670,6.6670,3.3330,0.0001,straight,150.00,0.00,54.96,0.00,43.00,-1,0.000,0.178,0.000,0.00,22.82,4,200.0000,38.3939,19.4931,13.3341,10.3721,8.7032,7.6984,7.0949,6.7699,3.3330,3.3844,3.5469,3.8486,4.3509,5.1852,6.6659,9.7450,19.1938,200.0000
0.200,0,1705.98,1.80,104.72,1,0.0000,1.0000,0.0000,0.2732,295.0455,18.3330,1.6607,0.0017,-0.0043,-0.0001,6.5624,0.0926,-0.2189,1.2717,3.4437,0.0103,0.0482,-1.6670,6.6670,3.3330,0.0001,straight,150.00,0.00,54.95,0.00,43.00,-1,0.000,0.198,0.000,0.00,22.82,4,200.0000,38.3939,19.4931,13.3341,10.3721,8.7032,7.6984,7.0949,6.7699,3.3330,3.3844,3.5469,3.8486,4.3509,5.1852,6.6659,9.7450,19.1938,200.0000
0.220,0,1705.99,1.93,104.72,1,0.0000,1.0000,0.0000,0.2332,295.0558,18.3330,1.6609,0.0018,-0.0048,-0.0001,5.6893,0.0716,-0.2282,1.6021,3.4131,2.9225,2.9161,-1.6670,6.6670,3.3330,0.0001,straight,150.00,0.00,54.94,0.00,43.00,-1,0.000,0.218,0.000,0.00,22.82,4,200.0000,38.3939,19.4931,13.3341,10.3721,8.7032,7.6984,7.0949,6.7699,3.3330,3.3844,3.5469,3.8486,4.3509,5.1852,6.6659,9.7450,19.1938,200.0000
0.240,0,1706.00,2.16,104.72,1,0.0000,1.0000,0.0000,0.1932,295.0673,18.3330,1.6609,0.0018,-0.0052,-0.0001,4.8669,0.1214,-0.2246,1.0965,5.3459,0.3890,0.4279,-1.6670,6.6670,3.3330,0.0001,straight,150.00,0.00,54.93,0.00,43.00,-1,0.000,0.238,0.000,0.00,22.82,4,200.0000,38.3939,19.4931,13.3341,10.3721,8.7032,7.6984,7.0949,6.7699,3.3330,3.3844,3.5469,3.8486,4.3509,5.1852,6.6659,9.7450,19.1938,200.0000
0.262,0,1706.01,2.37,104.72,1,0.0000,1.0000,0.0000,0.1532,295.0811,18.3330,1.6609,0.0018,-0.0055,-0.0000,11.2730,0.0896,-0.2055,2.0362,4.6266,1.3729,1.3589,-1.6670,6.6670,3.3330,0.0000,straight,150.00,0.00,54.92,0.00,43.00,-1,0.000,0.260,0.000,0.00,22.82,4,200.0000,38.3939,19.4931,13.3341,10.3721,8.7032,7.6984,7.0949,6.7699,3.3330,3.3844,3.5469,3.8486,4.3509,5.1852,6.6659,9.7450,19.1938,200.0000
0.282,0,1706.02,2.52,104.72,1,0.0000,1.0000,0.0000,0.1132,295.0948,18.3330,1.6609,0.0018,-0.0056,-0.0001,-5.3839,-0.0211,-0.1793,3.4332,2.7123,2.6341,2.6281,-1.6670,6.6670,3.3330,0.0001,straight,150.00,0.00,54.91,0.00,43.00,-1,0.000,0.280,0.000,0.00,22.82,4,200.0000,38.3939,19.4931,13.3341,10.3721,8.7032,7.6984,7.0949,6.7699,3.3330,3.3844,3.5469,3.8486,4.3509,5.1852,6.6659,9.7449,19.1938,200.0000
0.302,0,1706.04,2.78,104.72,1,0.0000,1.0000,0.0000,0.0732,295.1095,18.3330,1.6607,0.0018,-0.0055,-0.0001,10.5668,0.0550,-0.1128,2.7997,2.8606,1.7410,1.7308,-1.6671,6.6671,3.3329,0.0001,straight,150.00,0.00,54.89,0.00,43.00,-1,0.000,0.300,0.000,0.00,22.82,4,200.0000,38.3940,19.4932,13.3341,10.3721,8.7032,7.6984,7.0949,6.7699,3.3329,3.3844,3.5469,3.8486,4.3509,5.1851,6.6659,9.7449,19.1937,200.0000
0.322,0,1706.05,2.92,104.72,1,0.0000,1.0000,0.0000,0.0332,295.1254,18.3330,1.6605,0.0018,-0.0054,-0.0001,-3.6430,0.0482,-0.0720,2.8748,3.4705,2.9156,2.9137,-1.6671,6.6671,3.3329,0.0001,straight,150.00,0.00,54.87,0.00,43.00,-1,0.000,0.320,0.000,0.00,22.82,4,200.0000,38.3941,19.4932,13.3341,10.3721,8.7032,7.6985,7.0949,6.7699,3.3329,3.3844,3.5468,3.8485,4.3508,5.1851,6.6659,9.7448,19.1936,200.0000
0.342,0,1706.07,3.16,104.72,1,0.0000,1.0000,0.0000,0.0000,295.1422,18.3330,1.6603,0.0018,-0.0052,-0.0001,9.8058,0.0338,-0.0247,3.5462,3.1895,2.1130,2.0947,-1.6671,6.6671,3.3329,0.0001,straight,150.00,0.00,54.86,0.00,43.00,-1,0.000,0.340,0.000,0.00,22.82,4,200.0000,38.3942,19.4932,13.3342,10.3721,8.7033,7.6985,7.0950,6.7699,3.3329,3.3843,3.5468,3.8485,4.3508,5.1851,6.6658,9.7448,19.1935,200.0000
0.362,0,1706.08,3.31,104.72,1,0.0000,1.0000,0.0000,0.0000,295.1602,18.3329,1.6600,0.0018,-0.0050,-0.0001,-3.8185,0.0521,0.0011,3.3684,3.5385,3.2190,3.1937,-1.6671,6.6671,3.3329,0.0001,straight,150.00,0.00,54.84,0.00,43.00,-1,0.000,0.360,0.000,0.00,22.82,4,200.0000,38.3943,19.4933,13.3342,10.3722,8.7033,7.6985,7.0950,6.7699,3.3329,3.3843,3.5468,3.8485,4.3508,5.1851,6.6658,9.7448,19.1934,200.0000
0.382,0,1706.10,3.54,104.72,1,0.0000,1.0000,0.0000,0.0000,295.1792,18.3329,1.6598,0.0019,-0.0047,-0.0001,10.1384,0.0820,0.0255,3.3346,4.0995,2.4927,2.4624,-1.6671,6.6671,3.3329,0.0001,straight,150.00,0.00,54.82,0.00,43.00,-1,0.000,0.380,0.000,0.00,22.82,4,200.0000,38.3944,19.4933,13.3342,10.3722,8.7033,7.6985,7.0950,6.7700,3.3329,3.3843,3.5468,3.8485,4.3508,5.1851,6.6658,9.7447,19.1933,200.0000
0.402,0,1706.12,3.69,104.72,1,0.0000,1.0000,0.0000,0.0000,295.1993,18.3329,1.6596,0.0019,-0.0044,-0.0001,-4.0072,0.0315,0.0388,4.4592,3.3800,3.5031,3.4326,-1.6671,6.6671,3.3329,0.0001,straight,150.00,0.00,54.80,0.00,43.00,-1,0.000,0.400,0.000,0.00,22.82,4,200.0000,38.3944,19.4934,13.3342,10.3722,8.7033,7.6985,7.0950,6.7700,3.3329,3.3843,3.5468,3.8485,4.3508,5.1850,6.6658,9.7447,19.1933,200.0000
0.422,0,1706.14,3.92,104.72,1,0.0000,1.0000,0.0000,0.0000,295.2205,18.3329,1.6593,0.0019,-0.0042,-0.0001,8.7926,0.1120,0.0492,5.2550,3.0989,2.9356,2.8766,-1.6671,6.6671,3.3329,0.0001,straight,150.00,0.00,54.78,0.00,43.00,-1,0.000,0.420,0.000,0.00,22.82,4,200.0000,38.3945,19.4934,13.3343,10.3722,8.7033,7.6986,7.0950,6.7700,3.3329,3.3843,3.5468,3.8485,4.3507,5.1850,6.6657,9.7446,19.1932,200.0000
0.442,0,1706.16,4.09,104.72,1,0.0000,1.0000,0.0000,0.0000,295.2428,18.3329,1.6592,0.0019,-0.0039,-0.0001,-1.6198,0.0864,0.0536,5.5502,2.9161,2.9151,3.5580,-1.6671,6.6671,3.3329,0.0001,straight,150.00,0.00,54.76,0.00,43.00,-1,0.000,0.440,0.000,0.00,22.82,4,200.0000,38.3945,19.4934,13.3343,10.3722,8.7033,7.6986,7.0950,6.7700,3.3329,3.3843,3.5468,3.8485,4.3507,5.1850,6.6657,9.7446,19.1932,200.0000
0.462,0,1706.18,4.26,104.72,1,0.0000,1.0000,0.0000,0.0000,295.2661,18.3329,1.6590,0.0019,-0.0036,-0.0001,-0.9148,-0.0544,0.0556,5.8558,2.9120,4.8342,4.7098,-1.6671,6.6671,3.3329,0.0001,straight,150.00,0.00,54.73,0.00,43.00,-1,0.000,0.460,0.000,0.00,22.82,4,200.0000,38.3945,19.4934,13.3343,10.3722,8.7033,7.6986,7.0950,6.7700,3.3329,3.3843,3.5468,3.8485,4.3507,5.1850,6.6657,9.7446,19.1932,200.0000
0.482,0,1706.21,4.47,104.72,1,0.0000,1.0000,0.0000,0.0000,295.2904,18.3329,1.6588,0.0019,-0.0034,-0.0001,5.5954,0.0201,0.0531,5.7088,3.2673,5.1930,4.1923,-1.6671,6.6671,3.3329,0.0001,straight,150.00,0.00,54.71,0.00,43.00,-1,0.000,0.480,0.000,0.00,22.82,4,200.0000,38.3946,19.4934,13.3343,10.3722,8.7033,7.6986,7.0950,6.7700,3.3329,3.3843,3.5467,3.8484,4.3507,5.1850,6.6657,9.7446,19.1931,200.0000
0.504,0,1706.23,4.72,104.72,1,0.0000,1.0000,0.0000,0.0000,295.3185,18.3329,1.6587,0.0019,-0.0032,-0.0001,3.5278,0.0153,0.0472,4.1616,5.1924,2.6897,2.6640,-1.6672,6.6672,3.3328,0.0001,straight,150.00,0.00,54.68,0.00,43.00,-1,0.000,0.502,0.000,0.00,22.82,4,200.0000,38.3946,19.4935,13.3343,10.3723,8.7034,7.6986,7.0950,6.7700,3.3328,3.3843,3.5467,3.8484,4.3507,5.1850,6.6657,9.7446,19.1931,200.0000
0.524,0,1706.26,4.86,104.72,1,0.0000,1.0000,0.0000,0.0000,295.3452,18.3329,1.6586,0.0018,-0.0030,-0.0001,-3.7132,-0.0376,0.0412,4.0574,6.0195,4.1800,4.3434,-1.6672,6.6672,3.3328,0.0001,straight,150.00,0.00,54.65,0.00,43.00,-1,0.000,0.522,0.000,0.00,22.82,4,200.0000,38.3946,19.4935,13.3343,10.3723,8.7034,7.6986,7.0950,6.7700,3.3328,3.3843,3.5467,3.8484,4.3507,5.1850,6.6657,9.7446,19.1931,200.0000
0.544,0,1706.29,5.04,104.72,1,0.0000,1.0000,0.0000,0.0000,295.3729,18.3329,1.6585,0.0018,-0.0029,-0.0001,0.2989,0.0288,0.0343,3.9735,6.2804,5.4560,5.3773,-1.6672,6.6672,3.3328,0.0001,straight,150.00,0.00,54.63,0.00,43.00,-1,0.000,0.542,0.000,0.00,22.82,4,200.0000,38.3947,19.4935,13.3343,10.3723,8.7034,7.6986,7.0951,6.7700,3.3328,3.3842,3.5467,3.8484,4.3507,5.1850,6.6657,9.7445,19.1930,200.0000
0.564,0,1706.31,5.25,104.72,1,0.0000,1.0000,0.0000,0.0000,295.4017,18.3329,1.6584,0.0018,-0.0028,-0.0001,5.6940,-0.0405,0.0280,3.9376,6.6147,5.8478,5.0200,-1.6672,6.6672,3.3328,0.0001,straight,150.00,0.00,54.60,0.00,43.00,-1,0.000,0.562,0.000,0.00,22.82,4,200.0000,38.3947,19.4935,13.3344,10.3723,8.7034,7.6986,7.0951,6.7700,3.3328,3.3842,3.5467,3.8484,4.3507,5.1849,6.6656,9.7445,19.1929,200.0000
0.584,0,1706.34,5.48,104.72,1,0.0000,1.0000,0.0000,0.0000,295.4316,18.3329,1.6584,0.0018,-0.0027,-0.0001,9.7158,-0.0010,0.0212,4.3840,6.3963,4.4449,4.2779,-1.6672,6.6672,3.3328,0.0001,straight,150.00,0.00,54.57,0.00,43.00,-1,0.000,0.582,0.000,0.00,22.82,4,200.0000,38.3947,19.4935,13.3344,10.3723,8.7034,7.6986,7.0951,6.7700,3.3328,3.3842,3.5467,3.8484,4.3507,5.1849,6.6656,9.7445,19.1929,200.0000
0.604,0,1706.37,5.69,104.72,1,0.0000,1.0000,0.0000,0.0000,295.4626,18.3329,1.6583,0.0018,-0.0026,-0.0001,7.4471,0.0803,0.0133,4.9001,6.0698,3.5177,3.4989,-1.6672,6.6672,3.3328,0.0001,straight,150.00,0.00,54.54,0.00,43.00,-1,0.000,0.602,0.000,0.00,22.82,4,200.0000,38.3948,19.4936,13.3344,10.3723,8.7034,7.6986,7.0951,6.7700,3.3328,3.3842,3.5467,3.8484,4.3507,5.1849,6.6656,9.7445,19.1929,200.0000
0.624,0,1706.40,5.88,104.72,1,0.0000,1.0000,0.0000,0.0000,295.4947,18.3329,1.6583,0.0018,-0.0025,-0.0001,2.3229,0.0196,0.0099,5.5598,5.8097,3.4960,3.5187,-1.6672,6.6672,3.3328,0.0001,straight,150.00,0.00,54.51,0.00,43.00,-1,0.000,0.622,0.000,0.00,22.82,4,200.0000,38.3948,19.4936,13.3344,10.3723,8.7034,7.6986,7.0951,6.7700,3.3328,3.3842,3.5467,3.8484,4.3507,5.1849,6.6656,9.7445,19.1929,200.0000
0.644,0,1706.44,6.03,104.72,1,0.0000,1.0000,0.0000,0.0000,295.5277,18.3329,1.6582,0.0017,-0.0025,-0.0001,-2.8060,0.0141,0.0062,6.3690,5.3619,5.1766,4.9239,-1.6672,6.6672,3.3328,0.0001,straight,150.00,0.00,54.47,0.00,43.00,-1,0.000,0.642,0.000,0.00,22.82,4,200.0000,38.3948,19.4936,13.3344,10.3723,8.7034,7.6986,7.0951,6.7700,3.3328,3.3842,3.5467,3.8484,4.3507,5.1849,6.6656,9.7445,19.1929,200.0000
0.664,0,1706.47,6.20,104.72,1,0.0000,1.0000,0.0000,0.0000,295.5619,18.3328,1.6582,0.0017,-0.0025,-0.0001,-2.4174,0.0178,-0.0009,6.8918,5.0762,6.4141,5.9483,-1.6672,6.6672,3.3328,0.0001,straight,150.00,0.00,54.44,0.00,43.00,-1,0.000,0.662,0.000,0.00,22.82,4,200.0000,38.3948,19.4936,13.3344,10.3723,8.7034,7.6986,7.0951,6.7700,3.3328,3.3842,3.5467,3.8484,4.3507,5.1849,6.6656,9.7445,19.1929,200.0000
0.684,0,1706.50,6.40,104.72,1,0.0000,1.0000,0.0000,0.0000,295.5972,18.3328,1.6581,0.0017,-0.0024,-0.0001,2.4577,-0.0306,-0.0058,7.3696,5.0018,6.6692,6.5268,-1.6672,6.6672,3.3328,0.0001,straight,150.00,0.00,54.40,0.00,43.00,-1,0.000,0.682,0.000,0.00,22.82,4,200.0000,38.3948,19.4936,13.3344,10.3723,8.7034,7.6986,7.0951,6.7700,3.3328,3.3842,3.5467,3.8484,4.3507,5.1849,6.6656,9.7445,19.1929,200.0000
0.704,0,1706.54,6.62,104.72,1,0.0000,1.0000,0.0000,0.0000,295.6335,18.3328,1.6581,0.0016,-0.0024,-0.0001,7.1748,0.0197,-0.0097,7.3687,5.1897,5.7159,6.2771,-1.6672,6.6672,3.3328,0.0001,straight,150.00,0.00,54.37,0.00,43.00,-1,0.000,0.702,0.000,0.00,22.82,4,200.0000,38.3948,19.4936,13.3344,10.3723,8.7034,7.6986,7.0951,6.7700,3.3328,3.3842,3.5467,3.8484,4.3507,5.1849,6.6656,9.7445,19.1928,200.0000
0.724,0,1706.58,6.84,104.72,1,0.0000,1.0000,0.0000,0.0000,295.6709,18.3328,1.6580,0.0016,-0.0024,-0.0001,9.6450,0.0022,-0.0126,7.1072,5.6420,4.9388,5.4073,-1.6672,6.6672,3.3328,0.0001,straight,150.00,0.00,54.33,0.00,43.00,-1,0.000,0.722,0.000,0.00,22.82,4,200.0000,38.3949,19.4936,13.3344,10.3723,8.7034,7.6986,7.0951,6.7701,3.3328,3.3842,3.5467,3.8484,4.3507,5.1849,6.6656,9.7445,19.1928,200.0000
0.744,0,1706.61,7.04,104.72,1,0.0000,1.0000,0.0000,0.0000,295.7093,18.3328,1.6580,0.0015,-0.0024,-0.0001,6.1523,-0.0306,-0.0103,6.9598,6.1202,4.6492,4.7562,-1.6672,6.6672,3.3328,0.0001,straight,150.00,0.00,54.29,0.00,43.00,-1,0.000,0.742,0.000,0.00,22.82,4,200.0000,38.3949,19.4936,13.3344,10.3723,8.7034,7.6986,7.0951,6.7701,3.3328,3.3842,3.5467,3.8484,4.3507,5.1849,6.6656,9.7445,19.1928,200.0000
0.764,0,1706.65,7.23,104.72,1,0.0000,1.0000,0.0000,0.0000,295.7488,18.3328,1.6579,0.0015,-0.0024,-0.0001,1.7123,-0.0047,-0.0077,6.7106,6.7870,4.8489,4.8057,-1.6672,6.6672,3.3328,0.0001,straight,150.00,0.00,54.25,0.00,43.00,-1,0.000,0.762,0.000,0.00,22.82,4,200.0000,38.3949,19.4936,13.3344,10.3723,8.7034,7.6986,7.0951,6.7701,3.3328,3.3842,3.5467,3.8484,4.3507,5.1849,6.6656,9.7445,19.1928,200.0000
0.784,0,1706.69,7.38,104.72,1,0.0000,1.0000,0.0000,0.0000,295.7893,18.3328,1.6578,0.0014,-0.0024,-0.0001,-2.6037,-0.0190,-0.0093,6.3392,7.5109,6.1662,6.0549,-1.6672,6.6672,3.3328,0.0001,straight,150.00,0.00,54.21,0.00,43.00,-1,0.000,0.782,0.000,0.00,22.82,4,200.0000,38.3949,19.4936,13.3344,10.3723,8.7034,7.6986,7.0951,6.7701,3.3328,3.3842,3.5467,3.8484,4.3507,5.1849,6.6656,9.7445,19.1928,200.0000
0.804,0,1706.73,7.56,104.72,1,0.0000,1.0000,0.0000,0.0000,295.8310,18.3328,1.6578,0.0013,-0.0024,-0.0001,-3.1238,-0.0000,-0.0126,6.2783,7.9041,7.1424,7.0578,-1.6672,6.6672,3.3328,0.0001,straight,150.00,0.00,54.17,0.00,43.00,-1,0.000,0.802,0.000,0.00,22.82,4,200.0000,38.3949,19.4936,13.3344,10.3723,8.7034,7.6986,7.0951,6.7701,3.3328,3.3842,3.5467,3.8484,4.3507,5.1849,6.6656,9.7445,19.1928,200.0000
0.824,0,1706.77,7.75,104.72,1,0.0000,1.0000,0.0000,0.0000,295.8737,18.3328,1.6577,0.0012,-0.0024,-0.0001,0.9536,0.0183,-0.0157,6.2997,8.2559,7.6602,7.5987,-1.6672,6.6672,3.3328,0.0001,straight,150.00,0.00,54.13,0.00,43.00,-1,0.000,0.822,0.000,0.00,22.82,4,200.0000,38.3949,19.4936,13.3344,10.3723,8.7034,7.6986,7.0951,6.7701,3.3328,3.3842,3.5467,3.8484,4.3507,5.1849,6.6656,9.7445,19.1928,200.0000
0.844,0,1706.82,7.95,104.72,1,0.0000,1.0000,0.0000,0.0000,295.9175,18.3328,1.6576,0.0012,-0.0024,-0.0001,4.7117,-0.0061,-0.0116,6.5663,8.2191,7.6653,7.5867,-1.6672,6.6672,3.3328,0.0001,straight,150.00,0.00,54.08,0.00,43.00,-1,0.000,0.842,0.000,0.00,22.82,4,200.0000,38.3949,19.4936,13.3344,10.3723,8.7034,7.6986,7.0951,6.7701,3.3328,3.3842,3.5467,3.8484,4.3507,5.1849,6.6656,9.7445,19.1928,200.0000
0.864,0,1706.86,8.18,105.27,1,0.0000,1.0000,0.0000,0.0000,295.9624,18.3328,1.6575,0.0011,-0.0024,-0.0001,8.3071,0.0009,-0.0109,6.9945,7.9671,6.8089,6.8219,-1.6672,6.6672,3.3328,0.0001,straight,150.00,0.00,54.04,0.00,43.00,-1,0.000,0.862,0.000,0.00,22.82,4,200.0000,38.3949,19.4936,13.3344,10.3723,8.7034,7.6986,7.0951,6.7701,3.3328,3.3842,3.5467,3.8484,4.3507,5.1849,6.6656,9.7445,19.1928,200.0000
0.884,0,1706.90,8.39,108.66,1,0.0000,1.0000,0.0000,0.0000,296.0085,18.3328,1.6574,0.0010,-0.0024,-0.0001,8.4703,0.0125,-0.0097,7.5698,7.7498,6.1308,6.2214,-1.6672,6.6672,3.3328,0.0001,straight,150.00,0.00,53.99,0.00,43.00,-1,0.000,0.882,0.000,0.00,22.82,4,200.0000,38.3949,19.4936,13.3344,10.3723,8.7034,7.6986,7.0951,6.7701,3.3328,3.3842,3.5467,3.8484,4.3507,5.1849,6.6656,9.7445,19.1928,200.0000
0.904,0,1706.95,8.58,110.97,1,0.0000,1.0000,0.0000,0.0000,296.0555,18.3328,1.6573,0.0008,-0.0024,-0.0001,5.0205,0.0090,-0.0084,8.1361,7.4630,6.0080,6.0710,-1.6672,6.6672,3.3328,0.0001,straight,150.00,0.00,53.94,0.00,43.00,-1,0.000,0.902,0.000,0.00,22.82,4,200.0000,38.3949,19.4936,13.3344,10.3723,8.7034,7.6986,7.0951,6.7701,3.3328,3.3842,3.5467,3.8484,4.3507,5.1849,6.6656,9.7445,19.1928,200.0000
0.924,0,1707.00,8.77,112.60,1,0.0000,1.0000,0.0000,0.0000,296.1036,18.3328,1.6572,0.0007,-0.0025,-0.0001,1.8202,0.0206,-0.0079,8.6053,7.2908,6.3846,6.2808,-1.6672,6.6672,3.3328,0.0001,straight,150.00,0.00,53.90,0.00,43.00,-1,0.000,0.922,0.000,0.00,22.82,4,200.0000,38.3949,19.4936,13.3344,10.3723,8.7034,7.6986,7.0951,6.7701,3.3328,3.3842,3.5467,3.8484,4.3507,5.1849,6.6656,9.7445,19.1928,200.0000
0.944,0,1707.05,8.93,114.58,1,0.0000,1.0000,0.0000,0.0000,296.1528,18.3328,1.6571,0.0006,-0.0025,-0.0001,-1.2963,0.0080,-0.0069,8.8990,7.3540,7.4682,7.2062,-1.6672,6.6672,3.3328,0.0001,straight,150.00,0.00,53.85,0.00,43.00,-1,0.000,0.942,0.000,0.00,22.82,4,200.0000,38.3949,19.4936,13.3344,10.3723,8.7034,7.6986,7.0951,6.7701,3.3328,3.3842,3.5467,3.8484,4.3507,5.1849,6.6656,9.7445,19.1928,200.0000
0.964,0,1707.09,9.11,117.16,1,0.0000,1.0000,0.0000,0.0000,296.2030,18.3328,1.6570,0.0004,-0.0025,-0.0001,-2.2350,0.0024,-0.0084,8.9352,7.6363,8.3718,8.0157,-1.6672,6.6672,3.3328,0.0001,straight,150.00,0.00,53.80,0.00,43.00,-1,0.000,0.962,0.000,0.00,22.82,4,200.0000,38.3949,19.4936,13.3344,10.3723,8.7034,7.6986,7.0951,6.7701,3.3328,3.3842,3.5467,3.8484,4.3507,5.1849,6.6656,9.7445,19.1928,200.0000
0.984,0,1707.14,9.30,119.58,1,0.0000,1.0000,0.0000,0.0000,296.2543,18.3328,1.6569,0.0003,-0.0025,-0.0001,0.0829,-0.0146,-0.0087,8.8131,8.0626,8.8417,8.7039,-1.6672,6.6672,3.3328,0.0001,straight,150.00,0.00,53.75,0.00,43.00,-1,0.000,0.982,0.000,0.00,22.82,4,200.0000,38.3949,19.4936,13.3344,10.3723,8.7034,7.6986,7.0951,6.7701,3.3328,3.3842,3.5467,3.8484,4.3507,5.1849,6.6656,9.7445,19.1928,200.0000
1.006,0,1707.20,9.55,121.53,1,0.0000,1.0000,0.0000,0.0000,296.3120,18.3328,1.6568,0.0001,-0.0025,-0.0001,7.9365,-0.0111,-0.0095,8.0133,9.2461,7.5279,7.9644,-1.6672,6.6672,3.3328,0.0001,straight,150.00,0.00,53.69,0.00,43.00,-1,0.000,1.004,0.000,0.00,22.82,4,200.0000,38.3949,19.4936,13.3344,10.3723,8.7034,7.6986,7.0951,6.7701,3.3328,3.3842,3.5467,3.8484,4.3507,5.1849,6.6656,9.7445,19.1928,200.0000
1.026,0,1707.25,9.60,114.28,1,0.0000,0.2000,0.0000,0.0000,296.3652,18.3328,1.6567,-0.0000,-0.0024,-0.0001,4.8942,0.0424,-0.0039,7.5263,8.6733,7.0809,7.4114,-1.6672,6.6672,3.3328,0.0001,straight,150.00,0.00,53.63,0.00,43.00,-1,0.000,1.024,0.000,0.00,22.82,4,200.0000,38.3949,19.4936,13.3344,10.3723,8.7034,7.6986,7.0951,6.7701,3.3328,3.3842,3.5467,3.8484,4.3507,5.1849,6.6656,9.7445,19.1928,200.0000
1.046,0,1707.31,9.66,121.32,1,0.0000,0.4000,0.0000,0.0000,296.4186,18.3328,1.6566,-0.0002,-0.0022,-0.0001,2.6498,0.0427,0.0008,8.6531,8.4368,7.0649,7.1151,-1.6672,6.6672,3.3328,0.0001,straight,150.00,0.00,53.58,0.00,43.00,-1,0.000,1.044,0.000,0.00,22.82,4,200.0000,38.3949,19.4936,13.3344,10.3723,8.7034,7.6986,7.0951,6.7701,3.3328,3.3842,3.5467,3.8484,4.3507,5.1849,6.6656,9.7445,19.1928,200.0000
1.066,0,1707.36,9.75,123.88,1,0.0000,0.6000,0.0000,0.0000,296.4724,18.3328,1.6565,-0.0003,-0.0019,-0.0001,0.0863,0.0338,0.0032,9.4276,7.9028,7.6943,7.1902,-1.6672,6.6672,3.3328,0.0001,straight,150.00,0.00,53.53,0.00,43.00,-1,0.000,1.064,0.000,0.00,22.82,4,200.0000,38.3949,19.4936,13.3344,10.3723,8.7034,7.6986,7.0951,6.7701,3.3328,3.3842,3.5467,3.8484,4.3507,5.1849,6.6656,9.7445,19.1928,200.0000
1.086,0,1707.41,9.88,125.79,1,0.0000,0.8000,0.0000,0.0000,296.5270,18.3328,1.6563,-0.0005,-0.0017,-0.0001,-1.1965,0.0115,0.0050,9.7555,7.9911,8.4847,7.7342,-1.6672,6.6672,3.3328,0.0001,straight,150.00,0.00,53.47,0.00,43.00,-1,0.000,1.084,0.000,0.00,22.82,4,200.0000,38.3949,19.4936,13.3344,10.3723,8.7034,7.6986,7.0951,6.7701,3.3328,3.3842,3.5467,3.8484,4.3507,5.1849,6.6656,9.7445,19.1928,200.0000
1.106,0,1707.47,10.06,128.54,1,0.0000,1.0000,0.0000,0.0000,296.5824,18.3328,1.6562,-0.0006,-0.0015,-0.0001,-1.0405,0.0061,0.0027,9.7455,8.4361,9.1748,8.4881,-1.6672,6.6672,3.3328,0.0001,straight,150.00,0.00,53.42,0.00,43.00,-1,0.000,1.104,0.000,0.00,22.82,4,200.0000,38.3949,19.4936,13.3344,10.3723,8.7034,7.6986,7.0951,6.7701,3.3328,3.3842,3.5467,3.8484,4.3507,5.1849,6.6656,9.7445,19.1928,200.0000
1.126,0,1707.52,10.25,130.46,1,0.0000,1.0000,0.0000,0.0000,296.6390,18.3328,1.6561,-0.0008,-0.0015,-0.0001,0.2943,0.0006,-0.0062,9.8922,8.6065,9.4982,9.1758,-1.6672,6.6672,3.3328,0.0001,straight,150.00,0.00,53.36,0.00,43.00,-1,0.000,1.124,0.000,0.00,22.82,4,200.0000,38.3949,19.4936,13.3344,10.3723,8.7034,7.6986,7.0951,6.7701,3.3328,3.3842,3.5467,3.8484,4.3507,5.1849,6.6656,9.7445,19.1928,200.0000
1.146,0,1707.58,10.44,132.54,1,0.0000,1.0000,0.0000,0.0000,296.6966,18.3328,1.6560,-0.0009,-0.0015,-0.0001,2.5476,-0.0035,-0.0122,9.8351,8.9350,9.4561,9.5986,-1.6672,6.6672,3.3328,0.0001,straight,150.00,0.00,53.30,0.00,43.00,-1,0.000,1.144,0.000,0.00,22.82,4,200.0000,38.3949,19.4936,13.3344,10.3723,8.7034,7.6986,7.0951,6.7701,3.3328,3.3842,3.5467,3.8484,4.3507,5.1849,6.6656,9.7445,19.1928,200.0000
1.166,0,1707.64,10.65,134.81,1,0.0000,1.0000,0.0000,0.0000,296.7554,18.3328,1.6559,-0.0010,-0.0016,-0.0001,4.8518,-0.0066,-0.0199,9.7047,9.3610,9.0700,9.6791,-1.6672,6.6672,3.3328,0.0001,straight,150.00,0.00,53.24,0.00,43.00,-1,0.000,1.164,0.000,0.00,22.82,4,200.0000,38.3949,19.4936,13.3344,10.3723,8.7034,7.6986,7.0951,6.7701,3.3328,3.3842,3.5467,3.8484,4.3507,5.1849,6.6656,9.7445,19.1928,200.0000
1.186,0,1707.70,10.85,137.05,1,0.0000,1.0000,0.0000,0.0000,296.8152,18.3328,1.6558,-0.0012,-0.0018,-0.0001,6.4176,-0.0096,-0.0248,9.6010,9.7702,8.6967,9.3701,-1.6672,6.6672,3.3328,0.0001,straight,150.00,0.00,53.18,0.00,43.00,-1,0.000,1.184,0.000,0.00,22.82,4,200.0000,38.3949,19.4936,13.3344,10.3723,8.7034,7.6986,7.0951,6.7701,3.3328,3.3842,3.5467,3.8484,4.3507,5.1849,6.6656,9.7445,19.1928,200.0000
1.206,0,1707.76,11.06,139.05,1,0.0000,1.0000,0.0000,0.0000,296.8760,18.3328,1.6556,-0.0013,-0.0020,-0.0001,6.5148,0.0038,-0.0278,9.5964,10.0692,8.4872,8.9829,-1.6672,6.6672,3.3328,0.0001,straight,150.00,0.00,53.12,0.00,43.00,-1,0.000,1.204,0.000,0.00,22.82,4,200.0000,38.3949,19.4936,13.3344,10.3723,8.7034,7.6986,7.0951,6.7701,3.3328,3.3842,3.5467,3.8484,4.3507,5.1849,6.6656,9.7445,19.1928,200.0000
1.226,0,1707.82,11.25,141.24,1,0.0000,1.0000,0.0000,0.0000,296.9380,18.3328,1.6555,-0.0014,-0.0023,-0.0001,5.1345,0.0041,-0.0321,9.7228,10.2533,8.5534,8.7202,-1.6672,6.6672,3.3328,0.0001,straight,150.00,0.00,53.06,0.00,43.00,-1,0.000,1.224,0.000,0.00,22.82,4,200.0000,38.3949,19.4936,13.3344,10.3723,8.7034,7.6986,7.0951,6.7701,3.3328,3.3842,3.5467,3.8484,4.3507,5.1849,6.6656,9.7445,19.1928,200.0000
1.246,0,1707.88,11.44,143.68,1,0.0000,1.0000,0.0000,0.0000,297.0010,18.3328,1.6553,-0.0015,-0.0026,-0.0001,3.0330,0.0024,-0.0374,9.9454,10.3596,8.9225,8.7424,-1.6672,6.6672,3.3328,0.0001,straight,150.00,0.00,53.00,0.00,43.00,-1,0.000,1.244,0.000,0.00,22.82,4,200.0000,38.3949,19.4936,13.3344,10.3723,8.7034,7.6986,7.0951,6.7701,3.3328,3.3842,3.5467,3.8484,4.3507,5.1849,6.6656,9.7445,19.1928,200.0000
1.266,0,1707.94,11.62,146.24,1,0.0000,1.0000,0.0000,0.0000,297.0651,18.3328,1.6552,-0.0016,-0.0029,-0.0001,0.9836,-0.0007,-0.0441,10.2019,10.4518,9.5192,9.1062,-1.6672,6.6672,3.3328,0.0001,straight,150.00,0.00,52.93,0.00,43.00,-1,0.000,1.264,0.000,0.00,22.82,4,200.0000,38.3949,19.4936,13.3344,10.3723,8.7034,7.6986,7.0951,6.7701,3.3328,3.3842,3.5467,3.8484,4.3507,5.1849,6.6656,9.7445,19.1928,200.0000
1.286,0,1708.01,11.80,148.79,1,0.0000,1.0000,0.0000,0.0000,297.1302,18.3328,1.6550,-0.0017,-0.0032,-0.0001,-0.2900,-0.0013,-0.0499,10.4439,10.5686,10.1059,9.7367,-1.6672,6.6672,3.3328,0.0001,straight,150.00,0.00,52.87,0.00,43.00,-1,0.000,1.284,0.000,0.00,22.82,4,200.0000,38.3949,19.4936,13.3344,10.3723,8.7034,7.6986,7.0951,6.7701,3.3328,3.3842,3.5467,3.8484,4.3507,5.1849,6.6656,9.7445,19.1928,200.0000
1.306,0,1708.07,11.98,151.24,1,0.0000,1.0000,0.0000,0.0000,297.1964,18.3328,1.6547,-0.0018,-0.0035,-0.0001,-0.1589,0.0016,-0.0554,10.6529,10.7160,10.5680,10.3575,-1.6672,6.6672,3.3328,0.0001,straight,150.00,0.00,52.80,0.00,43.00,-1,0.000,1.304,0.000,0.00,22.82,4,200.0000,38.3949,19.4936,13.3344,10.3723,8.7034,7.6986,7.0951,6.7701,3.3328,3.3842,3.5467,3.8484,4.3507,5.1849,6.6656,9.7445,19.1928,200.0000
1.326,0,1708.14,12.17,153.59,1,0.0000,1.0000,0.0000,0.0000,297.2637,18.3328,1.6545,-0.0019,-0.0037,-0.0001,1.1605,-0.0000,-0.0606,10.8352,10.8809,10.8206,10.8111,-1.6672,6.6672,3.3328,0.0001,straight,150.00,0.00,52.74,0.00,43.00,-1,0.000,1.324,0.000,0.00,22.82,4,200.0000,38.3949,19.4936,13.3344,10.3723,8.7034,7.6986,7.0951,6.7701,3.3328,3.3842,3.5467,3.8484,4.3507,5.1849,6.6656,9.7445,19.1928,200.0000
1.346,0,1708.21,12.37,155.89,1,0.0000,1.0000,0.0000,0.0000,297.3320,18.3328,1.6542,-0.0019,-0.0040,-0.0001,2.9069,-0.0011,-0.0624,11.0034,11.0492,10.8515,10.9989,-1.6672,6.6672,3.3328,0.0001,straight,150.00,0.00,52.67,0.00,43.00,-1,0.000,1.344,0.000,0.00,22.82,4,200.0000,38.3949,19.4936,13.3344,10.3723,8.7034,7.6986,7.0951,6.7701,3.3328,3.3842,3.5467,3.8484,4.3507,5.1849,6.6656,9.7445,19.1928,200.0000
1.366,0,1708.27,12.57,158.27,1,0.0000,1.0000,0.0000,0.0000,297.4014,18.3328,1.6540,-0.0020,-0.0042,-0.0001,4.5101,-0.0021,-0.0613,11.1732,11.2204,10.7258,10.9158,-1.6672,6.6672,3.3328,0.0001,straight,150.00,0.00,52.60,0.00,43.00,-1,0.000,1.364,0.000,0.00,22.82,4,200.0000,38.3949,19.4936,13.3344,10.3723,8.7034,7.6986,7.0951,6.7701,3.3328,3.3842,3.5467,3.8484,4.3507,5.1849,6.6656,9.7445,19.1928,200.0000
1.386,0,1708.34,12.77,160.81,1,0.0000,1.0000,0.0000,0.0000,297.4719,18.3328,1.6536,-0.0019,-0.0044,-0.0001,5.4657,-0.0009,-0.0587,11.3528,11.3984,10.5817,10.6993,-1.6672,6.6672,3.3328,0.0001,straight,150.00,0.00,52.53,0.00,43.00,-1,0.000,1.384,0.000,0.00,22.82,4,200.0000,38.3949,19.4936,13.3344,10.3723,8.7034,7.6986,7.0951,6.7701,3.3328,3.3842,3.5467,3.8484,4.3507,5.1849,6.6656,9.7445,19.1928,200.0000
1.406,0,1708.41,12.98,163.45,1,0.0000,1.0000,0.0000,0.0000,297.5434,18.3328,1.6533,-0.0019,-0.0046,-0.0001,5.4257,-0.0002,-0.0527,11.5383,11.5811,10.5228,10.5239,-1.6672,6.6672,3.3328,0.0001,straight,150.00,0.00,52.46,0.00,43.00,-1,0.000,1.404,0.000,0.00,22.82,4,200.0000,38.3949,19.4936,13.3344,10.3723,8.7034,7.6986,7.0951,6.7701,3.3328,3.3842,3.5467,3.8484,4.3507,5.1849,6.6656,9.7445,19.1928,200.0000
1.426,0,1708.49,13.18,166.19,1,0.0000,1.0000,0.0000,0.0000,297.6161,18.3328,1.6530,-0.0019,-0.0047,-0.0001,4.6076,-0.0014,-0.0451,11.7288,11.7708,10.5998,10.4995,-1.6672,6.6672,3.3328,0.0001,straight,150.00,0.00,52.38,0.00,43.00,-1,0.000,1.424,0.000,0.00,22.82,4,200.0000,38.3949,19.4936,13.3344,10.3723,8.7034,7.6986,7.0951,6.7701,3.3328,3.3842,3.5467,3.8484,4.3507,5.1849,6.6656,9.7445,19.1928,200.0000
1.446,0,1708.56,13.38,169.01,1,0.0000,1.0000,0.0000,0.0000,297.6898,18.3328,1.6526,-0.0018,-0.0049,-0.0001,3.5190,-0.0026,-0.0374,11.9242,11.9678,10.8100,10.6648,-1.6672,6.6672,3.3328,0.0001,straight,150.00,0.00,52.31,0.00,43.00,-1,0.000,1.444,0.000,0.00,22.82,4,200.0000,38.3949,19.4936,13.3344,10.3723,8.7034,7.6986,7.0951,6.7701,3.3328,3.3842,3.5467,3.8484,4.3507,5.1849,6.6656,9.7445,19.1928,200.0000
1.466,0,1708.63,13.58,171.88,1,0.0000,1.0000,0.0000,0.0000,297.7647,18.3328,1.6522,-0.0016,-0.0050,-0.0001,2.5770,-0.0034,-0.0319,12.1243,12.1704,11.1058,10.9919,-1.6672,6.6672,3.3328,0.0001,straight,150.00,0.00,52.24,0.00,43.00,-1,0.000,1.464,0.000,0.00,22.82,4,200.0000,38.3949,19.4936,13.3344,10.3723,8.7034,7.6986,7.0951,6.7701,3.3328,3.3842,3.5467,3.8484,4.3507,5.1849,6.6656,9.7445,19.1928,200.0000
1.486,0,1708.71,13.78,174.79,1,0.0000,1.0000,0.0000,0.0000,297.8407,18.3328,1.6518,-0.0015,-0.0050,-0.0001,2.0518,-0.0035,-0.0270,12.3280,12.3771,11.4192,11.3878,-1.6672,6.6672,3.3328,0.0001,straight,150.00,0.00,52.16,0.00,43.00,-1,0.000,1.484,0.000,0.00,22.82,4,200.0000,38.3949,19.4936,13.3344,10.3723,8.7034,7.6986,7.0951,6.7701,3.3328,3.3842,3.5467,3.8484,4.3507,5.1849,6.6656,9.7445,19.1928,200.0000
1.506,0,1708.78,13.99,177.72,1,0.0000,1.0000,0.0000,0.0000,297.9179,18.3328,1.6514,-0.0013,-0.0051,-0.0001,2.0152,-0.0035,-0.0220,12.5347,12.5867,11.7005,11.7576,-1.6672,6.6672,3.3328,0.0001,straight,150.00,0.00,52.08,0.00,43.00,-1,0.000,1.504,0.000,0.00,22.82,4,200.0000,38.3949,19.4936,13.3344,10.3723,8.7034,7.6986,7.0951,6.7701,3.3328,3.3842,3.5467,3.8484,4.3507,5.1849,6.6656,9.7445,19.1928,200.0000
1.526,0,1708.86,14.20,180.69,1,0.0000,1.0000,0.0000,0.0000,297.9963,18.3328,1.6510,-0.0012,-0.0052,-0.0001,2.3248,-0.0035,-0.0172,12.7448,12.7989,11.9317,12.0474,-1.6672,6.6672,3.3328,0.0001,straight,150.00,0.00,52.00,0.00,43.00,-1,0.000,1.524,0.000,0.00,22.82,4,200.0000,38.3949,19.4936,13.3344,10.3723,8.7034,7.6986,7.0951,6.7701,3.3328,3.3842,3.5467,3.8484,4.3507,5.1849,6.6656,9.7445,19.1928,200.0000
1.546,0,1708.94,14.42,183.71,1,0.0000,1.0000,0.0000,0.0000,298.0758,18.3328,1.6506,-0.0010,-0.0052,-0.0001,2.7562,-0.0033,-0.0129,12.9591,13.0135,12.1214,12.2520,-1.6672,6.6672,3.3328,0.0001,straight,150.00,0.00,51.92,0.00,43.00,-1,0.000,1.544,0.000,0.00,22.82,4,200.0000,38.3949,19.4936,13.3344,10.3723,8.7034,7.6986,7.0951,6.7701,3.3328,3.3842,3.5467,3.8484,4.3507,5.1849,6.6656,9.7445,19.1928,200.0000
1.566,0,1709.02,14.64,186.79,1,0.0000,1.0000,0.0000,0.0000,298.1566,18.3328,1.6501,-0.0007,-0.0053,-0.0001,3.1372,-0.0031,-0.0083,13.1782,13.2316,12.2896,12.3996,-1.6672,6.6672,3.3328,0.0001,straight,150.00,0.00,51.84,0.00,43.00,-1,0.000,1.564,0.000,0.00,22.82,4,200.0000,38.3949,19.4936,13.3344,10.3723,8.7034,7.6986,7.0951,6.7701,3.3328,3.3842,3.5467,3.8484,4.3507,5.1849,6.6656,9.7445,19.1928,200.0000
1.586,0,1709.10,14.87,189.95,1,0.0000,1.0000,0.0000,0.0000,298.2386,18.3328,1.6497,-0.0005,-0.0053,-0.0001,3.3932,-0.0030,-0.0037,13.4023,13.4539,12.4543,12.5287,-1.6672,6.6672,3.3328,0.0001,straight,150.00,0.00,51.76,0.00,43.00,-1,0.000,1.584,0.000,0.00,22.82,4,200.0000,38.3949,19.4936,13.3344,10.3723,8.7034,7.6986,7.0951,6.7701,3.3328,3.3842,3.5467,3.8484,4.3507,5.1849,6.6656,9.7444,19.1928,200.0000
1.606,0,1709.18,15.09,193.18,1,0.0000,1.0000,0.0000,0.0000,298.3220,18.3328,1.6493,-0.0002,-0.0053,-0.0001,3.5314,-0.0028,-0.0009,13.6322,13.6805,12.6254,12.6674,-1.6672,6.6672,3.3328,0.0001,straight,150.00,0.00,51.68,0.00,43.00,-1,0.000,1.604,0.000,0.00,22.82,4,200.0000,38.3950,19.4937,13.3345,10.3724,8.7034,7.6987,7.0951,6.7701,3.3328,3.3842,3.5467,3.8484,4.3506,5.1849,6.6655,9.7444,19.1927,200.0000
1.626,0,1709.26,15.33,196.48,1,0.0000,1.0000,0.0000,0.0000,298.4065,18.3328,1.6488,0.0000,-0.0053,-0.0001,3.5964,-0.0028,0.0005,13.8679,13.9120,12.8057,12.8263,-1.6672,6.6672,3.3328,0.0001,straight,150.00,0.00,51.59,0.00,43.00,-1,0.000,1.624,0.000,0.00,22.82,4,200.0000,38.3951,19.4937,13.3345,10.3724,8.7035,7.6987,7.0951,6.7701,3.3328,3.3842,3.5466,3.8483,4.3506,5.1848,6.6655,9.7443,19.1926,200.0000
1.646,0,1709.35,15.56,199.87,1,0.0000,1.0000,0.0000,0.0000,298.4924,18.3328,1.6484,0.0003,-0.0053,-0.0001,3.6318,-0.0027,0.0031,14.1099,14.1483,12.9944,13.0037,-1.6673,6.6673,3.3327,0.0001,straight,150.00,0.00,51.51,0.00,43.00,-1,0.000,1.644,0.000,0.00,22.82,4,200.0000,38.3952,19.4938,13.3345,10.3724,8.7035,7.6987,7.0952,6.7701,3.3327,3.3841,3.5466,3.8483,4.3506,5.1848,6.6655,9.7443,19.1924,200.0000
1.666,0,1709.43,15.80,203.33,1,0.0000,1.0000,0.0000,0.0000,298.5796,18.3328,1.6480,0.0006,-0.0053,-0.0001,3.6635,-0.0026,0.0067,14.3584,14.3894,13.1896,13.1940,-1.6673,6.6673,3.3327,0.0001,straight,150.00,0.00,51.42,0.00,43.00,-1,0.000,1.664,0.000,0.00,22.82,4,200.0000,38.3954,19.4938,13.3346,10.3725,8.7035,7.6987,7.0952,6.7701,3.3327,3.3841,3.5466,3.8483,4.3506,5.1848,6.6654,9.7442,19.1923,200.0000
1.686,0,1709.52,16.04,206.88,1,0.0000,1.0000,0.0000,0.0000,298.6681,18.3327,1.6476,0.0008,-0.0053,-0.0001,3.7013,-0.0025,0.0100,14.6139,14.6355,13.3900,13.3924,-1.6673,6.6673,3.3327,0.0001,straight,150.00,0.00,51.33,0.00,43.00,-1,0.000,1.684,0.000,0.00,22.82,4,200.0000,38.3955,19.4939,13.3346,10.3725,8.7035,7.6987,7.0952,6.7702,3.3327,3.3841,3.5466,3.8483,4.3505,5.1848,6.6654,9.7442,19.1922,200.0000
1.706,0,1709.61,16.29,210.62,1,0.0249,1.0000,0.0000,0.0000,298.7580,18.3329,1.6471,0.0012,-0.0053,0.0001,3.7439,0.5709,0.0040,14.9015,14.8762,13.6218,13.5674,-1.6672,6.6672,3.3328,-0.0001,straight,150.00,0.00,51.24,0.00,43.00,-1,0.000,1.704,0.000,0.00,22.82,4,200.0000,38.3948,19.4936,13.3344,10.3723,8.7034,7.6986,7.0951,6.7700,3.3328,3.3842,3.5467,3.8484,4.3507,5.1849,6.6656,9.7445,19.1929,200.0000
1.726,0,1709.70,16.54,214.44,1,0.0498,1.0000,0.0000,0.0000,298.8492,18.3333,1.6467,0.0016,-0.0053,0.0005,3.7793,0.9880,-0.0018,15.2051,15.1146,13.8716,13.7298,-1.6667,6.6667,3.3333,-0.0005,straight,150.00,0.00,51.15,0.00,43.00,-1,0.000,1.724,0.000,0.00,22.81,4,200.0000,38.3921,19.4922,13.3335,10.3716,8.7028,7.6981,7.0946,6.7696,3.3333,3.3847,3.5472,3.8489,4.3513,5.1857,6.6665,9.7458,19.1956,200.0000
1.746,0,1709.79,16.79,218.31,1,0.0748,1.0000,0.0000,0.0000,298.9418,18.3343,1.6463,0.0023,-0.0053,0.0014,3.8136,1.3113,0.0089,15.5063,15.3612,14.1320,13.8859,-1.6658,6.6658,3.3342,-0.0014,straight,150.00,0.00,51.06,0.00,43.00,-1,0.000,1.744,0.000,0.00,22.81,4,200.0000,38.3865,19.4893,13.3315,10.3701,8.7015,7.6969,7.0935,6.7686,3.3342,3.3857,3.5482,3.8501,4.3526,5.1872,6.6685,9.7487,19.2012,200.0000
1.766,0,1709.88,17.04,222.31,1,0.0997,1.0000,0.0000,0.0000,299.0358,18.3359,1.6459,0.0032,-0.0053,0.0027,3.8426,1.5761,0.0181,15.8128,15.6198,14.3993,14.0386,-1.6641,6.6641,3.3359,-0.0027,straight,150.00,0.00,50.96,0.00,43.00,-1,0.000,1.764,0.000,0.00,22.81,4,200.0000,38.3773,19.4847,13.3283,10.3676,8.6994,7.6951,7.0918,6.7669,3.3359,3.3873,3.5499,3.8519,4.3547,5.1897,6.6717,9.7534,19.2104,200.0000
1.786,0,1709.98,17.30,226.54,1,0.0000,1.0000,0.0000,0.0000,299.1313,18.3378,1.6455,0.0039,-0.0053,0.0041,3.9580,-1.0569,0.0316,16.0783,15.9500,14.5701,14.3023,-1.6623,6.6623,3.3377,-0.0041,straight,150.00,0.00,50.87,0.00,43.00,-1,0.000,1.784,0.000,0.00,22.81,4,200.0000,38.3664,19.4791,13.3245,10.3646,8.6969,7.6929,7.0898,6.7650,3.3377,3.3892,3.5520,3.8541,4.3571,5.1926,6.6755,9.7589,19.2213,200.0000
1.806,0,1710.07,17.57,230.05,1,0.0000,1.0000,0.0000,0.0000,299.2282,18.3393,1.6451,0.0042,-0.0053,0.0049,4.0241,-0.7557,0.0741,16.2996,16.2281,14.7367,14.5809,-1.6607,6.6607,3.3393,-0.0049,straight,150.00,0.00,50.77,0.00,43.00,-1,0.000,1.804,0.000,0.00,22.81,4,200.0000,38.3576,19.4747,13.3215,10.3623,8.6950,7.6911,7.0882,6.7635,3.3393,3.3908,3.5536,3.8559,4.3591,5.1950,6.6785,9.7634,19.2301,200.0000
1.826,0,1710.17,17.84,233.76,1,0.0000,1.0000,0.0000,0.0000,299.3266,18.3405,1.6447,0.0040,-0.0053,0.0054,4.0644,-0.5222,0.0996,16.5696,16.4808,14.9306,14.8374,-1.6595,6.6595,3.3405,-0.0054,straight,150.00,0.00,50.67,0.00,43.00,-1,0.000,1.824,0.000,0.00,22.81,4,200.0000,38.3505,19.4710,13.3190,10.3603,8.6933,7.6897,7.0869,6.7622,3.3405,3.3920,3.5549,3.8573,4.3607,5.1969,6.6810,9.7670,19.2372,200.0000
1.846,0,1710.27,18.11,237.84,1,0.0000,1.0000,0.0000,0.0000,299.4265,18.3416,1.6444,0.0036,-0.0053,0.0057,4.1117,-0.3522,0.1034,16.8786,16.7463,15.1403,15.0830,-1.6584,6.6584,3.3416,-0.0057,straight,150.00,0.00,50.57,0.00,43.00,-1,0.000,1.844,0.000,0.00,22.81,4,200.0000,38.3445,19.4680,13.3169,10.3587,8.6920,7.6885,7.0858,6.7612,3.3416,3.3931,3.5560,3.8585,4.3621,5.1985,6.6831,9.7700,19.2432,200.0000
1.866,0,1710.37,18.39,242.19,1,0.0000,1.0000,0.0000,0.0000,299.5280,18.3425,1.6441,0.0030,-0.0053,0.0059,4.1647,-0.2349,0.0965,17.2136,17.0253,15.3604,15.3243,-1.6575,6.6575,3.3425,-0.0059,straight,150.00,0.00,50.47,0.00,43.00,-1,0.000,1.864,0.000,0.00,22.81,4,200.0000,38.3392,19.4653,13.3151,10.3573,8.6908,7.6875,7.0848,6.7602,3.3425,3.3940,3.5570,3.8595,4.3633,5.1999,6.6849,9.7727,19.2485,200.0000
1.886,0,1710.47,18.67,246.78,1,0.0000,1.0000,0.0000,0.0000,299.6310,18.3433,1.6438,0.0024,-0.0053,0.0060,4.2222,-0.1559,0.0827,17.5672,17.3191,15.5880,15.5647,-1.6567,6.6567,3.3433,-0.0060,straight,150.00,0.00,50.37,0.00,43.00,-1,0.000,1.884,0.000,0.00,22.81,4,200.0000,38.3344,19.4629,13.3134,10.3560,8.6897,7.6865,7.0839,6.7594,3.3433,3.3949,3.5579,3.8605,4.3644,5.2012,6.6866,9.7751,19.2533,200.0000
1.906,0,1710.57,18.95,251.57,1,0.0000,1.0000,0.0000,0.0000,299.7355,18.3441,1.6436,0.0018,-0.0053,0.0061,4.2825,-0.1031,0.0608,17.9341,17.6296,15.8215,15.8062,-1.6559,6.6559,3.3441,-0.0061,straight,150.00,0.00,50.26,0.00,43.00,-1,0.000,1.904,0.000,0.00,22.81,4,200.0000,38.3300,19.4606,13.3119,10.3548,8.6887,7.6856,7.0831,6.7586,3.3441,3.3957,3.5587,3.8614,4.3654,5.2025,6.6881,9.7774,19.2577,200.0000
1.926,0,1710.68,19.24,256.57,1,0.0000,1.0000,0.0000,0.0000,299.8417,18.3449,1.6434,0.0012,-0.0053,0.0061,4.3464,-0.0677,0.0402,18.3104,17.9592,16.0602,16.0500,-1.6552,6.6552,3.3448,-0.0061,straight,150.00,0.00,50.16,0.00,43.00,-1,0.000,1.924,0.000,0.00,22.81,4,200.0000,38.3257,19.4584,13.3104,10.3536,8.6877,7.6847,7.0823,6.7578,3.3448,3.3964,3.5595,3.8623,4.3664,5.2036,6.6896,9.7796,19.2620,200.0000
1.946,0,1710.78,19.54,261.76,1,0.0000,1.0000,0.0000,0.0000,299.9495,18.3456,1.6433,0.0007,-0.0053,0.0062,4.4126,-0.0438,0.0203,18.6930,18.3093,16.3038,16.2968,-1.6545,6.6545,3.3455,-0.0062,straight,150.00,0.00,50.05,0.00,43.00,-1,0.000,1.944,0.000,0.00,22.81,4,200.0000,38.3215,19.4563,13.3089,10.3525,8.6868,7.6839,7.0815,6.7571,3.3455,3.3972,3.5603,3.8631,4.3673,5.2047,6.6911,9.7817,19.2662,200.0000
1.966,0,1710.89,19.83,267.16,1,0.0000,1.0000,0.0000,0.0000,300.0590,18.3463,1.6431,0.0003,-0.0054,0.0062,4.4838,-0.0277,0.0037,19.0837,18.6815,16.5521,16.5471,-1.6537,6.6537,3.3463,-0.0062,straight,150.00,0.00,49.94,0.00,43.00,-1,0.000,1.964,0.000,0.00,22.81,4,200.0000,38.3173,19.4542,13.3075,10.3514,8.6858,7.6831,7.0807,6.7564,3.3463,3.3979,3.5610,3.8639,4.3682,5.2059,6.6925,9.7838,19.2704,200.0000
1.986,0,1711.00,20.14,272.74,1,0.0000,1.0000,0.0000,0.0000,300.1701,18.3470,1.6429,-0.0001,-0.0055,0.0062,4.5573,-0.0167,-0.0072,19.4824,19.0707,16.8051,16.8015,-1.6530,6.6530,3.3470,-0.0062,straight,150.00,0.00,49.83,0.00,43.00,-1,0.000,1.984,0.000,0.00,22.81,4,200.0000,38.3131,19.4521,13.3060,10.3502,8.6849,7.6822,7.0800,6.7556,3.3470,3.3986,3.5618,3.8648,4.3692,5.2070,6.6940,9.7860,19.2746,200.0000
